{"id":"dvf-2024-1229157","address":{"raw":"1 Rue Des Fosses St Marcel, 75005 Paris","normalized":"1 Rue des Fossés Saint-Marcel 75005 Paris","lat":48.839562,"lng":2.356399,"district":"75005"},"characteristics":{"surface_m2":47,"rooms":3,"floor":5},"pricing":{"current_price":480400,"price_per_m2":10221,"initial_price":480400},"timeline":{"first_seen":"2026-06-29","last_seen":"2026-07-01","days_on_market":2},"price_history":[{"date":"2026-06-29","price":480400,"source":"dvf"}],"status":"active","dvf":{"avg_price_m2_100m":11000,"avg_price_m2_500m":11064,"comparable_sales":[{"price":576945,"date":"2024-04-30","distance_m":11},{"price":320170,"date":"2024-09-18","distance_m":11},{"price":550000,"date":"2024-03-12","distance_m":27},{"price":484800,"date":"2024-09-09","distance_m":38},{"price":440000,"date":"2024-10-16","distance_m":38},{"price":327900,"date":"2024-12-12","distance_m":45},{"price":525000,"date":"2024-10-03","distance_m":49},{"price":1485000,"date":"2024-11-25","distance_m":52}]},"risks":{"flood":0.04,"clay":0.36,"noise":0.4},"transport_score":85,"neighborhood":{"walk_score":85,"schools_500m":10,"income":37000,"velib_400m":6,"trees_150m":36,"amenities":{"food":20,"health":2,"green":4,"culture":8}},"rent":{"ref_m2":25,"max_m2":30,"min_m2":17.5,"quartier":"Jardin-des-Plantes","monthly_est":1410},"investment":{"gross_yield":3.52,"net_yield":2.16,"ppm2_percentile":14,"negotiation_margin_pct":0.1,"dpe_risk_score":55,"value_add_flag":false},"pois":[{"type":"transport","lat":48.83842729696758,"lng":2.360967167698855,"label":"Saint-Marcel · METRO 5"},{"type":"transport","lat":48.84023383632875,"lng":2.3516064753021904,"label":"Censier-Daubenton · METRO 7"},{"type":"transport","lat":48.84286683068267,"lng":2.352224728183084,"label":"Place Monge · METRO 7"},{"type":"transport","lat":48.83593030287887,"lng":2.3525422662627022,"label":"Les Gobelins · METRO 7"},{"type":"transport","lat":48.835152535740804,"lng":2.3585662563494667,"label":"Campo Formio · METRO 5"},{"type":"park","lat":48.83876418659765,"lng":2.353757908862067,"label":"SQUARE THEODORE MONOD"},{"type":"park","lat":48.84228360839184,"lng":2.3540094346806604,"label":"SQUARE ROBERT MONTAGNE"},{"type":"park","lat":48.83615372496458,"lng":2.359892493989504,"label":"JARDIN FEDERICA MONTSENY"},{"type":"velib","lat":48.83907826424974,"lng":2.356877340669728,"label":"Geoffroy-Saint-Hilaire - Saint-Marcel"},{"type":"velib","lat":48.838151608087,"lng":2.3571084495564,"label":"Duméril - Jeanne d'Arc"},{"type":"velib","lat":48.84107178161383,"lng":2.355475388467312,"label":"Censier - Jardin des Plantes"},{"type":"velib","lat":48.840658921385234,"lng":2.3537524044513702,"label":"Censier - Santeuil"}],"dpe":{"energy_class":"E","ghg_class":"C"},"images":["https://images.unsplash.com/photo-1540518614846-7eded433c457?w=1200&h=750&q=66&auto=format&fit=crop&crop=entropy","https://images.unsplash.com/photo-1505691938895-1758d7feb511?w=1200&h=750&q=66&auto=format&fit=crop&crop=entropy","https://images.unsplash.com/photo-1556912173-3bb406ef7e77?w=1200&h=750&q=66&auto=format&fit=crop&crop=entropy","https://images.unsplash.com/photo-1493663284031-b7e3aefcae8e?w=1200&h=750&q=66&auto=format&fit=crop&crop=entropy","https://images.unsplash.com/photo-1560448204-e02f11c3d0e2?w=1200&h=750&q=66&auto=format&fit=crop&crop=entropy"],"thumb":"https://images.unsplash.com/photo-1540518614846-7eded433c457?w=480&h=300&q=55&auto=format&fit=crop&crop=entropy","score":{"opportunity_score":42,"value_score":86,"yield_score":38,"negotiation_score":0,"liquidity_score":83,"gentrification_score":50},"signals":{"price_drops":0,"total_drop_percent":0,"long_time_on_market":false,"explanations":["2.2% net rental yield (gross 3.5%)","7.3% below DVF average (11 026 €/m²)","Cheaper than 86% of the arrondissement","2 days on market"]},"source":"dvf","url":"https://app.dvf.etalab.gouv.fr/"}