{"id":"dvf-2024-1229108","address":{"raw":"5 Rue De Gribeauval, 75007 Paris","normalized":"5 Rue de Gribeauval 75007 Paris","lat":48.856302,"lng":2.326675,"district":"75007"},"characteristics":{"surface_m2":30,"rooms":1,"floor":2},"pricing":{"current_price":374000,"price_per_m2":12467,"initial_price":374000},"timeline":{"first_seen":"2026-06-29","last_seen":"2026-07-01","days_on_market":2},"price_history":[{"date":"2026-06-29","price":374000,"source":"dvf"}],"status":"active","dvf":{"avg_price_m2_100m":19249,"avg_price_m2_500m":17408,"comparable_sales":[{"price":788920,"date":"2024-06-12","distance_m":24},{"price":4275000,"date":"2024-09-06","distance_m":25},{"price":2300000,"date":"2024-03-28","distance_m":33},{"price":1800000,"date":"2024-12-13","distance_m":36},{"price":2953668,"date":"2024-06-24","distance_m":70},{"price":175000,"date":"2024-01-09","distance_m":72},{"price":1000000,"date":"2024-01-30","distance_m":110},{"price":2223310,"date":"2024-05-14","distance_m":110}]},"risks":{"flood":0.39,"clay":0.42,"noise":0.47},"transport_score":100,"neighborhood":{"walk_score":42,"schools_500m":9,"income":47000,"velib_400m":5,"trees_150m":26,"amenities":{"food":4,"health":0,"green":1,"culture":1}},"rent":{"ref_m2":33.4,"max_m2":40.1,"min_m2":23.4,"quartier":"Saint-Thomas-d'Aquin","monthly_est":1203},"investment":{"gross_yield":3.86,"net_yield":2.47,"ppm2_percentile":32,"negotiation_margin_pct":0.1,"dpe_risk_score":30,"value_add_flag":true},"pois":[{"type":"transport","lat":48.85519632481491,"lng":2.325815566511529,"label":"Rue du Bac · METRO 12"},{"type":"transport","lat":48.85849912371638,"lng":2.323167611246745,"label":"Solférino · METRO 12"},{"type":"transport","lat":48.860351434026214,"lng":2.3267597744418103,"label":"Musée d'Orsay · RER C"},{"type":"transport","lat":48.85176205249548,"lng":2.326822568897497,"label":"Sèvres-Babylone · METRO 12"},{"type":"transport","lat":48.851031751239304,"lng":2.3261023128241907,"label":"Sèvres-Babylone · METRO 10"},{"type":"park","lat":48.854597182449275,"lng":2.330849197730943,"label":"SQUARE TARAS CHEVTCHENKO"},{"type":"park","lat":48.85859593119711,"lng":2.3224308582450486,"label":"JARDINET DE LA PLACE JACQUES BAINVILLE"},{"type":"park","lat":48.852767431563166,"lng":2.3280139556593817,"label":"SQUARE ROGER STEPHANE"},{"type":"velib","lat":48.855628721101,"lng":2.3256602883339,"label":"Raspail - Bac"},{"type":"velib","lat":48.858297001218,"lng":2.3237934708595,"label":"Villersexel - Saint-Germain"},{"type":"velib","lat":48.853147816545,"lng":2.3263905197382,"label":"Raspail - Varenne"},{"type":"velib","lat":48.853729675265,"lng":2.3300181032703,"label":"Saint Pères - Saint Germain"}],"dpe":{"energy_class":"F","ghg_class":"F"},"images":["https://images.unsplash.com/photo-1502005097973-6a7082348e28?w=1200&h=750&q=66&auto=format&fit=crop&crop=entropy","https://images.unsplash.com/photo-1554995207-c18c203602cb?w=1200&h=750&q=66&auto=format&fit=crop&crop=entropy","https://images.unsplash.com/photo-1522708323590-d24dbb6b0267?w=1200&h=750&q=66&auto=format&fit=crop&crop=entropy","https://images.unsplash.com/photo-1560448204-e02f11c3d0e2?w=1200&h=750&q=66&auto=format&fit=crop&crop=entropy","https://images.unsplash.com/photo-1540518614846-7eded433c457?w=1200&h=750&q=66&auto=format&fit=crop&crop=entropy"],"thumb":"https://images.unsplash.com/photo-1502005097973-6a7082348e28?w=480&h=300&q=55&auto=format&fit=crop&crop=entropy","score":{"opportunity_score":65,"value_score":100,"yield_score":54,"negotiation_score":0,"liquidity_score":90,"gentrification_score":56},"signals":{"price_drops":0,"total_drop_percent":0,"long_time_on_market":false,"explanations":["2.5% net rental yield (gross 3.9%)","32.7% below DVF average (18 513 €/m²)","Cheaper than 68% of the arrondissement","2 days on market","Value-add: discount exceeds renovation cost (F/G arbitrage)"]},"source":"dvf","url":"https://app.dvf.etalab.gouv.fr/"}