{"id":"dvf-2024-1227882","address":{"raw":"77 Rue Du Pere Corentin, 75014 Paris","normalized":"77 Rue du Père Corentin 75014 Paris","lat":48.823331,"lng":2.32711,"district":"75014"},"characteristics":{"surface_m2":29,"rooms":1,"floor":1},"pricing":{"current_price":304700,"price_per_m2":10507,"initial_price":304700},"timeline":{"first_seen":"2026-06-29","last_seen":"2026-07-02","days_on_market":3},"price_history":[{"date":"2026-06-29","price":304700,"source":"dvf"}],"status":"active","dvf":{"avg_price_m2_100m":8212,"avg_price_m2_500m":9258,"comparable_sales":[{"price":516200,"date":"2024-02-02","distance_m":12},{"price":335000,"date":"2024-04-22","distance_m":12},{"price":398455,"date":"2024-07-12","distance_m":34},{"price":530460,"date":"2024-06-20","distance_m":44},{"price":265000,"date":"2024-08-07","distance_m":44},{"price":230000,"date":"2024-01-18","distance_m":68},{"price":359740,"date":"2024-05-28","distance_m":68},{"price":285000,"date":"2024-09-24","distance_m":69}]},"risks":{"flood":0.03,"clay":0.42,"noise":0.47},"transport_score":92,"neighborhood":{"walk_score":68,"schools_500m":12,"income":32000,"velib_400m":4,"trees_150m":79,"amenities":{"food":26,"health":1,"green":1,"culture":1}},"rent":{"ref_m2":30.2,"max_m2":36.2,"min_m2":21.1,"quartier":"Petit-Montrouge","monthly_est":1050},"investment":{"gross_yield":4.13,"net_yield":2.73,"ppm2_percentile":72,"negotiation_margin_pct":0.1,"dpe_risk_score":30,"value_add_flag":false},"pois":[{"type":"transport","lat":48.82341162898739,"lng":2.3255756362122453,"label":"Porte d'Orléans · METRO 4"},{"type":"transport","lat":48.823151633128084,"lng":2.325509577822384,"label":"Porte d'Orléans · TRAM 3a"},{"type":"transport","lat":48.82150891739616,"lng":2.333339832857645,"label":"Montsouris · TRAM 3a"},{"type":"transport","lat":48.82818847631351,"lng":2.3271646496078247,"label":"Alésia · METRO 4"},{"type":"transport","lat":48.82471101880376,"lng":2.318829692620226,"label":"Jean Moulin · TRAM 3a"},{"type":"park","lat":48.82061933603214,"lng":2.327514050802643,"label":"COMPLEXE SPORTIF ELISABETH"},{"type":"park","lat":48.823793109225974,"lng":2.331247103085243,"label":"SQUARE MARIAMA BA"},{"type":"park","lat":48.82127558084725,"lng":2.324033784273737,"label":"JARDIN PARTAGE DU SQUARE DU SERMENT DE KOUFRA"},{"type":"velib","lat":48.82234096593411,"lng":2.327861653302471,"label":"Le Brix et Mesmin - Jourdan"},{"type":"velib","lat":48.8227639,"lng":2.3249313,"label":"Porte d'Orléans"},{"type":"velib","lat":48.825030852925,"lng":2.3264128693982,"label":"Sarrette - Général Leclerc"},{"type":"velib","lat":48.822032,"lng":2.329095,"label":"Jourdan - Monticelli"}],"dpe":{"energy_class":"F","ghg_class":"F"},"images":["https://images.unsplash.com/photo-1493663284031-b7e3aefcae8e?w=1200&h=750&q=66&auto=format&fit=crop&crop=entropy","https://images.unsplash.com/photo-1502005097973-6a7082348e28?w=1200&h=750&q=66&auto=format&fit=crop&crop=entropy","https://images.unsplash.com/photo-1484154218962-a197022b5858?w=1200&h=750&q=66&auto=format&fit=crop&crop=entropy","https://images.unsplash.com/photo-1493809842364-78817add7ffb?w=1200&h=750&q=66&auto=format&fit=crop&crop=entropy","https://images.unsplash.com/photo-1505691938895-1758d7feb511?w=1200&h=750&q=66&auto=format&fit=crop&crop=entropy"],"thumb":"https://images.unsplash.com/photo-1493663284031-b7e3aefcae8e?w=480&h=300&q=55&auto=format&fit=crop&crop=entropy","score":{"opportunity_score":30,"value_score":28,"yield_score":68,"negotiation_score":1,"liquidity_score":79,"gentrification_score":51},"signals":{"price_drops":0,"total_drop_percent":0,"long_time_on_market":false,"explanations":["2.7% net rental yield (gross 4.1%)","21.7% above DVF average","3 days on market","Energy class F — rental restrictions apply"]},"source":"dvf","url":"https://app.dvf.etalab.gouv.fr/"}