{"id":"dvf-2024-1229254","address":{"raw":"133 Av De Versailles, 75016 Paris","normalized":"133 Avenue de Versailles 75016 Paris","lat":48.842596,"lng":2.268955,"district":"75016"},"characteristics":{"surface_m2":72,"rooms":3,"floor":5},"pricing":{"current_price":520000,"price_per_m2":7222,"initial_price":520000},"timeline":{"first_seen":"2026-06-29","last_seen":"2026-07-02","days_on_market":3},"price_history":[{"date":"2026-06-29","price":520000,"source":"dvf"}],"status":"active","dvf":{"avg_price_m2_100m":10831,"avg_price_m2_500m":10093,"comparable_sales":[{"price":1240000,"date":"2024-02-01","distance_m":36},{"price":1727000,"date":"2024-01-24","distance_m":41},{"price":955000,"date":"2024-09-02","distance_m":41},{"price":340500,"date":"2024-09-18","distance_m":41},{"price":1710200,"date":"2024-11-19","distance_m":41},{"price":402844,"date":"2024-06-04","distance_m":55},{"price":817156,"date":"2024-06-04","distance_m":55},{"price":1030000,"date":"2024-09-09","distance_m":55}]},"risks":{"flood":0.36,"clay":0.33,"noise":0.35},"transport_score":86,"neighborhood":{"walk_score":44,"schools_500m":4,"income":44000,"velib_400m":2,"trees_150m":136,"amenities":{"food":12,"health":0,"green":0,"culture":0}},"rent":{"ref_m2":24.6,"max_m2":29.5,"min_m2":17.2,"quartier":"Auteuil","monthly_est":2124},"investment":{"gross_yield":4.9,"net_yield":3.44,"ppm2_percentile":0,"negotiation_margin_pct":0.1,"dpe_risk_score":88,"value_add_flag":false},"pois":[{"type":"transport","lat":48.84520470358118,"lng":2.266441541719401,"label":"Chardon Lagache · METRO 10"},{"type":"transport","lat":48.83908975542996,"lng":2.2704582437872425,"label":"Pont du Garigliano · RER C"},{"type":"transport","lat":48.84715005481051,"lng":2.26913587274288,"label":"Église d'Auteuil · METRO 10"},{"type":"transport","lat":48.838075890559814,"lng":2.271174403433847,"label":"Pont du Garigliano · TRAM 3a"},{"type":"transport","lat":48.84713100819624,"lng":2.2727637533161595,"label":"Mirabeau · METRO 10"},{"type":"park","lat":48.84416391702763,"lng":2.2678951405082577,"label":"JARDIN PARTAGE DU JARDIN DE L'HOPITAL SAINTE-PERINE"},{"type":"park","lat":48.844473087884005,"lng":2.269068138710125,"label":"JARDIN DE L'HOPITAL SAINTE-PERINE"},{"type":"velib","lat":48.84021670922,"lng":2.2716060653329,"label":"Place du Moulin de Javel"},{"type":"velib","lat":48.84097491091973,"lng":2.264390252530575,"label":"Exelmans - Versailles"}],"dpe":{"energy_class":"C","ghg_class":"A"},"images":["https://images.unsplash.com/photo-1567496898669-ee935f5f647a?w=1200&h=750&q=66&auto=format&fit=crop&crop=entropy","https://images.unsplash.com/photo-1493809842364-78817add7ffb?w=1200&h=750&q=66&auto=format&fit=crop&crop=entropy","https://images.unsplash.com/photo-1560448204-e02f11c3d0e2?w=1200&h=750&q=66&auto=format&fit=crop&crop=entropy","https://images.unsplash.com/photo-1505691938895-1758d7feb511?w=1200&h=750&q=66&auto=format&fit=crop&crop=entropy","https://images.unsplash.com/photo-1484154218962-a197022b5858?w=1200&h=750&q=66&auto=format&fit=crop&crop=entropy"],"thumb":"https://images.unsplash.com/photo-1567496898669-ee935f5f647a?w=480&h=300&q=55&auto=format&fit=crop&crop=entropy","score":{"opportunity_score":71,"value_score":100,"yield_score":98,"negotiation_score":1,"liquidity_score":67,"gentrification_score":64},"signals":{"price_drops":0,"total_drop_percent":0,"long_time_on_market":false,"explanations":["3.4% net rental yield (gross 4.9%)","31.5% below DVF average (10 536 €/m²)","Cheaper than 100% of the arrondissement","3 days on market"]},"source":"dvf","url":"https://app.dvf.etalab.gouv.fr/"}