{"id":"dvf-2024-1228315","address":{"raw":"13 Rue Gudin, 75016 Paris","normalized":"13 Rue Gudin 75016 Paris","lat":48.837956,"lng":2.258959,"district":"75016"},"characteristics":{"surface_m2":32,"rooms":2,"floor":2},"pricing":{"current_price":328400,"price_per_m2":10263,"initial_price":328400},"timeline":{"first_seen":"2026-06-29","last_seen":"2026-07-01","days_on_market":2},"price_history":[{"date":"2026-06-29","price":328400,"source":"dvf"}],"status":"active","dvf":{"avg_price_m2_100m":8807,"avg_price_m2_500m":9144,"comparable_sales":[{"price":130000,"date":"2024-11-15","distance_m":14},{"price":425600,"date":"2024-02-29","distance_m":21},{"price":350000,"date":"2024-06-06","distance_m":21},{"price":595000,"date":"2024-08-30","distance_m":27},{"price":1250000,"date":"2024-10-08","distance_m":27},{"price":350000,"date":"2024-04-29","distance_m":30},{"price":403900,"date":"2024-09-26","distance_m":30},{"price":117000,"date":"2024-02-13","distance_m":57}]},"risks":{"flood":0.05,"clay":0.45,"noise":0.25},"transport_score":76,"neighborhood":{"walk_score":51,"schools_500m":2,"income":44000,"velib_400m":2,"trees_150m":60,"amenities":{"food":12,"health":2,"green":2,"culture":2}},"rent":{"ref_m2":25.4,"max_m2":30.5,"min_m2":17.8,"quartier":"Auteuil","monthly_est":976},"investment":{"gross_yield":3.57,"net_yield":2.2,"ppm2_percentile":54,"negotiation_margin_pct":0.1,"dpe_risk_score":10,"value_add_flag":false},"pois":[{"type":"transport","lat":48.83796121443632,"lng":2.2571222298326203,"label":"Porte de Saint-Cloud · METRO 9"},{"type":"transport","lat":48.84241277035873,"lng":2.259608472752572,"label":"Exelmans · METRO 9"},{"type":"park","lat":48.837937820893366,"lng":2.2569786554879454,"label":"JARDIN DE LA PLACE DE LA PORTE DE SAINT-CLOUD"},{"type":"park","lat":48.83607096106172,"lng":2.2585376864519247,"label":"PROMENADE PLANTEE DODE DE LA BRUNERIE"},{"type":"park","lat":48.83871907850932,"lng":2.25620309849147,"label":"JARDIN DE L'EGLISE SAINTE-JEANNE DE CHANTAL"},{"type":"velib","lat":48.837508626213,"lng":2.2577651962638,"label":"Murat - Porte de Saint-Cloud"},{"type":"velib","lat":48.840579923690115,"lng":2.2584119439125065,"label":"Michel-Ange - Parent de Rosan"}],"dpe":{"energy_class":"G","ghg_class":"G"},"images":["https://images.unsplash.com/photo-1522708323590-d24dbb6b0267?w=1200&h=750&q=66&auto=format&fit=crop&crop=entropy","https://images.unsplash.com/photo-1540518614846-7eded433c457?w=1200&h=750&q=66&auto=format&fit=crop&crop=entropy","https://images.unsplash.com/photo-1493663284031-b7e3aefcae8e?w=1200&h=750&q=66&auto=format&fit=crop&crop=entropy","https://images.unsplash.com/photo-1493809842364-78817add7ffb?w=1200&h=750&q=66&auto=format&fit=crop&crop=entropy","https://images.unsplash.com/photo-1484154218962-a197022b5858?w=1200&h=750&q=66&auto=format&fit=crop&crop=entropy"],"thumb":"https://images.unsplash.com/photo-1522708323590-d24dbb6b0267?w=480&h=300&q=55&auto=format&fit=crop&crop=entropy","score":{"opportunity_score":24,"value_score":46,"yield_score":41,"negotiation_score":0,"liquidity_score":76,"gentrification_score":64},"signals":{"price_drops":0,"total_drop_percent":0,"long_time_on_market":false,"explanations":["2.2% net rental yield (gross 3.6%)","14.8% above DVF average","2 days on market","Energy class G — rental restrictions apply"]},"source":"dvf","url":"https://app.dvf.etalab.gouv.fr/"}