{"id":"dvf-2024-1210315","address":{"raw":"144 Av Jean Jaures, 75019 Paris","normalized":"144 Avenue Jean Jaurès 75019 Paris","lat":48.886931,"lng":2.386645,"district":"75019"},"characteristics":{"surface_m2":24,"rooms":1,"floor":0},"pricing":{"current_price":195500,"price_per_m2":8146,"initial_price":195500},"timeline":{"first_seen":"2026-06-29","last_seen":"2026-07-01","days_on_market":2},"price_history":[{"date":"2026-06-29","price":195500,"source":"dvf"}],"status":"active","dvf":{"avg_price_m2_100m":8410,"avg_price_m2_500m":7913,"comparable_sales":[{"price":303000,"date":"2024-10-30","distance_m":11},{"price":620000,"date":"2024-02-29","distance_m":18},{"price":600000,"date":"2024-04-09","distance_m":18},{"price":338000,"date":"2024-09-12","distance_m":36},{"price":650000,"date":"2024-07-09","distance_m":38},{"price":235000,"date":"2024-06-07","distance_m":43},{"price":75000,"date":"2024-05-23","distance_m":59},{"price":229500,"date":"2024-06-11","distance_m":59}]},"risks":{"flood":0.02,"clay":0.07,"noise":0.74},"transport_score":76,"neighborhood":{"walk_score":74,"schools_500m":42,"income":23000,"velib_400m":4,"trees_150m":52,"amenities":{"food":12,"health":6,"green":3,"culture":1}},"rent":{"ref_m2":27.3,"max_m2":32.8,"min_m2":19.1,"quartier":"Amérique","monthly_est":787},"investment":{"gross_yield":4.83,"net_yield":3.38,"ppm2_percentile":32,"negotiation_margin_pct":0.1,"dpe_risk_score":88,"value_add_flag":false},"pois":[{"type":"transport","lat":48.886856931501875,"lng":2.3859131742732758,"label":"Ourcq · METRO 5"},{"type":"transport","lat":48.88841747876783,"lng":2.3917844509634323,"label":"Porte de Pantin · METRO 5"},{"type":"transport","lat":48.884970562766206,"lng":2.3787169232246455,"label":"Laumière · METRO 5"},{"type":"transport","lat":48.889007649506944,"lng":2.3956810747116024,"label":"Porte de Pantin · TRAM 3b"},{"type":"park","lat":48.88801997788487,"lng":2.384634734485179,"label":"JARDIN PARTAGE 6-8 RUE DE L'OURCQ"},{"type":"park","lat":48.88850255338872,"lng":2.3848082371734556,"label":"PROMENADE PC 19 - THIONVILLE - JAURES"},{"type":"park","lat":48.884720341890834,"lng":2.3889847475157784,"label":"CIMETIERE DE LA VILLETTE"},{"type":"velib","lat":48.886393679436,"lng":2.3865414544355,"label":"Hautpoul - Jean Jaurès"},{"type":"velib","lat":48.88603131999171,"lng":2.3895753175020222,"label":"Petit - Georges Thill"},{"type":"velib","lat":48.8863865,"lng":2.3825772,"label":"Lorraine - Jean Jaurès"},{"type":"velib","lat":48.88917613743794,"lng":2.3833653330802917,"label":"Thionville - Ourcq"}],"dpe":{"energy_class":"C","ghg_class":"C"},"images":["https://images.unsplash.com/photo-1502672260266-1c1ef2d93688?w=1200&h=750&q=66&auto=format&fit=crop&crop=entropy","https://images.unsplash.com/photo-1493663284031-b7e3aefcae8e?w=1200&h=750&q=66&auto=format&fit=crop&crop=entropy","https://images.unsplash.com/photo-1484154218962-a197022b5858?w=1200&h=750&q=66&auto=format&fit=crop&crop=entropy","https://images.unsplash.com/photo-1540518614846-7eded433c457?w=1200&h=750&q=66&auto=format&fit=crop&crop=entropy","https://images.unsplash.com/photo-1505691938895-1758d7feb511?w=1200&h=750&q=66&auto=format&fit=crop&crop=entropy"],"thumb":"https://images.unsplash.com/photo-1502672260266-1c1ef2d93688?w=480&h=300&q=55&auto=format&fit=crop&crop=entropy","score":{"opportunity_score":60,"value_score":68,"yield_score":96,"negotiation_score":0,"liquidity_score":71,"gentrification_score":45},"signals":{"price_drops":0,"total_drop_percent":0,"long_time_on_market":false,"explanations":["3.4% net rental yield (gross 4.8%)","Cheaper than 68% of the arrondissement","2 days on market"]},"source":"dvf","url":"https://app.dvf.etalab.gouv.fr/"}