{"id":"dvf-2024-1210189","address":{"raw":"48 B Rue Custine, 75018 Paris","normalized":"48b Rue Custine 75018 Paris","lat":48.889398,"lng":2.344778,"district":"75018"},"characteristics":{"surface_m2":63,"rooms":3,"floor":1},"pricing":{"current_price":590020,"price_per_m2":9365,"initial_price":590020},"timeline":{"first_seen":"2026-06-29","last_seen":"2026-07-02","days_on_market":3},"price_history":[{"date":"2026-06-29","price":590020,"source":"dvf"}],"status":"active","dvf":{"avg_price_m2_100m":10039,"avg_price_m2_500m":9500,"comparable_sales":[{"price":336819,"date":"2024-05-24","distance_m":33},{"price":210000,"date":"2024-12-04","distance_m":43},{"price":599350,"date":"2024-12-30","distance_m":43},{"price":595760,"date":"2024-03-22","distance_m":54},{"price":994100,"date":"2024-05-31","distance_m":54},{"price":268000,"date":"2024-06-26","distance_m":60},{"price":298000,"date":"2024-06-12","distance_m":61},{"price":180000,"date":"2024-07-11","distance_m":61}]},"risks":{"flood":0.05,"clay":0.37,"noise":0.42},"transport_score":87,"neighborhood":{"walk_score":85,"schools_500m":15,"income":26000,"velib_400m":7,"trees_150m":82,"amenities":{"food":29,"health":8,"green":0,"culture":5}},"rent":{"ref_m2":22.8,"max_m2":27.4,"min_m2":16,"quartier":"Clignancourt","monthly_est":1726},"investment":{"gross_yield":3.51,"net_yield":2.15,"ppm2_percentile":58,"negotiation_margin_pct":0.1,"dpe_risk_score":75,"value_add_flag":false},"pois":[{"type":"transport","lat":48.892418922945716,"lng":2.3447646117383565,"label":"Jules Joffrin · METRO 12"},{"type":"transport","lat":48.89143955488239,"lng":2.349627158227453,"label":"Marcadet-Poissonniers · METRO 4"},{"type":"transport","lat":48.89146500033268,"lng":2.3498154532183615,"label":"Marcadet-Poissonniers · METRO 12"},{"type":"transport","lat":48.88967407389343,"lng":2.338760650528743,"label":"Lamarck-Caulaincourt · METRO 12"},{"type":"transport","lat":48.885661112701506,"lng":2.3425496532584886,"label":"Funiculaire Montmartre Station Haute · FUNICULAIRE MONTMARTRE"},{"type":"park","lat":48.88780908893412,"lng":2.3437300208846246,"label":"PARC MARCEL BLEUNSTEIN-BLANCHET DIT PARC DE LA TURLURE"},{"type":"park","lat":48.888264184595776,"lng":2.3411579182028097,"label":"JARDIN SAINT-VINCENT"},{"type":"park","lat":48.887505723723464,"lng":2.3418002069429624,"label":"SQUARE CLAUDE CHARPENTIER"},{"type":"velib","lat":48.890875,"lng":2.3449019,"label":"Marcadet - Ramey"},{"type":"velib","lat":48.888735896947,"lng":2.3469526693225,"label":"Custine - Ramey"},{"type":"velib","lat":48.8899944409612,"lng":2.342529706656933,"label":"Francoeur - Caulaincourt"},{"type":"velib","lat":48.890451120965,"lng":2.3490573929687,"label":"Marcadet - Barbès"}],"dpe":{"energy_class":"D","ghg_class":"D"},"images":["https://images.unsplash.com/photo-1540518614846-7eded433c457?w=1200&h=750&q=66&auto=format&fit=crop&crop=entropy","https://images.unsplash.com/photo-1502672260266-1c1ef2d93688?w=1200&h=750&q=66&auto=format&fit=crop&crop=entropy","https://images.unsplash.com/photo-1554995207-c18c203602cb?w=1200&h=750&q=66&auto=format&fit=crop&crop=entropy","https://images.unsplash.com/photo-1560448204-e02f11c3d0e2?w=1200&h=750&q=66&auto=format&fit=crop&crop=entropy","https://images.unsplash.com/photo-1505691938895-1758d7feb511?w=1200&h=750&q=66&auto=format&fit=crop&crop=entropy"],"thumb":"https://images.unsplash.com/photo-1540518614846-7eded433c457?w=480&h=300&q=55&auto=format&fit=crop&crop=entropy","score":{"opportunity_score":40,"value_score":62,"yield_score":38,"negotiation_score":1,"liquidity_score":73,"gentrification_score":44},"signals":{"price_drops":0,"total_drop_percent":0,"long_time_on_market":false,"explanations":["2.1% net rental yield (gross 3.5%)","4.7% below DVF average (9 823 €/m²)","3 days on market"]},"source":"dvf","url":"https://app.dvf.etalab.gouv.fr/"}