{"id":"dvf-2024-1228669","address":{"raw":"42 Rue Daguerre, 75014 Paris","normalized":"42 Rue Daguerre 75014 Paris","lat":48.834597,"lng":2.328055,"district":"75014"},"characteristics":{"surface_m2":15,"rooms":1,"floor":2},"pricing":{"current_price":130000,"price_per_m2":8667,"initial_price":130000},"timeline":{"first_seen":"2026-06-29","last_seen":"2026-07-02","days_on_market":3},"price_history":[{"date":"2026-06-29","price":130000,"source":"dvf"}],"status":"active","dvf":{"avg_price_m2_100m":10774,"avg_price_m2_500m":10336,"comparable_sales":[{"price":109000,"date":"2024-09-03","distance_m":21},{"price":351500,"date":"2024-09-13","distance_m":21},{"price":310080,"date":"2024-11-15","distance_m":21},{"price":384000,"date":"2024-01-29","distance_m":22},{"price":122000,"date":"2024-02-05","distance_m":22},{"price":910000,"date":"2024-12-06","distance_m":36},{"price":277000,"date":"2024-05-15","distance_m":44},{"price":194710,"date":"2024-12-20","distance_m":49}]},"risks":{"flood":0.07,"clay":0.43,"noise":0.42},"transport_score":90,"neighborhood":{"walk_score":78,"schools_500m":18,"income":32000,"velib_400m":7,"trees_150m":85,"amenities":{"food":20,"health":8,"green":0,"culture":2}},"rent":{"ref_m2":31.1,"max_m2":37.3,"min_m2":21.8,"quartier":"Montparnasse","monthly_est":560},"investment":{"gross_yield":5.16,"net_yield":3.69,"ppm2_percentile":24,"negotiation_margin_pct":0.1,"dpe_risk_score":88,"value_add_flag":false},"pois":[{"type":"transport","lat":48.83345085821352,"lng":2.331740130985349,"label":"Denfert-Rochereau · METRO 4"},{"type":"transport","lat":48.834292980473194,"lng":2.33285230996089,"label":"Denfert-Rochereau · METRO 6"},{"type":"transport","lat":48.83111266037533,"lng":2.3297050126201846,"label":"Mouton-Duvernet · METRO 4"},{"type":"transport","lat":48.83307317062929,"lng":2.333203670349575,"label":"Denfert-Rochereau · RER B"},{"type":"transport","lat":48.83896428071056,"lng":2.3307541920862156,"label":"Raspail · METRO 6"},{"type":"park","lat":48.834750049745466,"lng":2.3306074740152187,"label":"SQUARE GEORGES LAMARQUE"},{"type":"park","lat":48.83269575877108,"lng":2.3269616039095324,"label":"JARDINET DU MONUMENT AUX MORTS DE LA MAIRIE DU XIVEME"},{"type":"park","lat":48.83255081623875,"lng":2.326586958050588,"label":"SQUARE FERDINAND BRUNOT"},{"type":"velib","lat":48.83446472680611,"lng":2.3293386027216907,"label":"Boulard - Daguerre"},{"type":"velib","lat":48.835147319625,"lng":2.3294411972165,"label":"Froidevaux - Boulard"},{"type":"velib","lat":48.83254578123,"lng":2.3254923149943,"label":"Mairie du 14ème"},{"type":"velib","lat":48.835064363954,"lng":2.323731449974,"label":"Maine - Liancourt"}],"dpe":{"energy_class":"C","ghg_class":"B"},"images":["https://images.unsplash.com/photo-1567496898669-ee935f5f647a?w=1200&h=750&q=66&auto=format&fit=crop&crop=entropy","https://images.unsplash.com/photo-1560448204-e02f11c3d0e2?w=1200&h=750&q=66&auto=format&fit=crop&crop=entropy","https://images.unsplash.com/photo-1554995207-c18c203602cb?w=1200&h=750&q=66&auto=format&fit=crop&crop=entropy","https://images.unsplash.com/photo-1502005097973-6a7082348e28?w=1200&h=750&q=66&auto=format&fit=crop&crop=entropy","https://images.unsplash.com/photo-1556912173-3bb406ef7e77?w=1200&h=750&q=66&auto=format&fit=crop&crop=entropy"],"thumb":"https://images.unsplash.com/photo-1567496898669-ee935f5f647a?w=480&h=300&q=55&auto=format&fit=crop&crop=entropy","score":{"opportunity_score":71,"value_score":96,"yield_score":100,"negotiation_score":1,"liquidity_score":80,"gentrification_score":51},"signals":{"price_drops":0,"total_drop_percent":0,"long_time_on_market":false,"explanations":["3.7% net rental yield (gross 5.2%)","18.2% below DVF average (10 599 €/m²)","Cheaper than 76% of the arrondissement","3 days on market"]},"source":"dvf","url":"https://app.dvf.etalab.gouv.fr/"}