{"id":"dvf-2024-1228647","address":{"raw":"156 Rue Du Chateau, 75014 Paris","normalized":"156 Rue du Château 75014 Paris","lat":48.83386,"lng":2.322758,"district":"75014"},"characteristics":{"surface_m2":26,"rooms":2,"floor":0},"pricing":{"current_price":240000,"price_per_m2":9231,"initial_price":240000},"timeline":{"first_seen":"2026-06-29","last_seen":"2026-07-01","days_on_market":2},"price_history":[{"date":"2026-06-29","price":240000,"source":"dvf"}],"status":"active","dvf":{"avg_price_m2_100m":9404,"avg_price_m2_500m":9871,"comparable_sales":[{"price":225000,"date":"2024-11-26","distance_m":25},{"price":245000,"date":"2024-12-05","distance_m":30},{"price":265000,"date":"2024-05-17","distance_m":34},{"price":111000,"date":"2024-10-09","distance_m":36},{"price":248400,"date":"2024-03-12","distance_m":45},{"price":137000,"date":"2024-02-26","distance_m":45},{"price":130500,"date":"2024-08-21","distance_m":45},{"price":240000,"date":"2024-09-12","distance_m":45}]},"risks":{"flood":0.08,"clay":0.49,"noise":0.4},"transport_score":73,"neighborhood":{"walk_score":81,"schools_500m":24,"income":32000,"velib_400m":5,"trees_150m":50,"amenities":{"food":22,"health":12,"green":2,"culture":2}},"rent":{"ref_m2":26.2,"max_m2":31.4,"min_m2":18.3,"quartier":"Plaisance","monthly_est":816},"investment":{"gross_yield":4.08,"net_yield":2.68,"ppm2_percentile":40,"negotiation_margin_pct":0.1,"dpe_risk_score":88,"value_add_flag":false},"pois":[{"type":"transport","lat":48.83422588267789,"lng":2.318616414425384,"label":"Pernety · METRO 13"},{"type":"transport","lat":48.838631646237154,"lng":2.322491748462238,"label":"Gaîté · METRO 13"},{"type":"transport","lat":48.83111266037533,"lng":2.3297050126201846,"label":"Mouton-Duvernet · METRO 4"},{"type":"transport","lat":48.83345085821352,"lng":2.331740130985349,"label":"Denfert-Rochereau · METRO 4"},{"type":"transport","lat":48.83182565048563,"lng":2.3141223234590225,"label":"Plaisance · METRO 13"},{"type":"park","lat":48.8339668443576,"lng":2.3196848326086164,"label":"JARDIN FRANCOISE HERITIER"},{"type":"park","lat":48.83355130067697,"lng":2.319488909902921,"label":"JARDIN PARTAGE DU JARDIN DE LA ZAC DIDOT"},{"type":"park","lat":48.83255495001078,"lng":2.325664668145917,"label":"JARDINET DE LA MAIRIE ANNEXE DU XIVEME"},{"type":"velib","lat":48.8337,"lng":2.3215,"label":"Didot - Place de Moro-Giafferi"},{"type":"velib","lat":48.835064363954,"lng":2.323731449974,"label":"Maine - Liancourt"},{"type":"velib","lat":48.83254578123,"lng":2.3254923149943,"label":"Mairie du 14ème"},{"type":"velib","lat":48.83617286014242,"lng":2.319392143923804,"label":"Ouest - Château"}],"dpe":{"energy_class":"C","ghg_class":"B"},"images":["https://images.unsplash.com/photo-1560448204-e02f11c3d0e2?w=1200&h=750&q=66&auto=format&fit=crop&crop=entropy","https://images.unsplash.com/photo-1522708323590-d24dbb6b0267?w=1200&h=750&q=66&auto=format&fit=crop&crop=entropy","https://images.unsplash.com/photo-1567496898669-ee935f5f647a?w=1200&h=750&q=66&auto=format&fit=crop&crop=entropy","https://images.unsplash.com/photo-1554995207-c18c203602cb?w=1200&h=750&q=66&auto=format&fit=crop&crop=entropy","https://images.unsplash.com/photo-1556912173-3bb406ef7e77?w=1200&h=750&q=66&auto=format&fit=crop&crop=entropy"],"thumb":"https://images.unsplash.com/photo-1560448204-e02f11c3d0e2?w=480&h=300&q=55&auto=format&fit=crop&crop=entropy","score":{"opportunity_score":51,"value_score":60,"yield_score":65,"negotiation_score":0,"liquidity_score":76,"gentrification_score":51},"signals":{"price_drops":0,"total_drop_percent":0,"long_time_on_market":false,"explanations":["2.7% net rental yield (gross 4.1%)","3.8% below DVF average (9 591 €/m²)","2 days on market"]},"source":"dvf","url":"https://app.dvf.etalab.gouv.fr/"}