{"id":"dvf-2024-1207525","address":{"raw":"67 Rue D Argout, 75002 Paris","normalized":"67 Rue d'Argout 75002 Paris","lat":48.866183,"lng":2.344026,"district":"75002"},"characteristics":{"surface_m2":38,"rooms":2,"floor":3},"pricing":{"current_price":532840,"price_per_m2":14022,"initial_price":532840},"timeline":{"first_seen":"2026-06-29","last_seen":"2026-07-02","days_on_market":3},"price_history":[{"date":"2026-06-29","price":532840,"source":"dvf"}],"status":"active","dvf":{"avg_price_m2_100m":14016,"avg_price_m2_500m":12540,"comparable_sales":[{"price":550000,"date":"2024-04-12","distance_m":13},{"price":356627,"date":"2024-09-27","distance_m":16},{"price":280000,"date":"2024-07-22","distance_m":51},{"price":498050,"date":"2024-04-03","distance_m":60},{"price":1770000,"date":"2024-06-12","distance_m":80},{"price":950000,"date":"2024-12-23","distance_m":80},{"price":416000,"date":"2024-05-07","distance_m":93},{"price":656900,"date":"2024-09-24","distance_m":93}]},"risks":{"flood":0.11,"clay":0.33,"noise":0.46},"transport_score":94,"neighborhood":{"walk_score":66,"schools_500m":13,"income":34000,"velib_400m":14,"trees_150m":23,"amenities":{"food":11,"health":4,"green":0,"culture":5}},"rent":{"ref_m2":29.2,"max_m2":35,"min_m2":20.4,"quartier":"Mail","monthly_est":1330},"investment":{"gross_yield":3,"net_yield":1.67,"ppm2_percentile":80,"negotiation_margin_pct":0.1,"dpe_risk_score":75,"value_add_flag":false},"pois":[{"type":"transport","lat":48.86751302499845,"lng":2.346552336353212,"label":"Sentier · METRO 3"},{"type":"transport","lat":48.86865415183625,"lng":2.3413760511435733,"label":"Bourse · METRO 3"},{"type":"transport","lat":48.86251523497548,"lng":2.345785860039181,"label":"Les Halles · METRO 4"},{"type":"transport","lat":48.863972478817246,"lng":2.3496175641598405,"label":"Étienne Marcel · METRO 4"},{"type":"transport","lat":48.86182227279812,"lng":2.3470126872387564,"label":"Châtelet-Les Halles · RER B"},{"type":"park","lat":48.86638773075733,"lng":2.3466418776593287,"label":"JARDIN PARTAGE LE JARDIN DE BONNE"},{"type":"park","lat":48.867071896548595,"lng":2.348286168102479,"label":"JARDINET LAZAREFF"},{"type":"park","lat":48.86709892848321,"lng":2.3387066699588135,"label":"JARDIN DE LA BIBLIOTHEQUE NATIONALE DE FRANCE"},{"type":"velib","lat":48.86617395079137,"lng":2.3449775576591496,"label":"Bachaumont - Montmartre"},{"type":"velib","lat":48.867458,"lng":2.3445211,"label":"Cléry - Montmartre"},{"type":"velib","lat":48.8660354,"lng":2.3420333,"label":"Place des Victoires"},{"type":"velib","lat":48.86502194581,"lng":2.3450684401448,"label":"Montmartre - Etienne Marcel"}],"dpe":{"energy_class":"D","ghg_class":"B"},"images":["https://images.unsplash.com/photo-1522708323590-d24dbb6b0267?w=1200&h=750&q=66&auto=format&fit=crop&crop=entropy","https://images.unsplash.com/photo-1567496898669-ee935f5f647a?w=1200&h=750&q=66&auto=format&fit=crop&crop=entropy","https://images.unsplash.com/photo-1540518614846-7eded433c457?w=1200&h=750&q=66&auto=format&fit=crop&crop=entropy","https://images.unsplash.com/photo-1493809842364-78817add7ffb?w=1200&h=750&q=66&auto=format&fit=crop&crop=entropy","https://images.unsplash.com/photo-1556912173-3bb406ef7e77?w=1200&h=750&q=66&auto=format&fit=crop&crop=entropy"],"thumb":"https://images.unsplash.com/photo-1522708323590-d24dbb6b0267?w=480&h=300&q=55&auto=format&fit=crop&crop=entropy","score":{"opportunity_score":28,"value_score":39,"yield_score":13,"negotiation_score":1,"liquidity_score":79,"gentrification_score":47},"signals":{"price_drops":0,"total_drop_percent":0,"long_time_on_market":false,"explanations":["1.7% net rental yield (gross 3.0%)","4.4% above DVF average","3 days on market"]},"source":"dvf","url":"https://app.dvf.etalab.gouv.fr/"}