{"id":"dvf-2024-1228369","address":{"raw":"149 Rue St Dominique, 75007 Paris","normalized":"149 Rue Saint-Dominique 75007 Paris","lat":48.857711,"lng":2.300502,"district":"75007"},"characteristics":{"surface_m2":57,"rooms":3,"floor":2},"pricing":{"current_price":748000,"price_per_m2":13123,"initial_price":748000},"timeline":{"first_seen":"2026-06-29","last_seen":"2026-07-01","days_on_market":2},"price_history":[{"date":"2026-06-29","price":748000,"source":"dvf"}],"status":"active","dvf":{"avg_price_m2_100m":14393,"avg_price_m2_500m":14279,"comparable_sales":[{"price":1306568,"date":"2024-08-01","distance_m":9},{"price":333680,"date":"2024-04-04","distance_m":49},{"price":538462,"date":"2024-09-09","distance_m":52},{"price":2553600,"date":"2024-07-10","distance_m":70},{"price":1740000,"date":"2024-01-31","distance_m":75},{"price":5850000,"date":"2024-08-22","distance_m":75},{"price":365385,"date":"2024-05-07","distance_m":80},{"price":1562650,"date":"2024-03-14","distance_m":83}]},"risks":{"flood":0.33,"clay":0.28,"noise":0.45},"transport_score":49,"neighborhood":{"walk_score":59,"schools_500m":16,"income":47000,"velib_400m":2,"trees_150m":66,"amenities":{"food":13,"health":0,"green":1,"culture":2}},"rent":{"ref_m2":28,"max_m2":33.6,"min_m2":19.6,"quartier":"Gros-Caillou","monthly_est":1915},"investment":{"gross_yield":3.07,"net_yield":1.74,"ppm2_percentile":48,"negotiation_margin_pct":0.1,"dpe_risk_score":55,"value_add_flag":false},"pois":[{"type":"transport","lat":48.85489056687858,"lng":2.3064034857365168,"label":"École Militaire · METRO 8"},{"type":"transport","lat":48.86266245169435,"lng":2.300989969386769,"label":"Pont de l'Alma · RER C"},{"type":"transport","lat":48.85772541289347,"lng":2.310565960946845,"label":"La Tour Maubourg · METRO 8"},{"type":"park","lat":48.855655051074386,"lng":2.2985818973984062,"label":"JARDIN DU CHAMP DE MARS ET PELOUSES DE L'ECOLE MILITAIRE"},{"type":"park","lat":48.86050683508293,"lng":2.295274962656048,"label":"PROMENADE D'AUSTRALIE 7E"},{"type":"velib","lat":48.858102885107,"lng":2.3004072904587,"label":"Rapp - Place du Général Gouraud"},{"type":"velib","lat":48.858651709526,"lng":2.3037165802346,"label":"Bosquet - Saint-Dominique"}],"dpe":{"energy_class":"E","ghg_class":"E"},"images":["https://images.unsplash.com/photo-1505691938895-1758d7feb511?w=1200&h=750&q=66&auto=format&fit=crop&crop=entropy","https://images.unsplash.com/photo-1567496898669-ee935f5f647a?w=1200&h=750&q=66&auto=format&fit=crop&crop=entropy","https://images.unsplash.com/photo-1522708323590-d24dbb6b0267?w=1200&h=750&q=66&auto=format&fit=crop&crop=entropy","https://images.unsplash.com/photo-1502005097973-6a7082348e28?w=1200&h=750&q=66&auto=format&fit=crop&crop=entropy","https://images.unsplash.com/photo-1493809842364-78817add7ffb?w=1200&h=750&q=66&auto=format&fit=crop&crop=entropy"],"thumb":"https://images.unsplash.com/photo-1505691938895-1758d7feb511?w=480&h=300&q=55&auto=format&fit=crop&crop=entropy","score":{"opportunity_score":34,"value_score":71,"yield_score":17,"negotiation_score":0,"liquidity_score":75,"gentrification_score":56},"signals":{"price_drops":0,"total_drop_percent":0,"long_time_on_market":false,"explanations":["1.7% net rental yield (gross 3.1%)","8.5% below DVF average (14 347 €/m²)","2 days on market"]},"source":"dvf","url":"https://app.dvf.etalab.gouv.fr/"}