{"id":"dvf-2024-1228826","address":{"raw":"22 Rue Marmontel, 75015 Paris","normalized":"22 Rue Marmontel 75015 Paris","lat":48.836619,"lng":2.299233,"district":"75015"},"characteristics":{"surface_m2":56,"rooms":2,"floor":4},"pricing":{"current_price":550618,"price_per_m2":9832,"initial_price":550618},"timeline":{"first_seen":"2026-06-29","last_seen":"2026-07-02","days_on_market":3},"price_history":[{"date":"2026-06-29","price":550618,"source":"dvf"}],"status":"active","dvf":{"avg_price_m2_100m":9211,"avg_price_m2_500m":9542,"comparable_sales":[{"price":560500,"date":"2024-05-30","distance_m":14},{"price":210000,"date":"2024-07-11","distance_m":14},{"price":460000,"date":"2024-09-19","distance_m":14},{"price":723590,"date":"2024-12-17","distance_m":14},{"price":820000,"date":"2024-07-19","distance_m":34},{"price":376660,"date":"2024-02-29","distance_m":52},{"price":875000,"date":"2024-04-25","distance_m":57},{"price":260100,"date":"2024-11-15","distance_m":58}]},"risks":{"flood":0.04,"clay":0.31,"noise":0.56},"transport_score":71,"neighborhood":{"walk_score":84,"schools_500m":22,"income":33000,"velib_400m":6,"trees_150m":48,"amenities":{"food":15,"health":10,"green":2,"culture":3}},"rent":{"ref_m2":23.8,"max_m2":28.6,"min_m2":16.7,"quartier":"Saint-Lambert","monthly_est":1602},"investment":{"gross_yield":3.49,"net_yield":2.13,"ppm2_percentile":50,"negotiation_margin_pct":0.1,"dpe_risk_score":55,"value_add_flag":false},"pois":[{"type":"transport","lat":48.837099428223645,"lng":2.296231386803389,"label":"Convention · METRO 12"},{"type":"transport","lat":48.839516585402485,"lng":2.3011075162423964,"label":"Vaugirard · METRO 12"},{"type":"park","lat":48.83990417252549,"lng":2.2979771793222143,"label":"SQUARE GERBERT - BLOMET"},{"type":"park","lat":48.83724191464444,"lng":2.3043165090204756,"label":"JARDIN DE LA RUE LA QUINTINIE"},{"type":"park","lat":48.84019189579332,"lng":2.3006193513336326,"label":"SQUARE JEAN CHERIOUX"},{"type":"velib","lat":48.83596927866069,"lng":2.302064039509349,"label":"Abbé Groult - Convention"},{"type":"velib","lat":48.835523812041,"lng":2.3025986552238,"label":"Place Charles Vallin"},{"type":"velib","lat":48.837676822332,"lng":2.2955869260203,"label":"Convention - Vaugirard"},{"type":"velib","lat":48.83460221715206,"lng":2.2957482933998112,"label":"Olivier de Serres - Leriche"}],"dpe":{"energy_class":"E","ghg_class":"D"},"images":["https://images.unsplash.com/photo-1505691938895-1758d7feb511?w=1200&h=750&q=66&auto=format&fit=crop&crop=entropy","https://images.unsplash.com/photo-1554995207-c18c203602cb?w=1200&h=750&q=66&auto=format&fit=crop&crop=entropy","https://images.unsplash.com/photo-1567496898669-ee935f5f647a?w=1200&h=750&q=66&auto=format&fit=crop&crop=entropy","https://images.unsplash.com/photo-1493809842364-78817add7ffb?w=1200&h=750&q=66&auto=format&fit=crop&crop=entropy","https://images.unsplash.com/photo-1493663284031-b7e3aefcae8e?w=1200&h=750&q=66&auto=format&fit=crop&crop=entropy"],"thumb":"https://images.unsplash.com/photo-1505691938895-1758d7feb511?w=480&h=300&q=55&auto=format&fit=crop&crop=entropy","score":{"opportunity_score":33,"value_score":50,"yield_score":37,"negotiation_score":1,"liquidity_score":72,"gentrification_score":52},"signals":{"price_drops":0,"total_drop_percent":0,"long_time_on_market":false,"explanations":["2.1% net rental yield (gross 3.5%)","5.2% above DVF average","3 days on market"]},"source":"dvf","url":"https://app.dvf.etalab.gouv.fr/"}