{"id":"dvf-2024-1228870","address":{"raw":"4 B Rue Neuve Popincourt, 75011 Paris","normalized":"4b Rue Neuve Popincourt 75011 Paris","lat":48.864334,"lng":2.374078,"district":"75011"},"characteristics":{"surface_m2":25,"rooms":1,"floor":2},"pricing":{"current_price":242500,"price_per_m2":9700,"initial_price":242500},"timeline":{"first_seen":"2026-06-29","last_seen":"2026-07-01","days_on_market":2},"price_history":[{"date":"2026-06-29","price":242500,"source":"dvf"}],"status":"active","dvf":{"avg_price_m2_100m":9948,"avg_price_m2_500m":10181,"comparable_sales":[{"price":577000,"date":"2024-03-26","distance_m":27},{"price":1550000,"date":"2024-03-18","distance_m":43},{"price":180000,"date":"2024-02-09","distance_m":49},{"price":101000,"date":"2024-03-13","distance_m":54},{"price":205000,"date":"2024-04-05","distance_m":54},{"price":150000,"date":"2024-07-04","distance_m":54},{"price":286000,"date":"2024-07-02","distance_m":54},{"price":155000,"date":"2024-10-22","distance_m":58}]},"risks":{"flood":0.04,"clay":0.41,"noise":0.46},"transport_score":100,"neighborhood":{"walk_score":97,"schools_500m":22,"income":30000,"velib_400m":11,"trees_150m":133,"amenities":{"food":25,"health":10,"green":3,"culture":6}},"rent":{"ref_m2":30.2,"max_m2":36.2,"min_m2":21.1,"quartier":"Saint-Ambroise","monthly_est":905},"investment":{"gross_yield":4.48,"net_yield":3.05,"ppm2_percentile":26,"negotiation_margin_pct":0.1,"dpe_risk_score":30,"value_add_flag":false},"pois":[{"type":"transport","lat":48.86525378605433,"lng":2.3745819699964126,"label":"Parmentier · METRO 3"},{"type":"transport","lat":48.86147646373029,"lng":2.373943508245182,"label":"Saint-Ambroise · METRO 9"},{"type":"transport","lat":48.864285758645295,"lng":2.379741893177554,"label":"Rue Saint-Maur · METRO 3"},{"type":"transport","lat":48.8650190090373,"lng":2.368011378256503,"label":"Oberkampf · METRO 9"},{"type":"transport","lat":48.86496414577929,"lng":2.3679014148417363,"label":"Oberkampf · METRO 5"},{"type":"park","lat":48.86343303900672,"lng":2.3714618299222185,"label":"PROMENADE RICHARD LENOIR SQUARE MAY PICQUERAY"},{"type":"park","lat":48.86220356589003,"lng":2.3722773847562917,"label":"JARDINET DE L'OEIL DU CANAL"},{"type":"park","lat":48.86454788714129,"lng":2.3787479154640354,"label":"JARDINIERES PIEDS D ARBRES AVENUE DE LA REPUBLIQUE"},{"type":"velib","lat":48.8644954,"lng":2.3750124,"label":"Parmentier - République"},{"type":"velib","lat":48.8646605,"lng":2.373162,"label":"Jacquard - Ternaux"},{"type":"velib","lat":48.86531608707,"lng":2.37611478491,"label":"Oberkampf - République"},{"type":"velib","lat":48.8633762,"lng":2.3711327,"label":"Square du Bataclan"}],"dpe":{"energy_class":"F","ghg_class":"F"},"images":["https://images.unsplash.com/photo-1560448204-e02f11c3d0e2?w=1200&h=750&q=66&auto=format&fit=crop&crop=entropy","https://images.unsplash.com/photo-1502005097973-6a7082348e28?w=1200&h=750&q=66&auto=format&fit=crop&crop=entropy","https://images.unsplash.com/photo-1502672260266-1c1ef2d93688?w=1200&h=750&q=66&auto=format&fit=crop&crop=entropy","https://images.unsplash.com/photo-1522708323590-d24dbb6b0267?w=1200&h=750&q=66&auto=format&fit=crop&crop=entropy","https://images.unsplash.com/photo-1505691938895-1758d7feb511?w=1200&h=750&q=66&auto=format&fit=crop&crop=entropy"],"thumb":"https://images.unsplash.com/photo-1560448204-e02f11c3d0e2?w=480&h=300&q=55&auto=format&fit=crop&crop=entropy","score":{"opportunity_score":42,"value_score":74,"yield_score":84,"negotiation_score":0,"liquidity_score":86,"gentrification_score":45},"signals":{"price_drops":0,"total_drop_percent":0,"long_time_on_market":false,"explanations":["3.0% net rental yield (gross 4.5%)","3.4% below DVF average (10 041 €/m²)","Cheaper than 74% of the arrondissement","2 days on market","Energy class F — rental restrictions apply"]},"source":"dvf","url":"https://app.dvf.etalab.gouv.fr/"}