{"id":"dvf-2024-1228703","address":{"raw":"9 B Bd Du Montparnasse, 75006 Paris","normalized":"Rue du Montparnasse 75006 Paris","lat":48.8443,"lng":2.327393,"district":"75006"},"characteristics":{"surface_m2":68,"rooms":4,"floor":0},"pricing":{"current_price":833554,"price_per_m2":12258,"initial_price":833554},"timeline":{"first_seen":"2026-06-29","last_seen":"2026-07-02","days_on_market":3},"price_history":[{"date":"2026-06-29","price":833554,"source":"dvf"}],"status":"active","dvf":{"avg_price_m2_100m":12784,"avg_price_m2_500m":14082,"comparable_sales":[{"price":1287100,"date":"2024-10-18","distance_m":35},{"price":780000,"date":"2024-09-19","distance_m":61},{"price":680000,"date":"2024-11-26","distance_m":78},{"price":158535,"date":"2024-05-23","distance_m":79},{"price":2023750,"date":"2024-03-21","distance_m":102},{"price":736850,"date":"2024-12-04","distance_m":102},{"price":380000,"date":"2024-05-29","distance_m":112},{"price":670000,"date":"2024-05-22","distance_m":115}]},"risks":{"flood":0.03,"clay":0.48,"noise":0.35},"transport_score":100,"neighborhood":{"walk_score":83,"schools_500m":25,"income":43000,"velib_400m":7,"trees_150m":91,"amenities":{"food":20,"health":2,"green":3,"culture":3}},"rent":{"ref_m2":29.4,"max_m2":35.3,"min_m2":20.6,"quartier":"Notre-Dame-des-Champs","monthly_est":2400},"investment":{"gross_yield":3.46,"net_yield":2.1,"ppm2_percentile":14,"negotiation_margin_pct":0.1,"dpe_risk_score":55,"value_add_flag":false},"pois":[{"type":"transport","lat":48.84494263342596,"lng":2.3287780268900797,"label":"Notre-Dame-des-Champs · METRO 12"},{"type":"transport","lat":48.84378130573586,"lng":2.3243970123857944,"label":"Montparnasse-Bienvenüe · METRO 4"},{"type":"transport","lat":48.84373548931853,"lng":2.3243530411579663,"label":"Montparnasse Bienvenüe · METRO 12"},{"type":"transport","lat":48.84221841361353,"lng":2.329008926235403,"label":"Vavin · METRO 4"},{"type":"transport","lat":48.84687823885142,"lng":2.3267927850276813,"label":"Saint-Placide · METRO 4"},{"type":"park","lat":48.84334110777986,"lng":2.3274307179460423,"label":"SQUARE OZANAM"},{"type":"park","lat":48.84472518377036,"lng":2.3290922317139247,"label":"JARDIN DE LA PLACE PIERRE LAFUE"},{"type":"velib","lat":48.843310567822,"lng":2.3265242949128,"label":"Montparnasse -  Square Ozanam"},{"type":"velib","lat":48.84479928858768,"lng":2.329337755887181,"label":"Notre-Dame-des-Champs - Stanislas"},{"type":"velib","lat":48.842738478258,"lng":2.3297942217634,"label":"Bréa - Raspail"},{"type":"velib","lat":48.842885590081,"lng":2.3244281485677,"label":"Odessa - Départ"}],"dpe":{"energy_class":"E","ghg_class":"E"},"images":["https://images.unsplash.com/photo-1493663284031-b7e3aefcae8e?w=1200&h=750&q=66&auto=format&fit=crop&crop=entropy","https://images.unsplash.com/photo-1556912173-3bb406ef7e77?w=1200&h=750&q=66&auto=format&fit=crop&crop=entropy","https://images.unsplash.com/photo-1554995207-c18c203602cb?w=1200&h=750&q=66&auto=format&fit=crop&crop=entropy","https://images.unsplash.com/photo-1502005097973-6a7082348e28?w=1200&h=750&q=66&auto=format&fit=crop&crop=entropy","https://images.unsplash.com/photo-1505691938895-1758d7feb511?w=1200&h=750&q=66&auto=format&fit=crop&crop=entropy"],"thumb":"https://images.unsplash.com/photo-1493663284031-b7e3aefcae8e?w=480&h=300&q=55&auto=format&fit=crop&crop=entropy","score":{"opportunity_score":43,"value_score":86,"yield_score":35,"negotiation_score":1,"liquidity_score":93,"gentrification_score":48},"signals":{"price_drops":0,"total_drop_percent":0,"long_time_on_market":false,"explanations":["2.1% net rental yield (gross 3.5%)","7.9% below DVF average (13 303 €/m²)","Cheaper than 86% of the arrondissement","3 days on market"]},"source":"dvf","url":"https://app.dvf.etalab.gouv.fr/"}