{"id":"dvf-2024-1209471","address":{"raw":"22 Quai De Bethune, 75004 Paris","normalized":"22 Quai de Béthune 75004 Paris","lat":48.850607,"lng":2.357684,"district":"75004"},"characteristics":{"surface_m2":26,"rooms":1,"floor":3},"pricing":{"current_price":377025,"price_per_m2":14501,"initial_price":377025},"timeline":{"first_seen":"2026-06-29","last_seen":"2026-07-02","days_on_market":3},"price_history":[{"date":"2026-06-29","price":377025,"source":"dvf"}],"status":"active","dvf":{"avg_price_m2_100m":17239,"avg_price_m2_500m":13980,"comparable_sales":[{"price":630000,"date":"2024-05-07","distance_m":54},{"price":412500,"date":"2024-05-30","distance_m":58},{"price":593510,"date":"2024-10-31","distance_m":65},{"price":256000,"date":"2024-03-28","distance_m":98},{"price":3562000,"date":"2024-05-16","distance_m":104},{"price":1705000,"date":"2024-04-22","distance_m":107},{"price":620000,"date":"2024-11-28","distance_m":110},{"price":282500,"date":"2024-08-23","distance_m":112}]},"risks":{"flood":0.65,"clay":0.45,"noise":0.37},"transport_score":89,"neighborhood":{"walk_score":70,"schools_500m":9,"income":38000,"velib_400m":7,"trees_150m":104,"amenities":{"food":7,"health":9,"green":2,"culture":1}},"rent":{"ref_m2":34,"max_m2":40.8,"min_m2":23.8,"quartier":"Notre-Dame","monthly_est":1061},"investment":{"gross_yield":3.38,"net_yield":2.02,"ppm2_percentile":82,"negotiation_margin_pct":0.1,"dpe_risk_score":30,"value_add_flag":false},"pois":[{"type":"transport","lat":48.85162059096899,"lng":2.3615249655078383,"label":"Sully-Morland · METRO 7"},{"type":"transport","lat":48.85357547250359,"lng":2.357162571618337,"label":"Pont Marie · METRO 7"},{"type":"transport","lat":48.846151122181325,"lng":2.354917983707404,"label":"Jussieu · METRO 10"},{"type":"transport","lat":48.84595066575015,"lng":2.355050264434754,"label":"Jussieu · METRO 7"},{"type":"transport","lat":48.85523625280238,"lng":2.360956490023829,"label":"Saint-Paul · METRO 1"},{"type":"park","lat":48.849948368709,"lng":2.3598189448160776,"label":"SQUARE BARYE"},{"type":"park","lat":48.85305872648483,"lng":2.3593821711031913,"label":"JARDIN MARIE TRINTIGNANT"},{"type":"park","lat":48.8513240938953,"lng":2.3617807803885706,"label":"SQUARE HENRI GALLI"},{"type":"velib","lat":48.85097433194,"lng":2.3563072085381,"label":"Quai de Béthune - Pont de la Tournelle"},{"type":"velib","lat":48.849063299501,"lng":2.3558086529374,"label":"Institut du Monde Arabe - Saint-Germain"},{"type":"velib","lat":48.852639866625,"lng":2.3607301712036,"label":"Village Saint-Paul"},{"type":"velib","lat":48.851290697625,"lng":2.3624387532495,"label":"Quai des Célestins - Henri IV"}],"dpe":{"energy_class":"F","ghg_class":"F"},"images":["https://images.unsplash.com/photo-1556912173-3bb406ef7e77?w=1200&h=750&q=66&auto=format&fit=crop&crop=entropy","https://images.unsplash.com/photo-1502005097973-6a7082348e28?w=1200&h=750&q=66&auto=format&fit=crop&crop=entropy","https://images.unsplash.com/photo-1560448204-e02f11c3d0e2?w=1200&h=750&q=66&auto=format&fit=crop&crop=entropy","https://images.unsplash.com/photo-1493663284031-b7e3aefcae8e?w=1200&h=750&q=66&auto=format&fit=crop&crop=entropy","https://images.unsplash.com/photo-1502672260266-1c1ef2d93688?w=1200&h=750&q=66&auto=format&fit=crop&crop=entropy"],"thumb":"https://images.unsplash.com/photo-1556912173-3bb406ef7e77?w=480&h=300&q=55&auto=format&fit=crop&crop=entropy","score":{"opportunity_score":32,"value_score":73,"yield_score":32,"negotiation_score":1,"liquidity_score":87,"gentrification_score":45},"signals":{"price_drops":0,"total_drop_percent":0,"long_time_on_market":false,"explanations":["2.0% net rental yield (gross 3.4%)","9% below DVF average (15 935 €/m²)","3 days on market","Energy class F — rental restrictions apply"]},"source":"dvf","url":"https://app.dvf.etalab.gouv.fr/"}