{"id":"dvf-2024-1207827","address":{"raw":"2 Rue Boutarel, 75004 Paris","normalized":"2 Rue Boutarel 75004 Paris","lat":48.852193,"lng":2.353815,"district":"75004"},"characteristics":{"surface_m2":10,"rooms":1,"floor":2},"pricing":{"current_price":111111,"price_per_m2":11111,"initial_price":111111},"timeline":{"first_seen":"2026-06-29","last_seen":"2026-07-02","days_on_market":3},"price_history":[{"date":"2026-06-29","price":111111,"source":"dvf"}],"status":"active","dvf":{"avg_price_m2_100m":13595,"avg_price_m2_500m":14189,"comparable_sales":[{"price":195000,"date":"2024-08-07","distance_m":25},{"price":805000,"date":"2024-01-31","distance_m":35},{"price":350000,"date":"2024-03-28","distance_m":35},{"price":270000,"date":"2024-10-16","distance_m":37},{"price":180000,"date":"2024-12-11","distance_m":46},{"price":880000,"date":"2024-03-29","distance_m":49},{"price":247500,"date":"2024-06-04","distance_m":49},{"price":357800,"date":"2024-05-03","distance_m":56}]},"risks":{"flood":0.86,"clay":0.29,"noise":0.34},"transport_score":82,"neighborhood":{"walk_score":76,"schools_500m":8,"income":38000,"velib_400m":7,"trees_150m":10,"amenities":{"food":20,"health":7,"green":0,"culture":5}},"rent":{"ref_m2":34,"max_m2":40.8,"min_m2":23.8,"quartier":"Notre-Dame","monthly_est":408},"investment":{"gross_yield":4.41,"net_yield":2.98,"ppm2_percentile":26,"negotiation_margin_pct":0.1,"dpe_risk_score":30,"value_add_flag":false},"pois":[{"type":"transport","lat":48.85357547250359,"lng":2.357162571618337,"label":"Pont Marie · METRO 7"},{"type":"transport","lat":48.85008987805251,"lng":2.3482087741854687,"label":"Maubert-Mutualité · METRO 10"},{"type":"transport","lat":48.85493637835866,"lng":2.3473213170674265,"label":"Cité · METRO 4"},{"type":"transport","lat":48.85162059096899,"lng":2.3615249655078383,"label":"Sully-Morland · METRO 7"},{"type":"transport","lat":48.857477982529346,"lng":2.3515775629949967,"label":"Hôtel de Ville · METRO 1"},{"type":"park","lat":48.852028944577135,"lng":2.35221926355071,"label":"SQUARE DE L'ILE DE FRANCE"},{"type":"park","lat":48.85239470225956,"lng":2.350805065661851,"label":"SQUARE JEAN XXIII"},{"type":"park","lat":48.854530255258496,"lng":2.3530025625519264,"label":"PARC DES RIVES DE SEINE"},{"type":"velib","lat":48.852915956209,"lng":2.3521957173944,"label":"Quai aux Fleurs - Pont Saint-Louis"},{"type":"velib","lat":48.850458009188,"lng":2.3524542754922,"label":"Pontoise - La Tournelle"},{"type":"velib","lat":48.85097433194,"lng":2.3563072085381,"label":"Quai de Béthune - Pont de la Tournelle"},{"type":"velib","lat":48.84969649427,"lng":2.3529685288668,"label":"Poissy - Saint-Germain"}],"dpe":{"energy_class":"F","ghg_class":"C"},"images":["https://images.unsplash.com/photo-1554995207-c18c203602cb?w=1200&h=750&q=66&auto=format&fit=crop&crop=entropy","https://images.unsplash.com/photo-1560448204-e02f11c3d0e2?w=1200&h=750&q=66&auto=format&fit=crop&crop=entropy","https://images.unsplash.com/photo-1484154218962-a197022b5858?w=1200&h=750&q=66&auto=format&fit=crop&crop=entropy","https://images.unsplash.com/photo-1556912173-3bb406ef7e77?w=1200&h=750&q=66&auto=format&fit=crop&crop=entropy","https://images.unsplash.com/photo-1502005097973-6a7082348e28?w=1200&h=750&q=66&auto=format&fit=crop&crop=entropy"],"thumb":"https://images.unsplash.com/photo-1554995207-c18c203602cb?w=480&h=300&q=55&auto=format&fit=crop&crop=entropy","score":{"opportunity_score":46,"value_score":99,"yield_score":80,"negotiation_score":1,"liquidity_score":87,"gentrification_score":45},"signals":{"price_drops":0,"total_drop_percent":0,"long_time_on_market":false,"explanations":["3.0% net rental yield (gross 4.4%)","19.7% below DVF average (13 833 €/m²)","Cheaper than 74% of the arrondissement","3 days on market","Energy class F — rental restrictions apply"]},"source":"dvf","url":"https://app.dvf.etalab.gouv.fr/"}