{"id":"dvf-2024-1229220","address":{"raw":"5 Rue Saint Saens, 75015 Paris","normalized":"5 Rue Saint-Saëns 75015 Paris","lat":48.853935,"lng":2.292073,"district":"75015"},"characteristics":{"surface_m2":30,"rooms":1,"floor":2},"pricing":{"current_price":298100,"price_per_m2":9937,"initial_price":298100},"timeline":{"first_seen":"2026-06-29","last_seen":"2026-07-01","days_on_market":2},"price_history":[{"date":"2026-06-29","price":298100,"source":"dvf"}],"status":"active","dvf":{"avg_price_m2_100m":10412,"avg_price_m2_500m":10642,"comparable_sales":[{"price":525000,"date":"2024-07-04","distance_m":19},{"price":395000,"date":"2024-01-26","distance_m":56},{"price":281450,"date":"2024-04-05","distance_m":56},{"price":340000,"date":"2024-04-23","distance_m":56},{"price":1347000,"date":"2024-12-13","distance_m":56},{"price":258570,"date":"2024-02-20","distance_m":88},{"price":1070000,"date":"2024-03-11","distance_m":88},{"price":207000,"date":"2024-05-17","distance_m":88}]},"risks":{"flood":0.33,"clay":0.16,"noise":0.26},"transport_score":80,"neighborhood":{"walk_score":81,"schools_500m":8,"income":33000,"velib_400m":5,"trees_150m":96,"amenities":{"food":27,"health":2,"green":1,"culture":5}},"rent":{"ref_m2":29.4,"max_m2":35.3,"min_m2":20.6,"quartier":"Grenelle","monthly_est":1059},"investment":{"gross_yield":4.26,"net_yield":2.85,"ppm2_percentile":56,"negotiation_margin_pct":0.1,"dpe_risk_score":55,"value_add_flag":false},"pois":[{"type":"transport","lat":48.85394260621378,"lng":2.2893345327788075,"label":"Bir-Hakeim · METRO 6"},{"type":"transport","lat":48.856457211541745,"lng":2.2898035182585,"label":"Champ de Mars · RER C"},{"type":"transport","lat":48.85043454901342,"lng":2.2936124371878033,"label":"Dupleix · METRO 6"},{"type":"transport","lat":48.85744869007581,"lng":2.2858124441464076,"label":"Passy · METRO 6"},{"type":"transport","lat":48.84957521390955,"lng":2.298625127144874,"label":"La Motte Picquet-Grenelle · METRO 8"},{"type":"park","lat":48.85351555189711,"lng":2.2887378748958955,"label":"JARDIN DES ENFANTS DU VELODROME D'HIVER"},{"type":"park","lat":48.8522054394932,"lng":2.29437980826793,"label":"SQUARE NICOLE DE HAUTECLOCQUE"},{"type":"park","lat":48.856364473162024,"lng":2.289705814182101,"label":"PROMENADE D'AUSTRALIE 15E"},{"type":"velib","lat":48.852804604940296,"lng":2.293077029857222,"label":"Desaix - Edgar Faure"},{"type":"velib","lat":48.853844054334,"lng":2.289705348222,"label":"Bir Hakeim"},{"type":"velib","lat":48.8547194,"lng":2.2952168,"label":"Suffren - Champ de Mars"},{"type":"velib","lat":48.851315406715976,"lng":2.2919502854347233,"label":"Grenelle - Dr Finlay"}],"dpe":{"energy_class":"E","ghg_class":"E"},"images":["https://images.unsplash.com/photo-1560448204-e02f11c3d0e2?w=1200&h=750&q=66&auto=format&fit=crop&crop=entropy","https://images.unsplash.com/photo-1540518614846-7eded433c457?w=1200&h=750&q=66&auto=format&fit=crop&crop=entropy","https://images.unsplash.com/photo-1502672260266-1c1ef2d93688?w=1200&h=750&q=66&auto=format&fit=crop&crop=entropy","https://images.unsplash.com/photo-1493809842364-78817add7ffb?w=1200&h=750&q=66&auto=format&fit=crop&crop=entropy","https://images.unsplash.com/photo-1493663284031-b7e3aefcae8e?w=1200&h=750&q=66&auto=format&fit=crop&crop=entropy"],"thumb":"https://images.unsplash.com/photo-1560448204-e02f11c3d0e2?w=480&h=300&q=55&auto=format&fit=crop&crop=entropy","score":{"opportunity_score":45,"value_score":63,"yield_score":74,"negotiation_score":0,"liquidity_score":78,"gentrification_score":52},"signals":{"price_drops":0,"total_drop_percent":0,"long_time_on_market":false,"explanations":["2.9% net rental yield (gross 4.3%)","5.4% below DVF average (10 504 €/m²)","2 days on market"]},"source":"dvf","url":"https://app.dvf.etalab.gouv.fr/"}