{"id":"dvf-2024-1228692","address":{"raw":"14 Rue Caillaux, 75013 Paris","normalized":"14 Rue Caillaux 75013 Paris","lat":48.822594,"lng":2.360637,"district":"75013"},"characteristics":{"surface_m2":20,"rooms":1,"floor":2},"pricing":{"current_price":176500,"price_per_m2":8825,"initial_price":176500},"timeline":{"first_seen":"2026-06-29","last_seen":"2026-07-02","days_on_market":3},"price_history":[{"date":"2026-06-29","price":176500,"source":"dvf"}],"status":"active","dvf":{"avg_price_m2_100m":8639,"avg_price_m2_500m":8340,"comparable_sales":[{"price":170000,"date":"2024-08-27","distance_m":16},{"price":149000,"date":"2024-12-12","distance_m":16},{"price":174000,"date":"2024-01-29","distance_m":21},{"price":184265,"date":"2024-03-29","distance_m":21},{"price":330000,"date":"2024-09-03","distance_m":21},{"price":160000,"date":"2024-11-15","distance_m":21},{"price":100000,"date":"2024-03-01","distance_m":39},{"price":146000,"date":"2024-04-11","distance_m":39}]},"risks":{"flood":0.07,"clay":0.33,"noise":0.33},"transport_score":99,"neighborhood":{"walk_score":80,"schools_500m":13,"income":27000,"velib_400m":10,"trees_150m":101,"amenities":{"food":27,"health":4,"green":0,"culture":5}},"rent":{"ref_m2":31,"max_m2":37.2,"min_m2":21.7,"quartier":"Maison-Blanche","monthly_est":744},"investment":{"gross_yield":5.06,"net_yield":3.59,"ppm2_percentile":52,"negotiation_margin_pct":0.1,"dpe_risk_score":88,"value_add_flag":false},"pois":[{"type":"transport","lat":48.822182658556564,"lng":2.3585513482022042,"label":"Maison Blanche · METRO 7"},{"type":"transport","lat":48.82142042957708,"lng":2.3590551543843183,"label":"Maison Blanche · METRO 14"},{"type":"transport","lat":48.81922334960906,"lng":2.35970521674602,"label":"Porte d'Italie · METRO 7"},{"type":"transport","lat":48.81905151465142,"lng":2.3601297420152623,"label":"Porte d'Italie · TRAM 3a"},{"type":"transport","lat":48.81976126757109,"lng":2.3640154621825227,"label":"Porte de Choisy · TRAM 3a"},{"type":"park","lat":48.822664103585055,"lng":2.362257917050446,"label":"JARDIN D'IMMEUBLES CHOISY - CAILLAUX"},{"type":"park","lat":48.82159027188521,"lng":2.3614666200071404,"label":"PROMENADE PC 13 - CHOISY - GANDON"},{"type":"park","lat":48.822481747728375,"lng":2.357594511864931,"label":"JARDIN PARTAGE DU SQUARE PAUL NIZAN"},{"type":"velib","lat":48.82365543660611,"lng":2.3615723848342896,"label":"Vistule - Choisy"},{"type":"velib","lat":48.822282643954,"lng":2.3584301877038,"label":"Tage - Italie"},{"type":"velib","lat":48.823439332972,"lng":2.3582062304047,"label":"Italie - Vistule"},{"type":"velib","lat":48.822154170359,"lng":2.3633708034878,"label":"Choisy - Pointe d'Ivry"}],"dpe":{"energy_class":"C","ghg_class":"C"},"images":["https://images.unsplash.com/photo-1493809842364-78817add7ffb?w=1200&h=750&q=66&auto=format&fit=crop&crop=entropy","https://images.unsplash.com/photo-1522708323590-d24dbb6b0267?w=1200&h=750&q=66&auto=format&fit=crop&crop=entropy","https://images.unsplash.com/photo-1560448204-e02f11c3d0e2?w=1200&h=750&q=66&auto=format&fit=crop&crop=entropy","https://images.unsplash.com/photo-1554995207-c18c203602cb?w=1200&h=750&q=66&auto=format&fit=crop&crop=entropy","https://images.unsplash.com/photo-1567496898669-ee935f5f647a?w=1200&h=750&q=66&auto=format&fit=crop&crop=entropy"],"thumb":"https://images.unsplash.com/photo-1493809842364-78817add7ffb?w=480&h=300&q=55&auto=format&fit=crop&crop=entropy","score":{"opportunity_score":58,"value_score":48,"yield_score":100,"negotiation_score":1,"liquidity_score":79,"gentrification_score":48},"signals":{"price_drops":0,"total_drop_percent":0,"long_time_on_market":false,"explanations":["3.6% net rental yield (gross 5.1%)","3.6% above DVF average","3 days on market"]},"source":"dvf","url":"https://app.dvf.etalab.gouv.fr/"}