{"id":"dvf-2024-1210286","address":{"raw":"91 Rue De Maubeuge, 75010 Paris","normalized":"91 Rue de Maubeuge 75010 Paris","lat":48.88107,"lng":2.353094,"district":"75010"},"characteristics":{"surface_m2":30,"rooms":2,"floor":2},"pricing":{"current_price":277750,"price_per_m2":9258,"initial_price":277750},"timeline":{"first_seen":"2026-06-29","last_seen":"2026-07-01","days_on_market":2},"price_history":[{"date":"2026-06-29","price":277750,"source":"dvf"}],"status":"active","dvf":{"avg_price_m2_100m":9152,"avg_price_m2_500m":9444,"comparable_sales":[{"price":685000,"date":"2024-03-22","distance_m":27},{"price":505950,"date":"2024-01-26","distance_m":36},{"price":854000,"date":"2024-03-18","distance_m":36},{"price":299730,"date":"2024-11-28","distance_m":68},{"price":286000,"date":"2024-10-08","distance_m":89},{"price":332500,"date":"2024-12-10","distance_m":89},{"price":462000,"date":"2024-02-02","distance_m":107},{"price":230000,"date":"2024-11-04","distance_m":107}]},"risks":{"flood":0.01,"clay":0.28,"noise":0.6},"transport_score":94,"neighborhood":{"walk_score":87,"schools_500m":12,"income":29000,"velib_400m":10,"trees_150m":155,"amenities":{"food":27,"health":6,"green":6,"culture":1}},"rent":{"ref_m2":26.7,"max_m2":32,"min_m2":18.7,"quartier":"Saint-Vincent-de-Paul","monthly_est":960},"investment":{"gross_yield":4.15,"net_yield":2.74,"ppm2_percentile":44,"negotiation_margin_pct":0.1,"dpe_risk_score":55,"value_add_flag":false},"pois":[{"type":"transport","lat":48.88092200667149,"lng":2.356328543670162,"label":"Gare du Nord · TRAIN K"},{"type":"transport","lat":48.88092200667149,"lng":2.356328543670162,"label":"Gare du Nord · TRAIN H"},{"type":"transport","lat":48.87979369411629,"lng":2.355791907531139,"label":"Gare du Nord · METRO 4"},{"type":"transport","lat":48.88175948915267,"lng":2.357570193470877,"label":"Gare du Nord · RER D"},{"type":"transport","lat":48.88175948915267,"lng":2.357570193470877,"label":"Gare du Nord · RER B"},{"type":"park","lat":48.878960793257036,"lng":2.351921096782042,"label":"JARDINET SAINT VINCENT DE PAUL"},{"type":"park","lat":48.88504781325143,"lng":2.35424537348835,"label":"ESPACE VERT DU CENTRE SPORTIF GOUTTE D'OR"},{"type":"park","lat":48.87909344123794,"lng":2.3590299135164927,"label":"JARDIN MARIELLE-FRANCO"},{"type":"velib","lat":48.880955741648,"lng":2.3524305148385,"label":"Gare du Nord - Saint-Vincent de Paul"},{"type":"velib","lat":48.880432768947,"lng":2.3528900992907,"label":"Dunkerque - Maubeuge"},{"type":"velib","lat":48.881949,"lng":2.352339,"label":"Gare du Nord - Hôpital Lariboisière"},{"type":"velib","lat":48.880726,"lng":2.351464,"label":"Dunkerque - Rocroy"}],"dpe":{"energy_class":"E","ghg_class":"C"},"images":["https://images.unsplash.com/photo-1567496898669-ee935f5f647a?w=1200&h=750&q=66&auto=format&fit=crop&crop=entropy","https://images.unsplash.com/photo-1484154218962-a197022b5858?w=1200&h=750&q=66&auto=format&fit=crop&crop=entropy","https://images.unsplash.com/photo-1560448204-e02f11c3d0e2?w=1200&h=750&q=66&auto=format&fit=crop&crop=entropy","https://images.unsplash.com/photo-1502672260266-1c1ef2d93688?w=1200&h=750&q=66&auto=format&fit=crop&crop=entropy","https://images.unsplash.com/photo-1540518614846-7eded433c457?w=1200&h=750&q=66&auto=format&fit=crop&crop=entropy"],"thumb":"https://images.unsplash.com/photo-1567496898669-ee935f5f647a?w=480&h=300&q=55&auto=format&fit=crop&crop=entropy","score":{"opportunity_score":42,"value_score":56,"yield_score":68,"negotiation_score":0,"liquidity_score":82,"gentrification_score":46},"signals":{"price_drops":0,"total_drop_percent":0,"long_time_on_market":false,"explanations":["2.7% net rental yield (gross 4.2%)","2 days on market"]},"source":"dvf","url":"https://app.dvf.etalab.gouv.fr/"}