{"id":"dvf-2024-1210361","address":{"raw":"7 Rue De L'Olive, 75018 Paris","normalized":"7 Rue de l' Olive 75018 Paris","lat":48.890704,"lng":2.361192,"district":"75018"},"characteristics":{"surface_m2":68,"rooms":3,"floor":0},"pricing":{"current_price":427500,"price_per_m2":6287,"initial_price":427500},"timeline":{"first_seen":"2026-06-29","last_seen":"2026-07-01","days_on_market":2},"price_history":[{"date":"2026-06-29","price":427500,"source":"dvf"}],"status":"active","dvf":{"avg_price_m2_100m":7941,"avg_price_m2_500m":7582,"comparable_sales":[{"price":118600,"date":"2024-11-27","distance_m":25},{"price":190000,"date":"2024-03-19","distance_m":36},{"price":270000,"date":"2024-07-22","distance_m":48},{"price":600000,"date":"2024-12-20","distance_m":51},{"price":216500,"date":"2024-10-02","distance_m":62},{"price":158100,"date":"2024-03-01","distance_m":63},{"price":166500,"date":"2024-03-22","distance_m":63},{"price":180000,"date":"2024-06-25","distance_m":63}]},"risks":{"flood":0.08,"clay":0.2,"noise":0.29},"transport_score":68,"neighborhood":{"walk_score":93,"schools_500m":19,"income":26000,"velib_400m":3,"trees_150m":108,"amenities":{"food":22,"health":5,"green":5,"culture":6}},"rent":{"ref_m2":21.1,"max_m2":25.3,"min_m2":14.8,"quartier":"La Chapelle","monthly_est":1720},"investment":{"gross_yield":4.83,"net_yield":3.38,"ppm2_percentile":6,"negotiation_margin_pct":0.1,"dpe_risk_score":10,"value_add_flag":false},"pois":[{"type":"transport","lat":48.89048545474661,"lng":2.359995766394621,"label":"Marx Dormoy · METRO 12"},{"type":"transport","lat":48.8843996770653,"lng":2.360399500808732,"label":"La Chapelle · METRO 2"},{"type":"transport","lat":48.89724528809305,"lng":2.3595078688155935,"label":"Porte de la Chapelle · METRO 12"},{"type":"park","lat":48.89197347928882,"lng":2.361195054268057,"label":"SQUARE MARC SEGUIN"},{"type":"park","lat":48.8924334681279,"lng":2.361823412441217,"label":"JARDIN DU 8 RUE DE LA MADONE (JARDIN EVANGILE)"},{"type":"park","lat":48.892687367946245,"lng":2.3614976710136384,"label":"SQUARE DE LA MADONE"},{"type":"velib","lat":48.89021003702,"lng":2.3601756244898,"label":"Riquet - Marx Dormoy"},{"type":"velib","lat":48.88960028134536,"lng":2.3628534749150276,"label":"Pajol - Riquet"},{"type":"velib","lat":48.8927825,"lng":2.3635598,"label":"Pajol - Place Herbert"}],"dpe":{"energy_class":"G","ghg_class":"C"},"images":["https://images.unsplash.com/photo-1493663284031-b7e3aefcae8e?w=1200&h=750&q=66&auto=format&fit=crop&crop=entropy","https://images.unsplash.com/photo-1522708323590-d24dbb6b0267?w=1200&h=750&q=66&auto=format&fit=crop&crop=entropy","https://images.unsplash.com/photo-1560448204-e02f11c3d0e2?w=1200&h=750&q=66&auto=format&fit=crop&crop=entropy","https://images.unsplash.com/photo-1505691938895-1758d7feb511?w=1200&h=750&q=66&auto=format&fit=crop&crop=entropy","https://images.unsplash.com/photo-1484154218962-a197022b5858?w=1200&h=750&q=66&auto=format&fit=crop&crop=entropy"],"thumb":"https://images.unsplash.com/photo-1493663284031-b7e3aefcae8e?w=480&h=300&q=55&auto=format&fit=crop&crop=entropy","score":{"opportunity_score":40,"value_score":98,"yield_score":96,"negotiation_score":0,"liquidity_score":70,"gentrification_score":44},"signals":{"price_drops":0,"total_drop_percent":0,"long_time_on_market":false,"explanations":["3.4% net rental yield (gross 4.8%)","19.4% below DVF average (7 797 €/m²)","Cheaper than 94% of the arrondissement","2 days on market","Energy class G — rental restrictions apply"]},"source":"dvf","url":"https://app.dvf.etalab.gouv.fr/"}