{"id":"dvf-2024-1228562","address":{"raw":"17 Rue Saint Sulpice, 75006 Paris","normalized":"17 Rue Saint-Sulpice 75006 Paris","lat":48.851437,"lng":2.33729,"district":"75006"},"characteristics":{"surface_m2":25,"rooms":1,"floor":1},"pricing":{"current_price":362548,"price_per_m2":14502,"initial_price":362548},"timeline":{"first_seen":"2026-06-29","last_seen":"2026-07-01","days_on_market":2},"price_history":[{"date":"2026-06-29","price":362548,"source":"dvf"}],"status":"active","dvf":{"avg_price_m2_100m":17563,"avg_price_m2_500m":16452,"comparable_sales":[{"price":1188350,"date":"2024-05-03","distance_m":14},{"price":517509,"date":"2024-10-17","distance_m":14},{"price":513040,"date":"2024-10-28","distance_m":14},{"price":710000,"date":"2024-01-26","distance_m":19},{"price":655000,"date":"2024-11-25","distance_m":19},{"price":370000,"date":"2024-12-11","distance_m":33},{"price":361905,"date":"2024-10-07","distance_m":38},{"price":4420000,"date":"2024-01-12","distance_m":42}]},"risks":{"flood":0.13,"clay":0.41,"noise":0.6},"transport_score":96,"neighborhood":{"walk_score":70,"schools_500m":10,"income":43000,"velib_400m":8,"trees_150m":57,"amenities":{"food":12,"health":2,"green":4,"culture":0}},"rent":{"ref_m2":34,"max_m2":40.8,"min_m2":23.8,"quartier":"Odeon","monthly_est":1020},"investment":{"gross_yield":3.38,"net_yield":2.02,"ppm2_percentile":42,"negotiation_margin_pct":0.1,"dpe_risk_score":30,"value_add_flag":false},"pois":[{"type":"transport","lat":48.852300763094235,"lng":2.3397277815930964,"label":"Odéon · METRO 4"},{"type":"transport","lat":48.8530167679172,"lng":2.335502051727558,"label":"Mabillon · METRO 10"},{"type":"transport","lat":48.85193594203498,"lng":2.340613006406504,"label":"Odéon · METRO 10"},{"type":"transport","lat":48.853718934000206,"lng":2.3337761382184676,"label":"Saint-Germain-des-Prés · METRO 4"},{"type":"transport","lat":48.85316798489062,"lng":2.343285978923924,"label":"Saint-Michel · METRO 4"},{"type":"park","lat":48.85142545112204,"lng":2.338156317651731,"label":"JARDINET DU 6 RUE CONDE"},{"type":"park","lat":48.849520121107176,"lng":2.3376796364935615,"label":"SQUARE FRANCIS POULENC"},{"type":"park","lat":48.85371512804107,"lng":2.334597522096189,"label":"SQUARE FELIX DESRUELLES"},{"type":"velib","lat":48.851751374458864,"lng":2.338161695134053,"label":"Quatre Vents - Carrefour de l'Odéon"},{"type":"velib","lat":48.85165625855281,"lng":2.335500307381153,"label":"Marché Saint-Germain"},{"type":"velib","lat":48.84954227788459,"lng":2.337939441204071,"label":"Sénat - Condé"},{"type":"velib","lat":48.85375581057431,"lng":2.3390958085656166,"label":"André Mazet - Saint-André des Arts"}],"dpe":{"energy_class":"F","ghg_class":"C"},"images":["https://images.unsplash.com/photo-1540518614846-7eded433c457?w=1200&h=750&q=66&auto=format&fit=crop&crop=entropy","https://images.unsplash.com/photo-1567496898669-ee935f5f647a?w=1200&h=750&q=66&auto=format&fit=crop&crop=entropy","https://images.unsplash.com/photo-1505691938895-1758d7feb511?w=1200&h=750&q=66&auto=format&fit=crop&crop=entropy","https://images.unsplash.com/photo-1502672260266-1c1ef2d93688?w=1200&h=750&q=66&auto=format&fit=crop&crop=entropy","https://images.unsplash.com/photo-1502005097973-6a7082348e28?w=1200&h=750&q=66&auto=format&fit=crop&crop=entropy"],"thumb":"https://images.unsplash.com/photo-1540518614846-7eded433c457?w=480&h=300&q=55&auto=format&fit=crop&crop=entropy","score":{"opportunity_score":35,"value_score":88,"yield_score":31,"negotiation_score":0,"liquidity_score":94,"gentrification_score":48},"signals":{"price_drops":0,"total_drop_percent":0,"long_time_on_market":false,"explanations":["2.0% net rental yield (gross 3.4%)","15.3% below DVF average (17 119 €/m²)","2 days on market","Energy class F — rental restrictions apply"]},"source":"dvf","url":"https://app.dvf.etalab.gouv.fr/"}