{"id":"dvf-2024-1227695","address":{"raw":"31 Rue De La Harpe, 75005 Paris","normalized":"31 Rue de la Harpe 75005 Paris","lat":48.852163,"lng":2.344489,"district":"75005"},"characteristics":{"surface_m2":23,"rooms":1,"floor":3},"pricing":{"current_price":270000,"price_per_m2":11739,"initial_price":270000},"timeline":{"first_seen":"2026-06-29","last_seen":"2026-07-01","days_on_market":2},"price_history":[{"date":"2026-06-29","price":270000,"source":"dvf"}],"status":"active","dvf":{"avg_price_m2_100m":13342,"avg_price_m2_500m":14713,"comparable_sales":[{"price":410000,"date":"2024-11-15","distance_m":15},{"price":254820,"date":"2024-08-19","distance_m":27},{"price":224330,"date":"2024-09-10","distance_m":27},{"price":475300,"date":"2024-09-30","distance_m":44},{"price":720000,"date":"2024-12-11","distance_m":46},{"price":2500000,"date":"2024-09-18","distance_m":51},{"price":670000,"date":"2024-04-03","distance_m":53},{"price":277500,"date":"2024-07-03","distance_m":62}]},"risks":{"flood":0.39,"clay":0.21,"noise":0.5},"transport_score":100,"neighborhood":{"walk_score":77,"schools_500m":14,"income":37000,"velib_400m":9,"trees_150m":64,"amenities":{"food":20,"health":8,"green":1,"culture":1}},"rent":{"ref_m2":32.9,"max_m2":39.5,"min_m2":23,"quartier":"Sorbonne","monthly_est":909},"investment":{"gross_yield":4.04,"net_yield":2.64,"ppm2_percentile":34,"negotiation_margin_pct":0.1,"dpe_risk_score":75,"value_add_flag":false},"pois":[{"type":"transport","lat":48.85211888263096,"lng":2.34402115205528,"label":"Saint-Michel · RER B"},{"type":"transport","lat":48.851050282314304,"lng":2.3442733454213514,"label":"Cluny-La Sorbonne · METRO 10"},{"type":"transport","lat":48.85316798489062,"lng":2.343285978923924,"label":"Saint-Michel · METRO 4"},{"type":"transport","lat":48.85353290071982,"lng":2.3452883321974305,"label":"Saint-Michel · RER C"},{"type":"transport","lat":48.85193594203498,"lng":2.340613006406504,"label":"Odéon · METRO 10"},{"type":"park","lat":48.8516447840239,"lng":2.3455575386795005,"label":"SQUARE ANDRE LEFEVRE"},{"type":"park","lat":48.85081473908884,"lng":2.3441393123754306,"label":"JARDIN MEDIEVAL DU MUSEE DE CLUNY"},{"type":"park","lat":48.8527484916227,"lng":2.3471148052509827,"label":"SQUARE PIERRE-GILLES DE GENNES"},{"type":"velib","lat":48.852731305488,"lng":2.3440927639604,"label":"Saint-Séverin - Saint-Michel"},{"type":"velib","lat":48.851518815017,"lng":2.3436703160405,"label":"Harpe - Saint-Germain"},{"type":"velib","lat":48.852886173881,"lng":2.3426544293761,"label":"Place Saint-André des Arts"},{"type":"velib","lat":48.850310432924,"lng":2.3450158352986,"label":"Sommerard - Saint-Jacques"}],"dpe":{"energy_class":"D","ghg_class":"B"},"images":["https://images.unsplash.com/photo-1540518614846-7eded433c457?w=1200&h=750&q=66&auto=format&fit=crop&crop=entropy","https://images.unsplash.com/photo-1556912173-3bb406ef7e77?w=1200&h=750&q=66&auto=format&fit=crop&crop=entropy","https://images.unsplash.com/photo-1522708323590-d24dbb6b0267?w=1200&h=750&q=66&auto=format&fit=crop&crop=entropy","https://images.unsplash.com/photo-1567496898669-ee935f5f647a?w=1200&h=750&q=66&auto=format&fit=crop&crop=entropy","https://images.unsplash.com/photo-1493663284031-b7e3aefcae8e?w=1200&h=750&q=66&auto=format&fit=crop&crop=entropy"],"thumb":"https://images.unsplash.com/photo-1540518614846-7eded433c457?w=480&h=300&q=55&auto=format&fit=crop&crop=entropy","score":{"opportunity_score":56,"value_score":89,"yield_score":63,"negotiation_score":0,"liquidity_score":90,"gentrification_score":50},"signals":{"price_drops":0,"total_drop_percent":0,"long_time_on_market":false,"explanations":["2.6% net rental yield (gross 4.0%)","15.5% below DVF average (13 890 €/m²)","Cheaper than 66% of the arrondissement","2 days on market"]},"source":"dvf","url":"https://app.dvf.etalab.gouv.fr/"}