{"id":"dvf-2024-1228836","address":{"raw":"7 Rue Alfred Bruneau, 75016 Paris","normalized":"7 Rue Alfred Bruneau 75016 Paris","lat":48.855959,"lng":2.277404,"district":"75016"},"characteristics":{"surface_m2":60,"rooms":2,"floor":2},"pricing":{"current_price":1082400,"price_per_m2":18040,"initial_price":1082400},"timeline":{"first_seen":"2026-06-29","last_seen":"2026-07-02","days_on_market":3},"price_history":[{"date":"2026-06-29","price":1082400,"source":"dvf"}],"status":"active","dvf":{"avg_price_m2_100m":13023,"avg_price_m2_500m":11672,"comparable_sales":[{"price":2051908,"date":"2024-01-26","distance_m":27},{"price":245000,"date":"2024-03-05","distance_m":27},{"price":1335900,"date":"2024-03-12","distance_m":27},{"price":1030000,"date":"2024-05-02","distance_m":27},{"price":115000,"date":"2024-05-17","distance_m":27},{"price":1379050,"date":"2024-08-26","distance_m":27},{"price":116000,"date":"2024-09-09","distance_m":27},{"price":1124778,"date":"2024-11-19","distance_m":27}]},"risks":{"flood":0.1,"clay":0.37,"noise":0.37},"transport_score":87,"neighborhood":{"walk_score":42,"schools_500m":12,"income":44000,"velib_400m":7,"trees_150m":30,"amenities":{"food":1,"health":1,"green":0,"culture":4}},"rent":{"ref_m2":26.9,"max_m2":32.3,"min_m2":18.8,"quartier":"Muette","monthly_est":1938},"investment":{"gross_yield":2.15,"net_yield":0.88,"ppm2_percentile":96,"negotiation_margin_pct":0.1,"dpe_risk_score":55,"value_add_flag":false},"pois":[{"type":"transport","lat":48.85697199584854,"lng":2.2747933246088805,"label":"Boulainvilliers · RER C"},{"type":"transport","lat":48.85364805716894,"lng":2.2794870649625665,"label":"Avenue du Président Kennedy · RER C"},{"type":"transport","lat":48.85804605538448,"lng":2.274154629736559,"label":"La Muette · METRO 9"},{"type":"transport","lat":48.855485050404425,"lng":2.2701091389418937,"label":"Ranelagh · METRO 9"},{"type":"transport","lat":48.85744869007581,"lng":2.2858124441464076,"label":"Passy · METRO 6"},{"type":"park","lat":48.855166133409625,"lng":2.2807561756440986,"label":"JARDIN DE LA MAISON DE BALZAC"},{"type":"park","lat":48.85636529406921,"lng":2.2823966003679432,"label":"JARDINETS DE L'AVENUE DU PARC DE PASSY"},{"type":"park","lat":48.855754600367085,"lng":2.283435676849954,"label":"PARC DE PASSY"},{"type":"velib","lat":48.856399483950504,"lng":2.275240458548069,"label":"Vignes - Boulainvilliers"},{"type":"velib","lat":48.85780291711202,"lng":2.277500546942199,"label":"Place de Passy"},{"type":"velib","lat":48.857566889784465,"lng":2.280027395306772,"label":"Jean Bologne - Passy"},{"type":"velib","lat":48.8583666,"lng":2.2744515,"label":"François Ponsard - La Muette"}],"dpe":{"energy_class":"E","ghg_class":"E"},"images":["https://images.unsplash.com/photo-1502672260266-1c1ef2d93688?w=1200&h=750&q=66&auto=format&fit=crop&crop=entropy","https://images.unsplash.com/photo-1540518614846-7eded433c457?w=1200&h=750&q=66&auto=format&fit=crop&crop=entropy","https://images.unsplash.com/photo-1556912173-3bb406ef7e77?w=1200&h=750&q=66&auto=format&fit=crop&crop=entropy","https://images.unsplash.com/photo-1522708323590-d24dbb6b0267?w=1200&h=750&q=66&auto=format&fit=crop&crop=entropy","https://images.unsplash.com/photo-1567496898669-ee935f5f647a?w=1200&h=750&q=66&auto=format&fit=crop&crop=entropy"],"thumb":"https://images.unsplash.com/photo-1502672260266-1c1ef2d93688?w=480&h=300&q=55&auto=format&fit=crop&crop=entropy","score":{"opportunity_score":14,"value_score":4,"yield_score":0,"negotiation_score":1,"liquidity_score":73,"gentrification_score":64},"signals":{"price_drops":0,"total_drop_percent":0,"long_time_on_market":false,"explanations":["0.9% net rental yield (gross 2.1%)","44.5% above DVF average","3 days on market"]},"source":"dvf","url":"https://app.dvf.etalab.gouv.fr/"}