{"id":"dvf-2024-1229063","address":{"raw":"29 Cite Industrielle, 75011 Paris","normalized":"29 Cité Industrielle 75011 Paris","lat":48.859311,"lng":2.380332,"district":"75011"},"characteristics":{"surface_m2":24,"rooms":2,"floor":2},"pricing":{"current_price":240000,"price_per_m2":10000,"initial_price":240000},"timeline":{"first_seen":"2026-06-29","last_seen":"2026-07-01","days_on_market":2},"price_history":[{"date":"2026-06-29","price":240000,"source":"dvf"}],"status":"active","dvf":{"avg_price_m2_100m":9555,"avg_price_m2_500m":10199,"comparable_sales":[{"price":277000,"date":"2024-06-14","distance_m":8},{"price":687160,"date":"2024-04-22","distance_m":32},{"price":840000,"date":"2024-05-28","distance_m":32},{"price":410000,"date":"2024-09-27","distance_m":33},{"price":640000,"date":"2024-01-17","distance_m":43},{"price":287000,"date":"2024-07-23","distance_m":74},{"price":347706,"date":"2024-04-12","distance_m":75},{"price":145000,"date":"2024-04-18","distance_m":76}]},"risks":{"flood":0.02,"clay":0.38,"noise":0.51},"transport_score":99,"neighborhood":{"walk_score":99,"schools_500m":20,"income":30000,"velib_400m":8,"trees_150m":82,"amenities":{"food":31,"health":12,"green":5,"culture":5}},"rent":{"ref_m2":25.4,"max_m2":30.5,"min_m2":17.8,"quartier":"Roquette","monthly_est":732},"investment":{"gross_yield":3.66,"net_yield":2.29,"ppm2_percentile":32,"negotiation_margin_pct":0.1,"dpe_risk_score":10,"value_add_flag":false},"pois":[{"type":"transport","lat":48.85787849486676,"lng":2.3800206442479825,"label":"Voltaire · METRO 9"},{"type":"transport","lat":48.86147646373029,"lng":2.373943508245182,"label":"Saint-Ambroise · METRO 9"},{"type":"transport","lat":48.864285758645295,"lng":2.379741893177554,"label":"Rue Saint-Maur · METRO 3"},{"type":"transport","lat":48.855094494476994,"lng":2.3846997601328437,"label":"Charonne · METRO 9"},{"type":"transport","lat":48.86312321464208,"lng":2.3858824493261475,"label":"Père Lachaise · METRO 3"},{"type":"park","lat":48.85934870003979,"lng":2.3802155788940262,"label":"JARDIN PARTAGE CITE INDUSTRIELLE"},{"type":"park","lat":48.861681867631106,"lng":2.3790746784611545,"label":"SQUARE MAURICE GARDETTE"},{"type":"park","lat":48.85968200657181,"lng":2.3846683511129285,"label":"SQUARE DE LA ROQUETTE"},{"type":"velib","lat":48.858925,"lng":2.3789759,"label":"Mairie du 11ème"},{"type":"velib","lat":48.858001906023,"lng":2.3817977026508,"label":"Roquette - Auguste Laurent"},{"type":"velib","lat":48.86112461407359,"lng":2.381299026310444,"label":"Chemin Vert - Saint-Maur"},{"type":"velib","lat":48.858688774063,"lng":2.3835539945715,"label":"Saint-Maur - Roquette"}],"dpe":{"energy_class":"G","ghg_class":"C"},"images":["https://images.unsplash.com/photo-1493809842364-78817add7ffb?w=1200&h=750&q=66&auto=format&fit=crop&crop=entropy","https://images.unsplash.com/photo-1502672260266-1c1ef2d93688?w=1200&h=750&q=66&auto=format&fit=crop&crop=entropy","https://images.unsplash.com/photo-1556912173-3bb406ef7e77?w=1200&h=750&q=66&auto=format&fit=crop&crop=entropy","https://images.unsplash.com/photo-1560448204-e02f11c3d0e2?w=1200&h=750&q=66&auto=format&fit=crop&crop=entropy","https://images.unsplash.com/photo-1554995207-c18c203602cb?w=1200&h=750&q=66&auto=format&fit=crop&crop=entropy"],"thumb":"https://images.unsplash.com/photo-1493809842364-78817add7ffb?w=480&h=300&q=55&auto=format&fit=crop&crop=entropy","score":{"opportunity_score":28,"value_score":68,"yield_score":45,"negotiation_score":0,"liquidity_score":86,"gentrification_score":45},"signals":{"price_drops":0,"total_drop_percent":0,"long_time_on_market":false,"explanations":["2.3% net rental yield (gross 3.7%)","1.9% above DVF average","Cheaper than 68% of the arrondissement","2 days on market","Energy class G — rental restrictions apply"]},"source":"dvf","url":"https://app.dvf.etalab.gouv.fr/"}