{"id":"dvf-2024-1209681","address":{"raw":"70 Rue De Clichy, 75009 Paris","normalized":"70 Rue de Clichy 75009 Paris","lat":48.88214,"lng":2.328172,"district":"75009"},"characteristics":{"surface_m2":55,"rooms":3,"floor":1},"pricing":{"current_price":580000,"price_per_m2":10545,"initial_price":580000},"timeline":{"first_seen":"2026-06-29","last_seen":"2026-07-01","days_on_market":2},"price_history":[{"date":"2026-06-29","price":580000,"source":"dvf"}],"status":"active","dvf":{"avg_price_m2_100m":11018,"avg_price_m2_500m":10554,"comparable_sales":[{"price":278700,"date":"2024-01-17","distance_m":16},{"price":283000,"date":"2024-03-15","distance_m":16},{"price":635000,"date":"2024-10-30","distance_m":61},{"price":510250,"date":"2024-04-17","distance_m":62},{"price":711538,"date":"2024-04-15","distance_m":65},{"price":452500,"date":"2024-06-04","distance_m":70},{"price":540000,"date":"2024-08-27","distance_m":76},{"price":577000,"date":"2024-09-09","distance_m":76}]},"risks":{"flood":0.07,"clay":0.1,"noise":0.58},"transport_score":97,"neighborhood":{"walk_score":83,"schools_500m":18,"income":34000,"velib_400m":9,"trees_150m":40,"amenities":{"food":22,"health":6,"green":3,"culture":3}},"rent":{"ref_m2":23.7,"max_m2":28.4,"min_m2":16.6,"quartier":"Saint-Georges","monthly_est":1562},"investment":{"gross_yield":3.23,"net_yield":1.89,"ppm2_percentile":38,"negotiation_margin_pct":0.1,"dpe_risk_score":75,"value_add_flag":false},"pois":[{"type":"transport","lat":48.8838045280338,"lng":2.3272434105874065,"label":"Place de Clichy · METRO 13"},{"type":"transport","lat":48.88399982489613,"lng":2.32853013989038,"label":"Place de Clichy · METRO 2"},{"type":"transport","lat":48.87963476065682,"lng":2.3270222008895027,"label":"Liège · METRO 13"},{"type":"transport","lat":48.88355629016869,"lng":2.3333796724221587,"label":"Blanche · METRO 2"},{"type":"transport","lat":48.88233342370702,"lng":2.3218017310631685,"label":"Rome · METRO 2"},{"type":"park","lat":48.88146670412989,"lng":2.332378524250056,"label":"JARDIN PAULINE GARCIA VIARDOT DE LA BIBLIOTHEQUE"},{"type":"park","lat":48.88566129703641,"lng":2.327400572607862,"label":"SQUARE DES DEUX NETHES"},{"type":"park","lat":48.884057560374785,"lng":2.332929877524587,"label":"JARDINIERES DE LA RUE LEPIC"},{"type":"velib","lat":48.881266424227,"lng":2.3281970934506,"label":"Parme - Clichy"},{"type":"velib","lat":48.883687771522,"lng":2.328063700029,"label":"Clichy - Douai"},{"type":"velib","lat":48.883474535757,"lng":2.326493114233,"label":"Batignolles - Place de Clichy"},{"type":"velib","lat":48.883207841228,"lng":2.3308449949029,"label":"Douai - Bruxelles"}],"dpe":{"energy_class":"D","ghg_class":"D"},"images":["https://images.unsplash.com/photo-1502005097973-6a7082348e28?w=1200&h=750&q=66&auto=format&fit=crop&crop=entropy","https://images.unsplash.com/photo-1505691938895-1758d7feb511?w=1200&h=750&q=66&auto=format&fit=crop&crop=entropy","https://images.unsplash.com/photo-1560448204-e02f11c3d0e2?w=1200&h=750&q=66&auto=format&fit=crop&crop=entropy","https://images.unsplash.com/photo-1493809842364-78817add7ffb?w=1200&h=750&q=66&auto=format&fit=crop&crop=entropy","https://images.unsplash.com/photo-1522708323590-d24dbb6b0267?w=1200&h=750&q=66&auto=format&fit=crop&crop=entropy"],"thumb":"https://images.unsplash.com/photo-1502005097973-6a7082348e28?w=480&h=300&q=55&auto=format&fit=crop&crop=entropy","score":{"opportunity_score":38,"value_score":62,"yield_score":25,"negotiation_score":0,"liquidity_score":80,"gentrification_score":48},"signals":{"price_drops":0,"total_drop_percent":0,"long_time_on_market":false,"explanations":["1.9% net rental yield (gross 3.2%)","2.7% below DVF average (10 832 €/m²)","2 days on market"]},"source":"dvf","url":"https://app.dvf.etalab.gouv.fr/"}