{"id":"dvf-2024-1228245","address":{"raw":"144 Av De Versailles, 75016 Paris","normalized":"144 Avenue de Versailles 75016 Paris","lat":48.841591,"lng":2.266338,"district":"75016"},"characteristics":{"surface_m2":75,"rooms":3,"floor":0},"pricing":{"current_price":665000,"price_per_m2":8867,"initial_price":665000},"timeline":{"first_seen":"2026-06-29","last_seen":"2026-07-02","days_on_market":3},"price_history":[{"date":"2026-06-29","price":665000,"source":"dvf"}],"status":"active","dvf":{"avg_price_m2_100m":9559,"avg_price_m2_500m":9944,"comparable_sales":[{"price":640000,"date":"2024-01-15","distance_m":16},{"price":593850,"date":"2024-07-10","distance_m":25},{"price":580000,"date":"2024-12-12","distance_m":25},{"price":354000,"date":"2024-05-27","distance_m":51},{"price":266000,"date":"2024-10-15","distance_m":63},{"price":525000,"date":"2024-02-22","distance_m":65},{"price":365500,"date":"2024-04-15","distance_m":65},{"price":362000,"date":"2024-04-04","distance_m":67}]},"risks":{"flood":0.17,"clay":0.11,"noise":0.32},"transport_score":82,"neighborhood":{"walk_score":50,"schools_500m":3,"income":44000,"velib_400m":2,"trees_150m":38,"amenities":{"food":16,"health":0,"green":1,"culture":2}},"rent":{"ref_m2":24.6,"max_m2":29.5,"min_m2":17.2,"quartier":"Auteuil","monthly_est":2213},"investment":{"gross_yield":3.99,"net_yield":2.6,"ppm2_percentile":24,"negotiation_margin_pct":0.1,"dpe_risk_score":75,"value_add_flag":false},"pois":[{"type":"transport","lat":48.84520470358118,"lng":2.266441541719401,"label":"Chardon Lagache · METRO 10"},{"type":"transport","lat":48.83908975542996,"lng":2.2704582437872425,"label":"Pont du Garigliano · RER C"},{"type":"transport","lat":48.84241277035873,"lng":2.259608472752572,"label":"Exelmans · METRO 9"},{"type":"transport","lat":48.84505817231375,"lng":2.2617451249636717,"label":"Michel Ange-Molitor · METRO 9"},{"type":"transport","lat":48.838075890559814,"lng":2.271174403433847,"label":"Pont du Garigliano · TRAM 3a"},{"type":"park","lat":48.84416391702763,"lng":2.2678951405082577,"label":"JARDIN PARTAGE DU JARDIN DE L'HOPITAL SAINTE-PERINE"},{"type":"park","lat":48.844473087884005,"lng":2.269068138710125,"label":"JARDIN DE L'HOPITAL SAINTE-PERINE"},{"type":"velib","lat":48.84097491091973,"lng":2.264390252530575,"label":"Exelmans - Versailles"},{"type":"velib","lat":48.840219338074,"lng":2.263834191153,"label":"Versailles - Claude Terrasse"}],"dpe":{"energy_class":"D","ghg_class":"D"},"images":["https://images.unsplash.com/photo-1540518614846-7eded433c457?w=1200&h=750&q=66&auto=format&fit=crop&crop=entropy","https://images.unsplash.com/photo-1554995207-c18c203602cb?w=1200&h=750&q=66&auto=format&fit=crop&crop=entropy","https://images.unsplash.com/photo-1556912173-3bb406ef7e77?w=1200&h=750&q=66&auto=format&fit=crop&crop=entropy","https://images.unsplash.com/photo-1560448204-e02f11c3d0e2?w=1200&h=750&q=66&auto=format&fit=crop&crop=entropy","https://images.unsplash.com/photo-1502672260266-1c1ef2d93688?w=1200&h=750&q=66&auto=format&fit=crop&crop=entropy"],"thumb":"https://images.unsplash.com/photo-1540518614846-7eded433c457?w=480&h=300&q=55&auto=format&fit=crop&crop=entropy","score":{"opportunity_score":50,"value_score":76,"yield_score":61,"negotiation_score":1,"liquidity_score":67,"gentrification_score":64},"signals":{"price_drops":0,"total_drop_percent":0,"long_time_on_market":false,"explanations":["2.6% net rental yield (gross 4.0%)","8.7% below DVF average (9 713 €/m²)","Cheaper than 76% of the arrondissement","3 days on market"]},"source":"dvf","url":"https://app.dvf.etalab.gouv.fr/"}