{"id":"dvf-2024-1209619","address":{"raw":"43 Av Secretan, 75019 Paris","normalized":"43 Avenue Secrétan 75019 Paris","lat":48.88072,"lng":2.374698,"district":"75019"},"characteristics":{"surface_m2":32,"rooms":2,"floor":3},"pricing":{"current_price":290000,"price_per_m2":9063,"initial_price":290000},"timeline":{"first_seen":"2026-06-29","last_seen":"2026-07-02","days_on_market":3},"price_history":[{"date":"2026-06-29","price":290000,"source":"dvf"}],"status":"active","dvf":{"avg_price_m2_100m":8889,"avg_price_m2_500m":8777,"comparable_sales":[{"price":215000,"date":"2024-04-19","distance_m":22},{"price":340000,"date":"2024-10-11","distance_m":33},{"price":220000,"date":"2024-06-19","distance_m":45},{"price":468300,"date":"2024-06-26","distance_m":52},{"price":137000,"date":"2024-06-21","distance_m":66},{"price":465600,"date":"2024-07-16","distance_m":71},{"price":310000,"date":"2024-04-08","distance_m":84},{"price":286000,"date":"2024-09-06","distance_m":84}]},"risks":{"flood":0.01,"clay":0.07,"noise":0.37},"transport_score":100,"neighborhood":{"walk_score":72,"schools_500m":30,"income":23000,"velib_400m":8,"trees_150m":78,"amenities":{"food":17,"health":6,"green":0,"culture":1}},"rent":{"ref_m2":23.8,"max_m2":28.6,"min_m2":16.7,"quartier":"Combat","monthly_est":915},"investment":{"gross_yield":3.79,"net_yield":2.41,"ppm2_percentile":62,"negotiation_margin_pct":0.1,"dpe_risk_score":55,"value_add_flag":false},"pois":[{"type":"transport","lat":48.880667463456206,"lng":2.374495966260425,"label":"Bolivar · METRO 7bis"},{"type":"transport","lat":48.88162402899078,"lng":2.3702590567553905,"label":"Jaurès · METRO 2"},{"type":"transport","lat":48.883193321300105,"lng":2.371933128614294,"label":"Jaurès · METRO 5"},{"type":"transport","lat":48.88246524557207,"lng":2.370157961739611,"label":"Jaurès · METRO 7bis"},{"type":"transport","lat":48.87761018741785,"lng":2.370811395312745,"label":"Colonel Fabien · METRO 2"},{"type":"park","lat":48.877164782881565,"lng":2.3757038996523776,"label":"JARDIN PARTAGE DE LA BUTTE BERGEYRE"},{"type":"park","lat":48.87784897750985,"lng":2.370275929278321,"label":"FORET URBAINE DE LA PLACE  DU COLONEL FABIEN"},{"type":"velib","lat":48.87979886049996,"lng":2.374839261174202,"label":"Edouard Pailleron - Simon Bolivar"},{"type":"velib","lat":48.88125496379482,"lng":2.373463287949562,"label":"Marché Secrétan"},{"type":"velib","lat":48.880516995482,"lng":2.3763902374411,"label":"Pailleron - Bouret"},{"type":"velib","lat":48.88270066221072,"lng":2.374717555940151,"label":"Lally-Tollendal - Armand Carrel"}],"dpe":{"energy_class":"E","ghg_class":"B"},"images":["https://images.unsplash.com/photo-1560448204-e02f11c3d0e2?w=1200&h=750&q=66&auto=format&fit=crop&crop=entropy","https://images.unsplash.com/photo-1484154218962-a197022b5858?w=1200&h=750&q=66&auto=format&fit=crop&crop=entropy","https://images.unsplash.com/photo-1493663284031-b7e3aefcae8e?w=1200&h=750&q=66&auto=format&fit=crop&crop=entropy","https://images.unsplash.com/photo-1493809842364-78817add7ffb?w=1200&h=750&q=66&auto=format&fit=crop&crop=entropy","https://images.unsplash.com/photo-1505691938895-1758d7feb511?w=1200&h=750&q=66&auto=format&fit=crop&crop=entropy"],"thumb":"https://images.unsplash.com/photo-1560448204-e02f11c3d0e2?w=480&h=300&q=55&auto=format&fit=crop&crop=entropy","score":{"opportunity_score":35,"value_score":44,"yield_score":51,"negotiation_score":1,"liquidity_score":76,"gentrification_score":45},"signals":{"price_drops":0,"total_drop_percent":0,"long_time_on_market":false,"explanations":["2.4% net rental yield (gross 3.8%)","2.5% above DVF average","3 days on market"]},"source":"dvf","url":"https://app.dvf.etalab.gouv.fr/"}