{"id":"dvf-2024-1210349","address":{"raw":"57 Rue Julien Lacroix, 75020 Paris","normalized":"57 Rue Julien Lacroix 75020 Paris","lat":48.870358,"lng":2.384085,"district":"75020"},"characteristics":{"surface_m2":66,"rooms":3,"floor":2},"pricing":{"current_price":535900,"price_per_m2":8120,"initial_price":535900},"timeline":{"first_seen":"2026-06-29","last_seen":"2026-07-02","days_on_market":3},"price_history":[{"date":"2026-06-29","price":535900,"source":"dvf"}],"status":"active","dvf":{"avg_price_m2_100m":7308,"avg_price_m2_500m":8940,"comparable_sales":[{"price":465701,"date":"2024-04-23","distance_m":10},{"price":649010,"date":"2024-08-21","distance_m":10},{"price":243000,"date":"2024-10-22","distance_m":10},{"price":514400,"date":"2024-06-07","distance_m":27},{"price":494900,"date":"2024-02-07","distance_m":73},{"price":285000,"date":"2024-03-18","distance_m":73},{"price":430500,"date":"2024-04-02","distance_m":73},{"price":358000,"date":"2024-05-07","distance_m":73}]},"risks":{"flood":0.06,"clay":0.35,"noise":0.58},"transport_score":90,"neighborhood":{"walk_score":90,"schools_500m":39,"income":25000,"velib_400m":6,"trees_150m":104,"amenities":{"food":31,"health":6,"green":2,"culture":6}},"rent":{"ref_m2":24,"max_m2":28.8,"min_m2":16.8,"quartier":"Belleville","monthly_est":1901},"investment":{"gross_yield":4.26,"net_yield":2.84,"ppm2_percentile":46,"negotiation_margin_pct":0.1,"dpe_risk_score":88,"value_add_flag":false},"pois":[{"type":"transport","lat":48.8690911620257,"lng":2.380542586000037,"label":"Couronnes · METRO 2"},{"type":"transport","lat":48.87388185415816,"lng":2.385316215101792,"label":"Pyrénées · METRO 11"},{"type":"transport","lat":48.866446806067,"lng":2.383599109573657,"label":"Ménilmontant · METRO 2"},{"type":"transport","lat":48.87184879466127,"lng":2.3765936840968225,"label":"Belleville · METRO 11"},{"type":"transport","lat":48.87228310892801,"lng":2.37673072170184,"label":"Belleville · METRO 2"},{"type":"park","lat":48.87075112727912,"lng":2.3832649907068735,"label":"JARDIN GABRIELE BUFFET"},{"type":"park","lat":48.87122750172725,"lng":2.384695599430617,"label":"PARC DE BELLEVILLE"},{"type":"park","lat":48.871212101130915,"lng":2.3862872372349724,"label":"JARDIN PARTAGE DU SQUARE ALEXANDRE LUQUET"},{"type":"velib","lat":48.8703459,"lng":2.3842214,"label":"Parc de Belleville - Julien Lacroix"},{"type":"velib","lat":48.87195626635528,"lng":2.384981390278095,"label":"Piat - Parc de Belleville"},{"type":"velib","lat":48.86798303359366,"lng":2.3851405311143026,"label":"Etienne Dolet - Place Maurice Chevalier"},{"type":"velib","lat":48.868831082877,"lng":2.3809862136841,"label":"Belleville - Couronnes"}],"dpe":{"energy_class":"C","ghg_class":"B"},"images":["https://images.unsplash.com/photo-1567496898669-ee935f5f647a?w=1200&h=750&q=66&auto=format&fit=crop&crop=entropy","https://images.unsplash.com/photo-1560448204-e02f11c3d0e2?w=1200&h=750&q=66&auto=format&fit=crop&crop=entropy","https://images.unsplash.com/photo-1554995207-c18c203602cb?w=1200&h=750&q=66&auto=format&fit=crop&crop=entropy","https://images.unsplash.com/photo-1484154218962-a197022b5858?w=1200&h=750&q=66&auto=format&fit=crop&crop=entropy","https://images.unsplash.com/photo-1493663284031-b7e3aefcae8e?w=1200&h=750&q=66&auto=format&fit=crop&crop=entropy"],"thumb":"https://images.unsplash.com/photo-1567496898669-ee935f5f647a?w=480&h=300&q=55&auto=format&fit=crop&crop=entropy","score":{"opportunity_score":50,"value_score":54,"yield_score":73,"negotiation_score":1,"liquidity_score":73,"gentrification_score":45},"signals":{"price_drops":0,"total_drop_percent":0,"long_time_on_market":false,"explanations":["2.8% net rental yield (gross 4.3%)","2% above DVF average","3 days on market"]},"source":"dvf","url":"https://app.dvf.etalab.gouv.fr/"}