{"id":"dvf-2024-1228979","address":{"raw":"11 Rue Parent De Rosan, 75016 Paris","normalized":"11 Rue Parent de Rosan 75016 Paris","lat":48.840032,"lng":2.260584,"district":"75016"},"characteristics":{"surface_m2":63,"rooms":2,"floor":3},"pricing":{"current_price":545000,"price_per_m2":8651,"initial_price":545000},"timeline":{"first_seen":"2026-06-29","last_seen":"2026-07-02","days_on_market":3},"price_history":[{"date":"2026-06-29","price":545000,"source":"dvf"}],"status":"active","dvf":{"avg_price_m2_100m":9208,"avg_price_m2_500m":9525,"comparable_sales":[{"price":672000,"date":"2024-10-29","distance_m":69},{"price":285000,"date":"2024-12-13","distance_m":69},{"price":223000,"date":"2024-03-14","distance_m":75},{"price":170000,"date":"2024-02-06","distance_m":76},{"price":247000,"date":"2024-02-19","distance_m":76},{"price":235000,"date":"2024-03-05","distance_m":76},{"price":460000,"date":"2024-07-01","distance_m":76},{"price":1157800,"date":"2024-07-04","distance_m":76}]},"risks":{"flood":0.1,"clay":0.16,"noise":0.26},"transport_score":83,"neighborhood":{"walk_score":41,"schools_500m":8,"income":44000,"velib_400m":5,"trees_150m":10,"amenities":{"food":1,"health":1,"green":3,"culture":0}},"rent":{"ref_m2":25.4,"max_m2":30.5,"min_m2":17.8,"quartier":"Auteuil","monthly_est":1922},"investment":{"gross_yield":4.23,"net_yield":2.82,"ppm2_percentile":18,"negotiation_margin_pct":0.1,"dpe_risk_score":75,"value_add_flag":false},"pois":[{"type":"transport","lat":48.84241277035873,"lng":2.259608472752572,"label":"Exelmans · METRO 9"},{"type":"transport","lat":48.83796121443632,"lng":2.2571222298326203,"label":"Porte de Saint-Cloud · METRO 9"},{"type":"transport","lat":48.84505817231375,"lng":2.2617451249636717,"label":"Michel Ange-Molitor · METRO 9"},{"type":"transport","lat":48.84524756545478,"lng":2.261623492404886,"label":"Michel Ange-Molitor · METRO 10"},{"type":"transport","lat":48.84520470358118,"lng":2.266441541719401,"label":"Chardon Lagache · METRO 10"},{"type":"park","lat":48.84104262813402,"lng":2.2593532621906807,"label":"CIMETIERE D'AUTEUIL"},{"type":"park","lat":48.837937820893366,"lng":2.2569786554879454,"label":"JARDIN DE LA PLACE DE LA PORTE DE SAINT-CLOUD"},{"type":"park","lat":48.83871907850932,"lng":2.25620309849147,"label":"JARDIN DE L'EGLISE SAINTE-JEANNE DE CHANTAL"},{"type":"velib","lat":48.840579923690115,"lng":2.2584119439125065,"label":"Michel-Ange - Parent de Rosan"},{"type":"velib","lat":48.840219338074,"lng":2.263834191153,"label":"Versailles - Claude Terrasse"},{"type":"velib","lat":48.84097491091973,"lng":2.264390252530575,"label":"Exelmans - Versailles"},{"type":"velib","lat":48.84309486651855,"lng":2.2597770800669053,"label":"Exelmans - Michel-Ange"}],"dpe":{"energy_class":"D","ghg_class":"D"},"images":["https://images.unsplash.com/photo-1540518614846-7eded433c457?w=1200&h=750&q=66&auto=format&fit=crop&crop=entropy","https://images.unsplash.com/photo-1522708323590-d24dbb6b0267?w=1200&h=750&q=66&auto=format&fit=crop&crop=entropy","https://images.unsplash.com/photo-1493809842364-78817add7ffb?w=1200&h=750&q=66&auto=format&fit=crop&crop=entropy","https://images.unsplash.com/photo-1567496898669-ee935f5f647a?w=1200&h=750&q=66&auto=format&fit=crop&crop=entropy","https://images.unsplash.com/photo-1505691938895-1758d7feb511?w=1200&h=750&q=66&auto=format&fit=crop&crop=entropy"],"thumb":"https://images.unsplash.com/photo-1540518614846-7eded433c457?w=480&h=300&q=55&auto=format&fit=crop&crop=entropy","score":{"opportunity_score":55,"value_score":82,"yield_score":72,"negotiation_score":1,"liquidity_score":71,"gentrification_score":64},"signals":{"price_drops":0,"total_drop_percent":0,"long_time_on_market":false,"explanations":["2.8% net rental yield (gross 4.2%)","7.3% below DVF average (9 335 €/m²)","Cheaper than 82% of the arrondissement","3 days on market"]},"source":"dvf","url":"https://app.dvf.etalab.gouv.fr/"}