{"id":"dvf-2024-1209552","address":{"raw":"9 Bd Morland, 75004 Paris","normalized":"9 Boulevard Morland 75004 Paris","lat":48.848312,"lng":2.364741,"district":"75004"},"characteristics":{"surface_m2":89,"rooms":4,"floor":4},"pricing":{"current_price":1170000,"price_per_m2":13146,"initial_price":1170000},"timeline":{"first_seen":"2026-06-29","last_seen":"2026-07-02","days_on_market":3},"price_history":[{"date":"2026-06-29","price":1170000,"source":"dvf"}],"status":"active","dvf":{"avg_price_m2_100m":14165,"avg_price_m2_500m":11782,"comparable_sales":[{"price":710000,"date":"2024-07-26","distance_m":31},{"price":2500000,"date":"2024-10-25","distance_m":40},{"price":458000,"date":"2024-04-23","distance_m":42},{"price":600000,"date":"2024-01-16","distance_m":67},{"price":600000,"date":"2024-02-29","distance_m":67},{"price":1630000,"date":"2024-05-31","distance_m":67},{"price":700000,"date":"2024-08-08","distance_m":67},{"price":570000,"date":"2024-10-16","distance_m":67}]},"risks":{"flood":0.89,"clay":0.44,"noise":0.23},"transport_score":79,"neighborhood":{"walk_score":73,"schools_500m":6,"income":38000,"velib_400m":4,"trees_150m":35,"amenities":{"food":13,"health":4,"green":4,"culture":2}},"rent":{"ref_m2":26.4,"max_m2":31.7,"min_m2":18.5,"quartier":"Arsenal","monthly_est":2821},"investment":{"gross_yield":2.89,"net_yield":1.58,"ppm2_percentile":56,"negotiation_margin_pct":0.1,"dpe_risk_score":55,"value_add_flag":false},"pois":[{"type":"transport","lat":48.8464846505702,"lng":2.36591010685298,"label":"Quai de la Rapée · METRO 5"},{"type":"transport","lat":48.85162059096899,"lng":2.3615249655078383,"label":"Sully-Morland · METRO 7"},{"type":"transport","lat":48.852009030520556,"lng":2.36867458439179,"label":"Bastille · METRO 1"},{"type":"transport","lat":48.85343696230164,"lng":2.368736572626169,"label":"Bastille · METRO 5"},{"type":"transport","lat":48.842528027683585,"lng":2.3654333833527597,"label":"Paris Austerlitz · RER C"},{"type":"park","lat":48.84738904723854,"lng":2.360933354312918,"label":"JARDIN TINO ROSSI - MUSEE DE LA SCULPTURE EN PLEIN AIR"},{"type":"park","lat":48.84991244939437,"lng":2.36801833164682,"label":"JARDIN DU PORT DE L'ARSENAL"},{"type":"park","lat":48.85086524710153,"lng":2.3627558853815067,"label":"JARDIN DU PERE THEILHARD DE CHARDIN"},{"type":"velib","lat":48.8478103,"lng":2.3659356,"label":"Bourdon - Pont Morland"},{"type":"velib","lat":48.84970399548416,"lng":2.364460788667202,"label":"Mornay - Sully"},{"type":"velib","lat":48.84682410855,"lng":2.3669364675879,"label":"Bastille - Quai de la Rapée"},{"type":"velib","lat":48.851290697625,"lng":2.3624387532495,"label":"Quai des Célestins - Henri IV"}],"dpe":{"energy_class":"E","ghg_class":"E"},"images":["https://images.unsplash.com/photo-1493663284031-b7e3aefcae8e?w=1200&h=750&q=66&auto=format&fit=crop&crop=entropy","https://images.unsplash.com/photo-1554995207-c18c203602cb?w=1200&h=750&q=66&auto=format&fit=crop&crop=entropy","https://images.unsplash.com/photo-1502005097973-6a7082348e28?w=1200&h=750&q=66&auto=format&fit=crop&crop=entropy","https://images.unsplash.com/photo-1560448204-e02f11c3d0e2?w=1200&h=750&q=66&auto=format&fit=crop&crop=entropy","https://images.unsplash.com/photo-1556912173-3bb406ef7e77?w=1200&h=750&q=66&auto=format&fit=crop&crop=entropy"],"thumb":"https://images.unsplash.com/photo-1493663284031-b7e3aefcae8e?w=480&h=300&q=55&auto=format&fit=crop&crop=entropy","score":{"opportunity_score":26,"value_score":51,"yield_score":9,"negotiation_score":1,"liquidity_score":76,"gentrification_score":45},"signals":{"price_drops":0,"total_drop_percent":0,"long_time_on_market":false,"explanations":["1.6% net rental yield (gross 2.9%)","3 days on market"]},"source":"dvf","url":"https://app.dvf.etalab.gouv.fr/"}