{"id":"dvf-2024-1210166","address":{"raw":"14 Pas Ramey, 75018 Paris","normalized":"14 Passage Ramey 75018 Paris","lat":48.890145,"lng":2.347479,"district":"75018"},"characteristics":{"surface_m2":24,"rooms":1,"floor":3},"pricing":{"current_price":240000,"price_per_m2":10000,"initial_price":240000},"timeline":{"first_seen":"2026-06-29","last_seen":"2026-07-01","days_on_market":2},"price_history":[{"date":"2026-06-29","price":240000,"source":"dvf"}],"status":"active","dvf":{"avg_price_m2_100m":9529,"avg_price_m2_500m":9146,"comparable_sales":[{"price":242500,"date":"2024-05-13","distance_m":25},{"price":315000,"date":"2024-06-27","distance_m":28},{"price":280000,"date":"2024-06-14","distance_m":37},{"price":355000,"date":"2024-11-27","distance_m":49},{"price":122000,"date":"2024-12-10","distance_m":49},{"price":285000,"date":"2024-05-31","distance_m":50},{"price":292680,"date":"2024-06-25","distance_m":50},{"price":300000,"date":"2024-09-27","distance_m":50}]},"risks":{"flood":0.01,"clay":0.23,"noise":0.39},"transport_score":96,"neighborhood":{"walk_score":89,"schools_500m":19,"income":26000,"velib_400m":7,"trees_150m":105,"amenities":{"food":28,"health":6,"green":3,"culture":3}},"rent":{"ref_m2":28,"max_m2":33.6,"min_m2":19.6,"quartier":"Clignancourt","monthly_est":806},"investment":{"gross_yield":4.03,"net_yield":2.63,"ppm2_percentile":62,"negotiation_margin_pct":0.1,"dpe_risk_score":75,"value_add_flag":false},"pois":[{"type":"transport","lat":48.89143955488239,"lng":2.349627158227453,"label":"Marcadet-Poissonniers · METRO 4"},{"type":"transport","lat":48.89146500033268,"lng":2.3498154532183615,"label":"Marcadet-Poissonniers · METRO 12"},{"type":"transport","lat":48.892418922945716,"lng":2.3447646117383565,"label":"Jules Joffrin · METRO 12"},{"type":"transport","lat":48.88671096804134,"lng":2.349559430194618,"label":"Château Rouge · METRO 4"},{"type":"transport","lat":48.894343848842425,"lng":2.347430779960205,"label":"Simplon · METRO 4"},{"type":"park","lat":48.89303593945463,"lng":2.3465053663854976,"label":"SQUARE MAURICE KRIEGEL-VALRIMONT DIT SQUARE DE CLIGNANCOURT"},{"type":"park","lat":48.89271787651025,"lng":2.3447325560202446,"label":"JARDINET DE LA MAIRIE DU XVIIIEME"},{"type":"park","lat":48.893061524696044,"lng":2.344994389355386,"label":"JARDINET DE L'EGLISE NOTRE DAME DE CLIGNANCOURT"},{"type":"velib","lat":48.890451120965,"lng":2.3490573929687,"label":"Marcadet - Barbès"},{"type":"velib","lat":48.888735896947,"lng":2.3469526693225,"label":"Custine - Ramey"},{"type":"velib","lat":48.891457726153774,"lng":2.348636478060487,"label":"Clignancourt - Ordener"},{"type":"velib","lat":48.890875,"lng":2.3449019,"label":"Marcadet - Ramey"}],"dpe":{"energy_class":"D","ghg_class":"D"},"images":["https://images.unsplash.com/photo-1554995207-c18c203602cb?w=1200&h=750&q=66&auto=format&fit=crop&crop=entropy","https://images.unsplash.com/photo-1493809842364-78817add7ffb?w=1200&h=750&q=66&auto=format&fit=crop&crop=entropy","https://images.unsplash.com/photo-1522708323590-d24dbb6b0267?w=1200&h=750&q=66&auto=format&fit=crop&crop=entropy","https://images.unsplash.com/photo-1560448204-e02f11c3d0e2?w=1200&h=750&q=66&auto=format&fit=crop&crop=entropy","https://images.unsplash.com/photo-1484154218962-a197022b5858?w=1200&h=750&q=66&auto=format&fit=crop&crop=entropy"],"thumb":"https://images.unsplash.com/photo-1554995207-c18c203602cb?w=480&h=300&q=55&auto=format&fit=crop&crop=entropy","score":{"opportunity_score":41,"value_score":38,"yield_score":63,"negotiation_score":0,"liquidity_score":80,"gentrification_score":44},"signals":{"price_drops":0,"total_drop_percent":0,"long_time_on_market":false,"explanations":["2.6% net rental yield (gross 4.0%)","6.7% above DVF average","2 days on market"]},"source":"dvf","url":"https://app.dvf.etalab.gouv.fr/"}