{"id":"dvf-2024-1208940","address":{"raw":"9 Rue De Marignan, 75008 Paris","normalized":"9 Rue de Marignan 75008 Paris","lat":48.86816,"lng":2.306162,"district":"75008"},"characteristics":{"surface_m2":180,"rooms":5,"floor":0},"pricing":{"current_price":3100000,"price_per_m2":17222,"initial_price":3100000},"timeline":{"first_seen":"2026-06-29","last_seen":"2026-07-02","days_on_market":3},"price_history":[{"date":"2026-06-29","price":3100000,"source":"dvf"}],"status":"active","dvf":{"avg_price_m2_100m":19515,"avg_price_m2_500m":15675,"comparable_sales":[{"price":2450000,"date":"2024-02-09","distance_m":37},{"price":1000000,"date":"2024-08-28","distance_m":80},{"price":2300000,"date":"2024-10-29","distance_m":80},{"price":595000,"date":"2024-05-15","distance_m":95},{"price":3700000,"date":"2024-09-10","distance_m":95},{"price":6942900,"date":"2024-12-23","distance_m":95},{"price":2850000,"date":"2024-07-03","distance_m":107},{"price":1694417,"date":"2024-01-31","distance_m":115}]},"risks":{"flood":0.2,"clay":0.31,"noise":0.56},"transport_score":94,"neighborhood":{"walk_score":39,"schools_500m":4,"income":45000,"velib_400m":7,"trees_150m":33,"amenities":{"food":2,"health":5,"green":1,"culture":1}},"rent":{"ref_m2":26.4,"max_m2":31.7,"min_m2":18.5,"quartier":"Champs-Elysées","monthly_est":5706},"investment":{"gross_yield":2.21,"net_yield":0.94,"ppm2_percentile":90,"negotiation_margin_pct":0.1,"dpe_risk_score":75,"value_add_flag":false},"pois":[{"type":"transport","lat":48.869438881659114,"lng":2.3086074935262557,"label":"Franklin D. Roosevelt · METRO 1"},{"type":"transport","lat":48.86869984735294,"lng":2.309505157337887,"label":"Franklin D. Roosevelt · METRO 9"},{"type":"transport","lat":48.87204586272729,"lng":2.3100189324082736,"label":"Saint-Philippe du Roule · METRO 9"},{"type":"transport","lat":48.86476684497177,"lng":2.3009910034955845,"label":"Alma-Marceau · METRO 9"},{"type":"transport","lat":48.8679053448971,"lng":2.3135455499467414,"label":"Champs-Élysées – Clemenceau · METRO 1"},{"type":"park","lat":48.8689809571285,"lng":2.310121191352687,"label":"JARDINETS DU ROND-POINT DES CHAMPS ELYSEES"},{"type":"park","lat":48.867149123822934,"lng":2.31067213356462,"label":"JARDINS DES CHAMPS ELYSEES- SQUARE DE BERLIN- WILLY BRANDT"},{"type":"park","lat":48.86783322261344,"lng":2.3111820973921144,"label":"JARDINS DES CHAMPS ELYSEES - CARRE  DU THEATRE DU ROND-POINT"},{"type":"velib","lat":48.866887649978,"lng":2.3066755757207,"label":"François 1er - Montaigne"},{"type":"velib","lat":48.869495661232,"lng":2.3066138139003,"label":"Marignan - Champs-Elysées"},{"type":"velib","lat":48.870103359864,"lng":2.3043501377106,"label":"Pierre Charron - Champs-Elysées"},{"type":"velib","lat":48.870475399387,"lng":2.3076190799475,"label":"Colisée - Champs-Elysées"}],"dpe":{"energy_class":"D","ghg_class":"B"},"images":["https://images.unsplash.com/photo-1493809842364-78817add7ffb?w=1200&h=750&q=66&auto=format&fit=crop&crop=entropy","https://images.unsplash.com/photo-1567496898669-ee935f5f647a?w=1200&h=750&q=66&auto=format&fit=crop&crop=entropy","https://images.unsplash.com/photo-1493663284031-b7e3aefcae8e?w=1200&h=750&q=66&auto=format&fit=crop&crop=entropy","https://images.unsplash.com/photo-1522708323590-d24dbb6b0267?w=1200&h=750&q=66&auto=format&fit=crop&crop=entropy","https://images.unsplash.com/photo-1505691938895-1758d7feb511?w=1200&h=750&q=66&auto=format&fit=crop&crop=entropy"],"thumb":"https://images.unsplash.com/photo-1493809842364-78817add7ffb?w=480&h=300&q=55&auto=format&fit=crop&crop=entropy","score":{"opportunity_score":30,"value_score":61,"yield_score":0,"negotiation_score":1,"liquidity_score":66,"gentrification_score":61},"signals":{"price_drops":0,"total_drop_percent":0,"long_time_on_market":false,"explanations":["0.9% net rental yield (gross 2.2%)","4.2% below DVF average (17 979 €/m²)","3 days on market"]},"source":"dvf","url":"https://app.dvf.etalab.gouv.fr/"}