{"id":"dvf-2024-1209714","address":{"raw":"116 Rue Des Moines, 75017 Paris","normalized":"116 Rue des Moines 75017 Paris","lat":48.893144,"lng":2.32323,"district":"75017"},"characteristics":{"surface_m2":26,"rooms":2,"floor":2},"pricing":{"current_price":222000,"price_per_m2":8538,"initial_price":222000},"timeline":{"first_seen":"2026-06-29","last_seen":"2026-07-01","days_on_market":2},"price_history":[{"date":"2026-06-29","price":222000,"source":"dvf"}],"status":"active","dvf":{"avg_price_m2_100m":9077,"avg_price_m2_500m":9347,"comparable_sales":[{"price":255000,"date":"2024-06-21","distance_m":21},{"price":280000,"date":"2024-05-14","distance_m":22},{"price":170000,"date":"2024-07-18","distance_m":22},{"price":185000,"date":"2024-03-28","distance_m":27},{"price":421980,"date":"2024-07-18","distance_m":35},{"price":1042000,"date":"2024-02-19","distance_m":39},{"price":470000,"date":"2024-03-13","distance_m":39},{"price":272000,"date":"2024-01-15","distance_m":41}]},"risks":{"flood":0.04,"clay":0.29,"noise":0.26},"transport_score":89,"neighborhood":{"walk_score":91,"schools_500m":22,"income":35000,"velib_400m":5,"trees_150m":178,"amenities":{"food":16,"health":6,"green":3,"culture":4}},"rent":{"ref_m2":25.4,"max_m2":30.5,"min_m2":17.8,"quartier":"Epinettes","monthly_est":793},"investment":{"gross_yield":4.29,"net_yield":2.87,"ppm2_percentile":26,"negotiation_margin_pct":0.1,"dpe_risk_score":30,"value_add_flag":false},"pois":[{"type":"transport","lat":48.892206827747096,"lng":2.3272198679191285,"label":"Guy Môquet · METRO 13"},{"type":"transport","lat":48.89058718661181,"lng":2.320174757151551,"label":"Brochant · METRO 13"},{"type":"transport","lat":48.8963084706968,"lng":2.318804401344239,"label":"Honoré de Balzac · TRAM 3b"},{"type":"transport","lat":48.89754933179902,"lng":2.3249055851394216,"label":"Épinettes - Pouchet · TRAM 3b"},{"type":"transport","lat":48.89416838621195,"lng":2.315599220546768,"label":"Porte de Clichy · RER C"},{"type":"park","lat":48.89414039288563,"lng":2.324842530885015,"label":"SQUARE DE LA VILLA SAINTE-CROIX"},{"type":"park","lat":48.89436552203102,"lng":2.32655552643947,"label":"SQUARE DES EPINETTES"},{"type":"park","lat":48.89556193923182,"lng":2.3211291212767957,"label":"JARDIN PARTAGE DU JARDIN PAUL DIDIER"},{"type":"velib","lat":48.89213559044868,"lng":2.32321947813034,"label":"Guy Môquet - Compoint"},{"type":"velib","lat":48.89383909781389,"lng":2.325953990221024,"label":"Square des Epinettes"},{"type":"velib","lat":48.892777719023975,"lng":2.3270335793495183,"label":"Guy Môquet - Saint-Ouen"},{"type":"velib","lat":48.89587780769155,"lng":2.3226776719093327,"label":"Navier - Epinettes"}],"dpe":{"energy_class":"F","ghg_class":"C"},"images":["https://images.unsplash.com/photo-1554995207-c18c203602cb?w=1200&h=750&q=66&auto=format&fit=crop&crop=entropy","https://images.unsplash.com/photo-1502005097973-6a7082348e28?w=1200&h=750&q=66&auto=format&fit=crop&crop=entropy","https://images.unsplash.com/photo-1560448204-e02f11c3d0e2?w=1200&h=750&q=66&auto=format&fit=crop&crop=entropy","https://images.unsplash.com/photo-1493809842364-78817add7ffb?w=1200&h=750&q=66&auto=format&fit=crop&crop=entropy","https://images.unsplash.com/photo-1493663284031-b7e3aefcae8e?w=1200&h=750&q=66&auto=format&fit=crop&crop=entropy"],"thumb":"https://images.unsplash.com/photo-1554995207-c18c203602cb?w=480&h=300&q=55&auto=format&fit=crop&crop=entropy","score":{"opportunity_score":41,"value_score":74,"yield_score":75,"negotiation_score":0,"liquidity_score":83,"gentrification_score":55},"signals":{"price_drops":0,"total_drop_percent":0,"long_time_on_market":false,"explanations":["2.9% net rental yield (gross 4.3%)","7% below DVF average (9 185 €/m²)","Cheaper than 74% of the arrondissement","2 days on market","Energy class F — rental restrictions apply"]},"source":"dvf","url":"https://app.dvf.etalab.gouv.fr/"}