{"id":"dvf-2024-1209816","address":{"raw":"27 Rue Du Maroc, 75019 Paris","normalized":"27 Rue du Maroc 75019 Paris","lat":48.887009,"lng":2.367768,"district":"75019"},"characteristics":{"surface_m2":54,"rooms":2,"floor":3},"pricing":{"current_price":498760,"price_per_m2":9236,"initial_price":498760},"timeline":{"first_seen":"2026-06-29","last_seen":"2026-07-01","days_on_market":2},"price_history":[{"date":"2026-06-29","price":498760,"source":"dvf"}],"status":"active","dvf":{"avg_price_m2_100m":7166,"avg_price_m2_500m":8049,"comparable_sales":[{"price":165000,"date":"2024-04-05","distance_m":35},{"price":196500,"date":"2024-02-22","distance_m":48},{"price":284580,"date":"2024-01-16","distance_m":49},{"price":169500,"date":"2024-07-10","distance_m":87},{"price":180000,"date":"2024-01-23","distance_m":91},{"price":160000,"date":"2024-03-04","distance_m":91},{"price":117000,"date":"2024-01-30","distance_m":131},{"price":160000,"date":"2024-05-14","distance_m":131}]},"risks":{"flood":0.1,"clay":0.37,"noise":0.32},"transport_score":91,"neighborhood":{"walk_score":71,"schools_500m":16,"income":23000,"velib_400m":5,"trees_150m":30,"amenities":{"food":21,"health":1,"green":2,"culture":3}},"rent":{"ref_m2":23.4,"max_m2":28.1,"min_m2":16.4,"quartier":"Villette","monthly_est":1517},"investment":{"gross_yield":3.65,"net_yield":2.28,"ppm2_percentile":68,"negotiation_margin_pct":0.1,"dpe_risk_score":55,"value_add_flag":false},"pois":[{"type":"transport","lat":48.88479825198408,"lng":2.36958085557783,"label":"Stalingrad · METRO 7"},{"type":"transport","lat":48.88432566304799,"lng":2.3673720385654686,"label":"Stalingrad · METRO 5"},{"type":"transport","lat":48.88428415025653,"lng":2.365821546282089,"label":"Stalingrad · METRO 2"},{"type":"transport","lat":48.88796756174982,"lng":2.3734568878525493,"label":"Riquet · METRO 7"},{"type":"transport","lat":48.883193321300105,"lng":2.371933128614294,"label":"Jaurès · METRO 5"},{"type":"park","lat":48.88712038938879,"lng":2.368825897391898,"label":"JARDIN PARTAGE DE LA RUE DU MAROC"},{"type":"park","lat":48.887903373681056,"lng":2.3670682532651077,"label":"JARDIN PARTAGE DES JARDINS D'EOLE"},{"type":"park","lat":48.88759642912773,"lng":2.366209229832536,"label":"JARDIN D'EOLE"},{"type":"velib","lat":48.8869703,"lng":2.3668488,"label":"Jardins d'Eole"},{"type":"velib","lat":48.8862524447104,"lng":2.3689296841621403,"label":"Tanger - Place du Maroc"},{"type":"velib","lat":48.884492238408,"lng":2.3703941702843,"label":"Quai de la Seine"},{"type":"velib","lat":48.889333538455,"lng":2.3707854375243,"label":"Centquatre"}],"dpe":{"energy_class":"E","ghg_class":"E"},"images":["https://images.unsplash.com/photo-1554995207-c18c203602cb?w=1200&h=750&q=66&auto=format&fit=crop&crop=entropy","https://images.unsplash.com/photo-1493663284031-b7e3aefcae8e?w=1200&h=750&q=66&auto=format&fit=crop&crop=entropy","https://images.unsplash.com/photo-1493809842364-78817add7ffb?w=1200&h=750&q=66&auto=format&fit=crop&crop=entropy","https://images.unsplash.com/photo-1505691938895-1758d7feb511?w=1200&h=750&q=66&auto=format&fit=crop&crop=entropy","https://images.unsplash.com/photo-1484154218962-a197022b5858?w=1200&h=750&q=66&auto=format&fit=crop&crop=entropy"],"thumb":"https://images.unsplash.com/photo-1554995207-c18c203602cb?w=480&h=300&q=55&auto=format&fit=crop&crop=entropy","score":{"opportunity_score":29,"value_score":32,"yield_score":45,"negotiation_score":0,"liquidity_score":69,"gentrification_score":45},"signals":{"price_drops":0,"total_drop_percent":0,"long_time_on_market":false,"explanations":["2.3% net rental yield (gross 3.6%)","22.8% above DVF average","2 days on market"]},"source":"dvf","url":"https://app.dvf.etalab.gouv.fr/"}