{"id":"dvf-2024-1228723","address":{"raw":"22 Rue Linne, 75005 Paris","normalized":"22 Rue Linné 75005 Paris","lat":48.84545,"lng":2.354798,"district":"75005"},"characteristics":{"surface_m2":19,"rooms":1,"floor":2},"pricing":{"current_price":228000,"price_per_m2":12000,"initial_price":228000},"timeline":{"first_seen":"2026-06-29","last_seen":"2026-07-01","days_on_market":2},"price_history":[{"date":"2026-06-29","price":228000,"source":"dvf"}],"status":"active","dvf":{"avg_price_m2_100m":12719,"avg_price_m2_500m":12365,"comparable_sales":[{"price":825000,"date":"2024-01-12","distance_m":40},{"price":225000,"date":"2024-07-12","distance_m":40},{"price":160000,"date":"2024-12-05","distance_m":40},{"price":560000,"date":"2024-06-14","distance_m":54},{"price":667000,"date":"2024-09-26","distance_m":54},{"price":510000,"date":"2024-09-04","distance_m":62},{"price":1219000,"date":"2024-09-03","distance_m":62},{"price":950000,"date":"2024-10-24","distance_m":62}]},"risks":{"flood":0.19,"clay":0.05,"noise":0.8},"transport_score":92,"neighborhood":{"walk_score":86,"schools_500m":8,"income":37000,"velib_400m":7,"trees_150m":131,"amenities":{"food":16,"health":8,"green":0,"culture":5}},"rent":{"ref_m2":32.9,"max_m2":39.5,"min_m2":23,"quartier":"Saint-Victor","monthly_est":751},"investment":{"gross_yield":3.95,"net_yield":2.56,"ppm2_percentile":40,"negotiation_margin_pct":0.1,"dpe_risk_score":30,"value_add_flag":false},"pois":[{"type":"transport","lat":48.84595066575015,"lng":2.355050264434754,"label":"Jussieu · METRO 7"},{"type":"transport","lat":48.846151122181325,"lng":2.354917983707404,"label":"Jussieu · METRO 10"},{"type":"transport","lat":48.84665685124266,"lng":2.3516232550160123,"label":"Cardinal Lemoine · METRO 10"},{"type":"transport","lat":48.84286683068267,"lng":2.352224728183084,"label":"Place Monge · METRO 7"},{"type":"transport","lat":48.84023383632875,"lng":2.3516064753021904,"label":"Censier-Daubenton · METRO 7"},{"type":"park","lat":48.84510679091288,"lng":2.353232576400123,"label":"SQUARES DES ARENES DE LUTECE ET CAPITAN"},{"type":"park","lat":48.84228360839184,"lng":2.3540094346806604,"label":"SQUARE ROBERT MONTAGNE"},{"type":"park","lat":48.84337967529279,"lng":2.3504417234069135,"label":"SQUARE MARIUS CONSTANT"},{"type":"velib","lat":48.845665,"lng":2.355653,"label":"Jussieu - Guy de la Brosse"},{"type":"velib","lat":48.8437035476636,"lng":2.354651279747486,"label":"Lacépède - Linné"},{"type":"velib","lat":48.8462904,"lng":2.3521495,"label":"Boulangers - Cardinal Lemoine"},{"type":"velib","lat":48.847185510023,"lng":2.3534858599305,"label":"Jussieu - Fossés Saint-Bernard"}],"dpe":{"energy_class":"F","ghg_class":"E"},"images":["https://images.unsplash.com/photo-1502005097973-6a7082348e28?w=1200&h=750&q=66&auto=format&fit=crop&crop=entropy","https://images.unsplash.com/photo-1522708323590-d24dbb6b0267?w=1200&h=750&q=66&auto=format&fit=crop&crop=entropy","https://images.unsplash.com/photo-1493663284031-b7e3aefcae8e?w=1200&h=750&q=66&auto=format&fit=crop&crop=entropy","https://images.unsplash.com/photo-1540518614846-7eded433c457?w=1200&h=750&q=66&auto=format&fit=crop&crop=entropy","https://images.unsplash.com/photo-1484154218962-a197022b5858?w=1200&h=750&q=66&auto=format&fit=crop&crop=entropy"],"thumb":"https://images.unsplash.com/photo-1502005097973-6a7082348e28?w=480&h=300&q=55&auto=format&fit=crop&crop=entropy","score":{"opportunity_score":35,"value_score":61,"yield_score":59,"negotiation_score":0,"liquidity_score":89,"gentrification_score":50},"signals":{"price_drops":0,"total_drop_percent":0,"long_time_on_market":false,"explanations":["2.6% net rental yield (gross 4.0%)","4.6% below DVF average (12 577 €/m²)","2 days on market","Energy class F — rental restrictions apply"]},"source":"dvf","url":"https://app.dvf.etalab.gouv.fr/"}