{"id":"dvf-2024-1228896","address":{"raw":"2 Rue Cler, 75007 Paris","normalized":"2 Rue Cler 75007 Paris","lat":48.859046,"lng":2.305134,"district":"75007"},"characteristics":{"surface_m2":60,"rooms":3,"floor":0},"pricing":{"current_price":700000,"price_per_m2":11667,"initial_price":700000},"timeline":{"first_seen":"2026-06-29","last_seen":"2026-07-01","days_on_market":2},"price_history":[{"date":"2026-06-29","price":700000,"source":"dvf"}],"status":"active","dvf":{"avg_price_m2_100m":13347,"avg_price_m2_500m":14144,"comparable_sales":[{"price":1810900,"date":"2024-09-30","distance_m":20},{"price":280000,"date":"2024-06-03","distance_m":26},{"price":1175000,"date":"2024-06-06","distance_m":42},{"price":1409293,"date":"2024-05-21","distance_m":46},{"price":1866000,"date":"2024-06-20","distance_m":77},{"price":840000,"date":"2024-06-27","distance_m":94},{"price":598300,"date":"2024-02-21","distance_m":101},{"price":1464200,"date":"2024-11-29","distance_m":102}]},"risks":{"flood":0.37,"clay":0.36,"noise":0.32},"transport_score":65,"neighborhood":{"walk_score":68,"schools_500m":23,"income":47000,"velib_400m":3,"trees_150m":65,"amenities":{"food":19,"health":3,"green":0,"culture":3}},"rent":{"ref_m2":28,"max_m2":33.6,"min_m2":19.6,"quartier":"Gros-Caillou","monthly_est":2016},"investment":{"gross_yield":3.46,"net_yield":2.1,"ppm2_percentile":20,"negotiation_margin_pct":0.1,"dpe_risk_score":55,"value_add_flag":false},"pois":[{"type":"transport","lat":48.85772541289347,"lng":2.310565960946845,"label":"La Tour Maubourg · METRO 8"},{"type":"transport","lat":48.85489056687858,"lng":2.3064034857365168,"label":"École Militaire · METRO 8"},{"type":"transport","lat":48.86266245169435,"lng":2.300989969386769,"label":"Pont de l'Alma · RER C"},{"type":"transport","lat":48.86002845820203,"lng":2.3139151192031537,"label":"Invalides · METRO 13"},{"type":"transport","lat":48.862884804554966,"lng":2.31251355492596,"label":"Invalides · RER C"},{"type":"park","lat":48.85785906151368,"lng":2.310381319234973,"label":"JARDINET DE LA PLACE SALVADOR ALLENDE"},{"type":"park","lat":48.862698460381544,"lng":2.3054138989868385,"label":"ESPLANADE HABIB BOURGUIBA"},{"type":"park","lat":48.863111408605626,"lng":2.304656082944712,"label":"ARCHIPEL DES BERGES DE LA SEINE - NIKI DE SAINT-PHALLE"},{"type":"velib","lat":48.858651709526,"lng":2.3037165802346,"label":"Bosquet - Saint-Dominique"},{"type":"velib","lat":48.856691550115315,"lng":2.306646779179573,"label":"Champ de Mars - Cler"},{"type":"velib","lat":48.858102885107,"lng":2.3004072904587,"label":"Rapp - Place du Général Gouraud"}],"dpe":{"energy_class":"E","ghg_class":"E"},"images":["https://images.unsplash.com/photo-1522708323590-d24dbb6b0267?w=1200&h=750&q=66&auto=format&fit=crop&crop=entropy","https://images.unsplash.com/photo-1567496898669-ee935f5f647a?w=1200&h=750&q=66&auto=format&fit=crop&crop=entropy","https://images.unsplash.com/photo-1540518614846-7eded433c457?w=1200&h=750&q=66&auto=format&fit=crop&crop=entropy","https://images.unsplash.com/photo-1556912173-3bb406ef7e77?w=1200&h=750&q=66&auto=format&fit=crop&crop=entropy","https://images.unsplash.com/photo-1554995207-c18c203602cb?w=1200&h=750&q=66&auto=format&fit=crop&crop=entropy"],"thumb":"https://images.unsplash.com/photo-1522708323590-d24dbb6b0267?w=480&h=300&q=55&auto=format&fit=crop&crop=entropy","score":{"opportunity_score":42,"value_score":87,"yield_score":35,"negotiation_score":0,"liquidity_score":80,"gentrification_score":56},"signals":{"price_drops":0,"total_drop_percent":0,"long_time_on_market":false,"explanations":["2.1% net rental yield (gross 3.5%)","14.6% below DVF average (13 666 €/m²)","Cheaper than 80% of the arrondissement","2 days on market"]},"source":"dvf","url":"https://app.dvf.etalab.gouv.fr/"}