{"id":"dvf-2024-1208806","address":{"raw":"206 Rue De Rivoli, 75001 Paris","normalized":"206 Rue de Rivoli 75001 Paris","lat":48.864398,"lng":2.330545,"district":"75001"},"characteristics":{"surface_m2":124,"rooms":4,"floor":5},"pricing":{"current_price":1505660,"price_per_m2":12142,"initial_price":1505660},"timeline":{"first_seen":"2026-06-29","last_seen":"2026-07-02","days_on_market":3},"price_history":[{"date":"2026-06-29","price":1505660,"source":"dvf"}],"status":"active","dvf":{"avg_price_m2_100m":13611,"avg_price_m2_500m":15109,"comparable_sales":[{"price":372000,"date":"2024-03-26","distance_m":16},{"price":449600,"date":"2024-07-04","distance_m":16},{"price":2150000,"date":"2024-03-06","distance_m":75},{"price":990385,"date":"2024-06-04","distance_m":75},{"price":226180,"date":"2024-09-05","distance_m":75},{"price":900000,"date":"2024-06-28","distance_m":76},{"price":400000,"date":"2024-05-02","distance_m":83},{"price":150000,"date":"2024-09-05","distance_m":91}]},"risks":{"flood":0.33,"clay":0.22,"noise":0.71},"transport_score":100,"neighborhood":{"walk_score":35,"schools_500m":4,"income":36000,"velib_400m":7,"trees_150m":10,"amenities":{"food":1,"health":5,"green":2,"culture":0}},"rent":{"ref_m2":26.4,"max_m2":31.7,"min_m2":18.5,"quartier":"Place-Vendôme","monthly_est":3931},"investment":{"gross_yield":3.13,"net_yield":1.8,"ppm2_percentile":48,"negotiation_margin_pct":0.1,"dpe_risk_score":75,"value_add_flag":false},"pois":[{"type":"transport","lat":48.86434377873392,"lng":2.330129877112862,"label":"Tuileries · METRO 1"},{"type":"transport","lat":48.86590673959417,"lng":2.3341895419682497,"label":"Pyramides · METRO 14"},{"type":"transport","lat":48.86573786666654,"lng":2.3344377148655506,"label":"Pyramides · METRO 7"},{"type":"transport","lat":48.86234803084025,"lng":2.3364964609424774,"label":"Palais Royal - Musée du Louvre · METRO 1"},{"type":"transport","lat":48.86282967190577,"lng":2.3368784003341996,"label":"Palais Royal - Musée du Louvre · METRO 7"},{"type":"velib","lat":48.864773553495,"lng":2.3294493936128,"label":"Alger - Rivoli"},{"type":"velib","lat":48.86557114282421,"lng":2.330567417577153,"label":"Saint-Honoré - 29 juillet"},{"type":"velib","lat":48.86364636851945,"lng":2.33409583568573,"label":"Rivoli - Musée du Louvre"},{"type":"velib","lat":48.863443132848,"lng":2.3348781846405,"label":"Saint-Honoré - Musée du Louvre"}],"dpe":{"energy_class":"D","ghg_class":"D"},"images":["https://images.unsplash.com/photo-1567496898669-ee935f5f647a?w=1200&h=750&q=66&auto=format&fit=crop&crop=entropy","https://images.unsplash.com/photo-1493809842364-78817add7ffb?w=1200&h=750&q=66&auto=format&fit=crop&crop=entropy","https://images.unsplash.com/photo-1493663284031-b7e3aefcae8e?w=1200&h=750&q=66&auto=format&fit=crop&crop=entropy","https://images.unsplash.com/photo-1505691938895-1758d7feb511?w=1200&h=750&q=66&auto=format&fit=crop&crop=entropy","https://images.unsplash.com/photo-1502672260266-1c1ef2d93688?w=1200&h=750&q=66&auto=format&fit=crop&crop=entropy"],"thumb":"https://images.unsplash.com/photo-1567496898669-ee935f5f647a?w=480&h=300&q=55&auto=format&fit=crop&crop=entropy","score":{"opportunity_score":41,"value_score":86,"yield_score":20,"negotiation_score":1,"liquidity_score":70,"gentrification_score":45},"signals":{"price_drops":0,"total_drop_percent":0,"long_time_on_market":false,"explanations":["1.8% net rental yield (gross 3.1%)","14.6% below DVF average (14 210 €/m²)","3 days on market"]},"source":"dvf","url":"https://app.dvf.etalab.gouv.fr/"}