{"id":"dvf-2024-1210076","address":{"raw":"117 Rue D Aboukir, 75002 Paris","normalized":"117 Rue d'Aboukir 75002 Paris","lat":48.868714,"lng":2.349995,"district":"75002"},"characteristics":{"surface_m2":15,"rooms":1,"floor":2},"pricing":{"current_price":154000,"price_per_m2":10267,"initial_price":154000},"timeline":{"first_seen":"2026-06-29","last_seen":"2026-07-01","days_on_market":2},"price_history":[{"date":"2026-06-29","price":154000,"source":"dvf"}],"status":"active","dvf":{"avg_price_m2_100m":11498,"avg_price_m2_500m":11096,"comparable_sales":[{"price":727700,"date":"2024-02-27","distance_m":13},{"price":765000,"date":"2024-09-10","distance_m":13},{"price":227000,"date":"2024-06-07","distance_m":34},{"price":190000,"date":"2024-06-05","distance_m":45},{"price":190000,"date":"2024-06-05","distance_m":45},{"price":270000,"date":"2024-06-07","distance_m":52},{"price":270000,"date":"2024-06-14","distance_m":52},{"price":195000,"date":"2024-09-06","distance_m":56}]},"risks":{"flood":0.05,"clay":0.17,"noise":0.35},"transport_score":94,"neighborhood":{"walk_score":50,"schools_500m":9,"income":34000,"velib_400m":12,"trees_150m":105,"amenities":{"food":2,"health":4,"green":0,"culture":2}},"rent":{"ref_m2":32.9,"max_m2":39.5,"min_m2":23,"quartier":"Bonne-Nouvelle","monthly_est":593},"investment":{"gross_yield":4.62,"net_yield":3.18,"ppm2_percentile":34,"negotiation_margin_pct":0.1,"dpe_risk_score":88,"value_add_flag":false},"pois":[{"type":"transport","lat":48.870590478011124,"lng":2.3484911310789895,"label":"Bonne Nouvelle · METRO 8"},{"type":"transport","lat":48.870590478011124,"lng":2.3484911310789895,"label":"Bonne Nouvelle · METRO 9"},{"type":"transport","lat":48.8664963437902,"lng":2.3513589155329915,"label":"Réaumur Sébastopol · METRO 3"},{"type":"transport","lat":48.86751302499845,"lng":2.346552336353212,"label":"Sentier · METRO 3"},{"type":"transport","lat":48.86940219665552,"lng":2.3538187935928794,"label":"Strasbourg-Saint-Denis · METRO 9"},{"type":"park","lat":48.86984822793833,"lng":2.3501256247952056,"label":"JARDIN PARTAGE DU SQUARE JACQUES BIDAUT"},{"type":"park","lat":48.869867328723295,"lng":2.349960640148994,"label":"SQUARE JACQUES BIDAUT"},{"type":"park","lat":48.86673388844411,"lng":2.3498762921994794,"label":"JARDINET REAUMUR"},{"type":"velib","lat":48.86868344444473,"lng":2.3502043269474897,"label":"Aboukir - Alexandrie"},{"type":"velib","lat":48.86785342111862,"lng":2.349364310503006,"label":"Caire - Dussoubs"},{"type":"velib","lat":48.870047123655,"lng":2.3511248454452,"label":"Mazagran - Bonne Nouvelle"},{"type":"velib","lat":48.867141720746,"lng":2.3483933508396,"label":"Square Pierre Lazareff"}],"dpe":{"energy_class":"C","ghg_class":"B"},"images":["https://images.unsplash.com/photo-1540518614846-7eded433c457?w=1200&h=750&q=66&auto=format&fit=crop&crop=entropy","https://images.unsplash.com/photo-1522708323590-d24dbb6b0267?w=1200&h=750&q=66&auto=format&fit=crop&crop=entropy","https://images.unsplash.com/photo-1554995207-c18c203602cb?w=1200&h=750&q=66&auto=format&fit=crop&crop=entropy","https://images.unsplash.com/photo-1556912173-3bb406ef7e77?w=1200&h=750&q=66&auto=format&fit=crop&crop=entropy","https://images.unsplash.com/photo-1567496898669-ee935f5f647a?w=1200&h=750&q=66&auto=format&fit=crop&crop=entropy"],"thumb":"https://images.unsplash.com/photo-1540518614846-7eded433c457?w=480&h=300&q=55&auto=format&fit=crop&crop=entropy","score":{"opportunity_score":62,"value_score":74,"yield_score":89,"negotiation_score":0,"liquidity_score":81,"gentrification_score":47},"signals":{"price_drops":0,"total_drop_percent":0,"long_time_on_market":false,"explanations":["3.2% net rental yield (gross 4.6%)","9.4% below DVF average (11 337 €/m²)","Cheaper than 66% of the arrondissement","2 days on market"]},"source":"dvf","url":"https://app.dvf.etalab.gouv.fr/"}