{"id":"dvf-2024-1209086","address":{"raw":"21 Quai De Bourbon, 75004 Paris","normalized":"21 Quai de Bourbon 75004 Paris","lat":48.853032,"lng":2.355081,"district":"75004"},"characteristics":{"surface_m2":9,"rooms":1,"floor":1},"pricing":{"current_price":127000,"price_per_m2":14111,"initial_price":127000},"timeline":{"first_seen":"2026-06-29","last_seen":"2026-07-02","days_on_market":3},"price_history":[{"date":"2026-06-29","price":127000,"source":"dvf"}],"status":"active","dvf":{"avg_price_m2_100m":13912,"avg_price_m2_500m":14074,"comparable_sales":[{"price":400000,"date":"2024-10-08","distance_m":30},{"price":455000,"date":"2024-04-10","distance_m":39},{"price":327800,"date":"2024-11-25","distance_m":43},{"price":560000,"date":"2024-11-05","distance_m":55},{"price":465000,"date":"2024-03-28","distance_m":56},{"price":2956730,"date":"2024-09-25","distance_m":69},{"price":1051050,"date":"2024-10-15","distance_m":69},{"price":85000,"date":"2024-07-05","distance_m":78}]},"risks":{"flood":0.82,"clay":0.29,"noise":0.34},"transport_score":99,"neighborhood":{"walk_score":60,"schools_500m":6,"income":38000,"velib_400m":7,"trees_150m":79,"amenities":{"food":12,"health":1,"green":0,"culture":3}},"rent":{"ref_m2":34,"max_m2":40.8,"min_m2":23.8,"quartier":"Notre-Dame","monthly_est":367},"investment":{"gross_yield":3.47,"net_yield":2.11,"ppm2_percentile":76,"negotiation_margin_pct":0.1,"dpe_risk_score":75,"value_add_flag":false},"pois":[{"type":"transport","lat":48.85357547250359,"lng":2.357162571618337,"label":"Pont Marie · METRO 7"},{"type":"transport","lat":48.85523625280238,"lng":2.360956490023829,"label":"Saint-Paul · METRO 1"},{"type":"transport","lat":48.85162059096899,"lng":2.3615249655078383,"label":"Sully-Morland · METRO 7"},{"type":"transport","lat":48.857477982529346,"lng":2.3515775629949967,"label":"Hôtel de Ville · METRO 1"},{"type":"transport","lat":48.85745183174312,"lng":2.3510084614060265,"label":"Hôtel de Ville · METRO 11"},{"type":"park","lat":48.854530255258496,"lng":2.3530025625519264,"label":"PARC DES RIVES DE SEINE"},{"type":"park","lat":48.852028944577135,"lng":2.35221926355071,"label":"SQUARE DE L'ILE DE FRANCE"},{"type":"park","lat":48.853627577180006,"lng":2.358477947636266,"label":"JARDIN DE L'HOTEL DE SENS"},{"type":"velib","lat":48.853899645527,"lng":2.3569472506642,"label":"Hôtel de Ville - Pont-Marie"},{"type":"velib","lat":48.852915956209,"lng":2.3521957173944,"label":"Quai aux Fleurs - Pont Saint-Louis"},{"type":"velib","lat":48.85097433194,"lng":2.3563072085381,"label":"Quai de Béthune - Pont de la Tournelle"},{"type":"velib","lat":48.855949910497,"lng":2.3563823103905,"label":"Mairie du 4ème"}],"dpe":{"energy_class":"D","ghg_class":"D"},"images":["https://images.unsplash.com/photo-1502005097973-6a7082348e28?w=1200&h=750&q=66&auto=format&fit=crop&crop=entropy","https://images.unsplash.com/photo-1505691938895-1758d7feb511?w=1200&h=750&q=66&auto=format&fit=crop&crop=entropy","https://images.unsplash.com/photo-1493809842364-78817add7ffb?w=1200&h=750&q=66&auto=format&fit=crop&crop=entropy","https://images.unsplash.com/photo-1554995207-c18c203602cb?w=1200&h=750&q=66&auto=format&fit=crop&crop=entropy","https://images.unsplash.com/photo-1560448204-e02f11c3d0e2?w=1200&h=750&q=66&auto=format&fit=crop&crop=entropy"],"thumb":"https://images.unsplash.com/photo-1502005097973-6a7082348e28?w=480&h=300&q=55&auto=format&fit=crop&crop=entropy","score":{"opportunity_score":38,"value_score":48,"yield_score":36,"negotiation_score":1,"liquidity_score":88,"gentrification_score":45},"signals":{"price_drops":0,"total_drop_percent":0,"long_time_on_market":false,"explanations":["2.1% net rental yield (gross 3.5%)","1% above DVF average","3 days on market"]},"source":"dvf","url":"https://app.dvf.etalab.gouv.fr/"}