{"id":"dvf-2024-1207979","address":{"raw":"36 Rue Tiquetonne, 75002 Paris","normalized":"36 Rue Tiquetonne 75002 Paris","lat":48.864769,"lng":2.347932,"district":"75002"},"characteristics":{"surface_m2":10,"rooms":1,"floor":1},"pricing":{"current_price":118000,"price_per_m2":11800,"initial_price":118000},"timeline":{"first_seen":"2026-06-29","last_seen":"2026-07-02","days_on_market":3},"price_history":[{"date":"2026-06-29","price":118000,"source":"dvf"}],"status":"active","dvf":{"avg_price_m2_100m":11828,"avg_price_m2_500m":11958,"comparable_sales":[{"price":300000,"date":"2024-01-25","distance_m":17},{"price":323000,"date":"2024-08-29","distance_m":35},{"price":260000,"date":"2024-11-14","distance_m":35},{"price":440170,"date":"2024-03-20","distance_m":45},{"price":499400,"date":"2024-03-22","distance_m":45},{"price":297000,"date":"2024-07-19","distance_m":47},{"price":199500,"date":"2024-11-22","distance_m":48},{"price":380000,"date":"2024-05-30","distance_m":58}]},"risks":{"flood":0.18,"clay":0.14,"noise":0.24},"transport_score":100,"neighborhood":{"walk_score":67,"schools_500m":13,"income":34000,"velib_400m":14,"trees_150m":62,"amenities":{"food":13,"health":3,"green":2,"culture":0}},"rent":{"ref_m2":32.9,"max_m2":39.5,"min_m2":23,"quartier":"Bonne-Nouvelle","monthly_est":395},"investment":{"gross_yield":4.02,"net_yield":2.62,"ppm2_percentile":64,"negotiation_margin_pct":0.1,"dpe_risk_score":75,"value_add_flag":false},"pois":[{"type":"transport","lat":48.863972478817246,"lng":2.3496175641598405,"label":"Étienne Marcel · METRO 4"},{"type":"transport","lat":48.86251523497548,"lng":2.345785860039181,"label":"Les Halles · METRO 4"},{"type":"transport","lat":48.8664963437902,"lng":2.3513589155329915,"label":"Réaumur Sébastopol · METRO 3"},{"type":"transport","lat":48.86751302499845,"lng":2.346552336353212,"label":"Sentier · METRO 3"},{"type":"transport","lat":48.86182227279812,"lng":2.3470126872387564,"label":"Châtelet-Les Halles · RER B"},{"type":"park","lat":48.86638773075733,"lng":2.3466418776593287,"label":"JARDIN PARTAGE LE JARDIN DE BONNE"},{"type":"park","lat":48.867071896548595,"lng":2.348286168102479,"label":"JARDINET LAZAREFF"},{"type":"park","lat":48.86673388844411,"lng":2.3498762921994794,"label":"JARDINET REAUMUR"},{"type":"velib","lat":48.864053304653766,"lng":2.347587011754513,"label":"Française - Etienne Marcel"},{"type":"velib","lat":48.86450567259199,"lng":2.3461959511041637,"label":"Etienne Marcel - Montorgueil"},{"type":"velib","lat":48.86358858111446,"lng":2.3477794602513313,"label":"Turbigo - Française"},{"type":"velib","lat":48.86502194581,"lng":2.3450684401448,"label":"Montmartre - Etienne Marcel"}],"dpe":{"energy_class":"D","ghg_class":"B"},"images":["https://images.unsplash.com/photo-1502672260266-1c1ef2d93688?w=1200&h=750&q=66&auto=format&fit=crop&crop=entropy","https://images.unsplash.com/photo-1522708323590-d24dbb6b0267?w=1200&h=750&q=66&auto=format&fit=crop&crop=entropy","https://images.unsplash.com/photo-1493809842364-78817add7ffb?w=1200&h=750&q=66&auto=format&fit=crop&crop=entropy","https://images.unsplash.com/photo-1554995207-c18c203602cb?w=1200&h=750&q=66&auto=format&fit=crop&crop=entropy","https://images.unsplash.com/photo-1505691938895-1758d7feb511?w=1200&h=750&q=66&auto=format&fit=crop&crop=entropy"],"thumb":"https://images.unsplash.com/photo-1502672260266-1c1ef2d93688?w=480&h=300&q=55&auto=format&fit=crop&crop=entropy","score":{"opportunity_score":45,"value_score":52,"yield_score":62,"negotiation_score":1,"liquidity_score":85,"gentrification_score":47},"signals":{"price_drops":0,"total_drop_percent":0,"long_time_on_market":false,"explanations":["2.6% net rental yield (gross 4.0%)","3 days on market"]},"source":"dvf","url":"https://app.dvf.etalab.gouv.fr/"}