{"id":"dvf-2024-1228401","address":{"raw":"4 Rue Severo, 75014 Paris","normalized":"4 Rue Severo 75014 Paris","lat":48.832166,"lng":2.324473,"district":"75014"},"characteristics":{"surface_m2":50,"rooms":3,"floor":3},"pricing":{"current_price":474320,"price_per_m2":9486,"initial_price":474320},"timeline":{"first_seen":"2026-06-29","last_seen":"2026-07-02","days_on_market":3},"price_history":[{"date":"2026-06-29","price":474320,"source":"dvf"}],"status":"active","dvf":{"avg_price_m2_100m":9215,"avg_price_m2_500m":9937,"comparable_sales":[{"price":120000,"date":"2024-03-06","distance_m":38},{"price":480000,"date":"2024-08-30","distance_m":38},{"price":805000,"date":"2024-05-06","distance_m":43},{"price":237500,"date":"2024-03-20","distance_m":61},{"price":139000,"date":"2024-08-28","distance_m":80},{"price":380000,"date":"2024-06-05","distance_m":87},{"price":980000,"date":"2024-05-21","distance_m":91},{"price":285715,"date":"2024-09-02","distance_m":91}]},"risks":{"flood":0.01,"clay":0.46,"noise":0.37},"transport_score":74,"neighborhood":{"walk_score":84,"schools_500m":21,"income":32000,"velib_400m":5,"trees_150m":77,"amenities":{"food":25,"health":5,"green":1,"culture":6}},"rent":{"ref_m2":23.9,"max_m2":28.7,"min_m2":16.7,"quartier":"Plaisance","monthly_est":1435},"investment":{"gross_yield":3.63,"net_yield":2.26,"ppm2_percentile":42,"negotiation_margin_pct":0.1,"dpe_risk_score":75,"value_add_flag":false},"pois":[{"type":"transport","lat":48.83111266037533,"lng":2.3297050126201846,"label":"Mouton-Duvernet · METRO 4"},{"type":"transport","lat":48.82818847631351,"lng":2.3271646496078247,"label":"Alésia · METRO 4"},{"type":"transport","lat":48.83422588267789,"lng":2.318616414425384,"label":"Pernety · METRO 13"},{"type":"transport","lat":48.83345085821352,"lng":2.331740130985349,"label":"Denfert-Rochereau · METRO 4"},{"type":"transport","lat":48.83307317062929,"lng":2.333203670349575,"label":"Denfert-Rochereau · RER B"},{"type":"park","lat":48.83221009677969,"lng":2.325532419777658,"label":"JARDIN DE LA PLACE GILBERT PERROY"},{"type":"park","lat":48.83255495001078,"lng":2.325664668145917,"label":"JARDINET DE LA MAIRIE ANNEXE DU XIVEME"},{"type":"park","lat":48.83201275071481,"lng":2.3262660006365254,"label":"SQUARE DE L'ASPIRANT DUNAND"},{"type":"velib","lat":48.83254578123,"lng":2.3254923149943,"label":"Mairie du 14ème"},{"type":"velib","lat":48.83005755305626,"lng":2.3232302069664006,"label":"Plantes - Moulin Vert"},{"type":"velib","lat":48.8337,"lng":2.3215,"label":"Didot - Place de Moro-Giafferi"},{"type":"velib","lat":48.835064363954,"lng":2.323731449974,"label":"Maine - Liancourt"}],"dpe":{"energy_class":"D","ghg_class":"D"},"images":["https://images.unsplash.com/photo-1522708323590-d24dbb6b0267?w=1200&h=750&q=66&auto=format&fit=crop&crop=entropy","https://images.unsplash.com/photo-1556912173-3bb406ef7e77?w=1200&h=750&q=66&auto=format&fit=crop&crop=entropy","https://images.unsplash.com/photo-1560448204-e02f11c3d0e2?w=1200&h=750&q=66&auto=format&fit=crop&crop=entropy","https://images.unsplash.com/photo-1493663284031-b7e3aefcae8e?w=1200&h=750&q=66&auto=format&fit=crop&crop=entropy","https://images.unsplash.com/photo-1484154218962-a197022b5858?w=1200&h=750&q=66&auto=format&fit=crop&crop=entropy"],"thumb":"https://images.unsplash.com/photo-1522708323590-d24dbb6b0267?w=480&h=300&q=55&auto=format&fit=crop&crop=entropy","score":{"opportunity_score":41,"value_score":58,"yield_score":44,"negotiation_score":1,"liquidity_score":72,"gentrification_score":51},"signals":{"price_drops":0,"total_drop_percent":0,"long_time_on_market":false,"explanations":["2.3% net rental yield (gross 3.6%)","3 days on market"]},"source":"dvf","url":"https://app.dvf.etalab.gouv.fr/"}