{"id":"dvf-2024-1210011","address":{"raw":"7 A Cite Florentine, 75019 Paris","normalized":"7a Cité Florentine 75019 Paris","lat":48.878724,"lng":2.388893,"district":"75019"},"characteristics":{"surface_m2":38,"rooms":2,"floor":1},"pricing":{"current_price":290000,"price_per_m2":7632,"initial_price":290000},"timeline":{"first_seen":"2026-06-29","last_seen":"2026-07-01","days_on_market":2},"price_history":[{"date":"2026-06-29","price":290000,"source":"dvf"}],"status":"active","dvf":{"avg_price_m2_100m":8704,"avg_price_m2_500m":8590,"comparable_sales":[{"price":351000,"date":"2024-01-26","distance_m":22},{"price":160000,"date":"2024-07-30","distance_m":22},{"price":200000,"date":"2024-07-26","distance_m":22},{"price":451500,"date":"2024-11-29","distance_m":37},{"price":400000,"date":"2024-02-19","distance_m":44},{"price":192000,"date":"2024-03-12","distance_m":44},{"price":170000,"date":"2024-09-26","distance_m":44},{"price":354000,"date":"2024-11-22","distance_m":46}]},"risks":{"flood":0.07,"clay":0.07,"noise":0.34},"transport_score":100,"neighborhood":{"walk_score":64,"schools_500m":28,"income":23000,"velib_400m":4,"trees_150m":39,"amenities":{"food":7,"health":2,"green":2,"culture":7}},"rent":{"ref_m2":23.4,"max_m2":28.1,"min_m2":16.4,"quartier":"Amérique","monthly_est":1068},"investment":{"gross_yield":4.42,"net_yield":2.99,"ppm2_percentile":26,"negotiation_margin_pct":0.1,"dpe_risk_score":30,"value_add_flag":false},"pois":[{"type":"transport","lat":48.87949310793359,"lng":2.3885668704791967,"label":"Botzaris · METRO 7bis"},{"type":"transport","lat":48.87694984811022,"lng":2.3929839648173936,"label":"Place des Fêtes · METRO 7bis"},{"type":"transport","lat":48.8768063892129,"lng":2.3930560919606623,"label":"Place des Fêtes · METRO 11"},{"type":"transport","lat":48.87511181695599,"lng":2.389415032035528,"label":"Jourdain · METRO 11"},{"type":"transport","lat":48.88181610818685,"lng":2.394012398359364,"label":"Danube · METRO 7bis"},{"type":"park","lat":48.878005258907805,"lng":2.3925902311764125,"label":"JARDIN DE LA RUE COMPANS"},{"type":"park","lat":48.87857829439451,"lng":2.3935822389392714,"label":"SQUARE EUGENIE COTTON"},{"type":"park","lat":48.876988031913754,"lng":2.393269724638971,"label":"SQUARE MONSEIGNEUR MAILLET"},{"type":"velib","lat":48.87959698690176,"lng":2.3887913337477067,"label":"Botzaris - Crimée"},{"type":"velib","lat":48.877436681515796,"lng":2.3860743641853337,"label":"Carducci - Place Hannah Arendt"},{"type":"velib","lat":48.876644633122,"lng":2.3920327806309,"label":"Place des Fêtes - Solitaires"},{"type":"velib","lat":48.8755044846,"lng":2.3890327325519,"label":"Lassus - Delouvain"}],"dpe":{"energy_class":"F","ghg_class":"C"},"images":["https://images.unsplash.com/photo-1554995207-c18c203602cb?w=1200&h=750&q=66&auto=format&fit=crop&crop=entropy","https://images.unsplash.com/photo-1493663284031-b7e3aefcae8e?w=1200&h=750&q=66&auto=format&fit=crop&crop=entropy","https://images.unsplash.com/photo-1502672260266-1c1ef2d93688?w=1200&h=750&q=66&auto=format&fit=crop&crop=entropy","https://images.unsplash.com/photo-1493809842364-78817add7ffb?w=1200&h=750&q=66&auto=format&fit=crop&crop=entropy","https://images.unsplash.com/photo-1502005097973-6a7082348e28?w=1200&h=750&q=66&auto=format&fit=crop&crop=entropy"],"thumb":"https://images.unsplash.com/photo-1554995207-c18c203602cb?w=480&h=300&q=55&auto=format&fit=crop&crop=entropy","score":{"opportunity_score":41,"value_score":80,"yield_score":81,"negotiation_score":0,"liquidity_score":71,"gentrification_score":45},"signals":{"price_drops":0,"total_drop_percent":0,"long_time_on_market":false,"explanations":["3.0% net rental yield (gross 4.4%)","11.9% below DVF average (8 658 €/m²)","Cheaper than 74% of the arrondissement","2 days on market","Energy class F — rental restrictions apply"]},"source":"dvf","url":"https://app.dvf.etalab.gouv.fr/"}