{"id":"dvf-2024-1210356","address":{"raw":"13 Rue Du Sentier, 75002 Paris","normalized":"13 Rue du Sentier 75002 Paris","lat":48.868499,"lng":2.345521,"district":"75002"},"characteristics":{"surface_m2":116,"rooms":4,"floor":4},"pricing":{"current_price":1686520,"price_per_m2":14539,"initial_price":1686520},"timeline":{"first_seen":"2026-06-29","last_seen":"2026-07-01","days_on_market":2},"price_history":[{"date":"2026-06-29","price":1686520,"source":"dvf"}],"status":"active","dvf":{"avg_price_m2_100m":9641,"avg_price_m2_500m":11801,"comparable_sales":[{"price":198000,"date":"2024-05-02","distance_m":44},{"price":220000,"date":"2024-05-03","distance_m":45},{"price":448000,"date":"2024-09-06","distance_m":48},{"price":195000,"date":"2024-02-19","distance_m":59},{"price":107130,"date":"2024-02-22","distance_m":77},{"price":440000,"date":"2024-07-02","distance_m":100},{"price":195000,"date":"2024-10-22","distance_m":113},{"price":290000,"date":"2024-07-17","distance_m":118}]},"risks":{"flood":0.03,"clay":0.37,"noise":0.41},"transport_score":100,"neighborhood":{"walk_score":83,"schools_500m":10,"income":34000,"velib_400m":15,"trees_150m":81,"amenities":{"food":17,"health":3,"green":3,"culture":3}},"rent":{"ref_m2":26.4,"max_m2":31.7,"min_m2":18.5,"quartier":"Mail","monthly_est":3677},"investment":{"gross_yield":2.62,"net_yield":1.32,"ppm2_percentile":84,"negotiation_margin_pct":0.1,"dpe_risk_score":55,"value_add_flag":false},"pois":[{"type":"transport","lat":48.86751302499845,"lng":2.346552336353212,"label":"Sentier · METRO 3"},{"type":"transport","lat":48.86865415183625,"lng":2.3413760511435733,"label":"Bourse · METRO 3"},{"type":"transport","lat":48.87125654594185,"lng":2.34456106066273,"label":"Grands Boulevards · METRO 8"},{"type":"transport","lat":48.87125654594185,"lng":2.34456106066273,"label":"Grands Boulevards · METRO 9"},{"type":"transport","lat":48.870590478011124,"lng":2.3484911310789895,"label":"Bonne Nouvelle · METRO 8"},{"type":"park","lat":48.86638773075733,"lng":2.3466418776593287,"label":"JARDIN PARTAGE LE JARDIN DE BONNE"},{"type":"park","lat":48.867071896548595,"lng":2.348286168102479,"label":"JARDINET LAZAREFF"},{"type":"park","lat":48.869867328723295,"lng":2.349960640148994,"label":"SQUARE JACQUES BIDAUT"},{"type":"velib","lat":48.86791186523,"lng":2.3448715883461,"label":"Réaumur - Montmartre"},{"type":"velib","lat":48.868997,"lng":2.346925,"label":"Jeûneurs - Mulhouse"},{"type":"velib","lat":48.867458,"lng":2.3445211,"label":"Cléry - Montmartre"},{"type":"velib","lat":48.867141720746,"lng":2.3483933508396,"label":"Square Pierre Lazareff"}],"dpe":{"energy_class":"E","ghg_class":"E"},"images":["https://images.unsplash.com/photo-1505691938895-1758d7feb511?w=1200&h=750&q=66&auto=format&fit=crop&crop=entropy","https://images.unsplash.com/photo-1554995207-c18c203602cb?w=1200&h=750&q=66&auto=format&fit=crop&crop=entropy","https://images.unsplash.com/photo-1522708323590-d24dbb6b0267?w=1200&h=750&q=66&auto=format&fit=crop&crop=entropy","https://images.unsplash.com/photo-1493809842364-78817add7ffb?w=1200&h=750&q=66&auto=format&fit=crop&crop=entropy","https://images.unsplash.com/photo-1502672260266-1c1ef2d93688?w=1200&h=750&q=66&auto=format&fit=crop&crop=entropy"],"thumb":"https://images.unsplash.com/photo-1505691938895-1758d7feb511?w=480&h=300&q=55&auto=format&fit=crop&crop=entropy","score":{"opportunity_score":16,"value_score":16,"yield_score":2,"negotiation_score":0,"liquidity_score":73,"gentrification_score":47},"signals":{"price_drops":0,"total_drop_percent":0,"long_time_on_market":false,"explanations":["1.3% net rental yield (gross 2.6%)","38.4% above DVF average","2 days on market"]},"source":"dvf","url":"https://app.dvf.etalab.gouv.fr/"}