{"id":"dvf-2024-1228761","address":{"raw":"19 Rue Leroux, 75016 Paris","normalized":"19 Rue Leroux 75016 Paris","lat":48.871854,"lng":2.286197,"district":"75016"},"characteristics":{"surface_m2":61,"rooms":2,"floor":4},"pricing":{"current_price":625000,"price_per_m2":10246,"initial_price":625000},"timeline":{"first_seen":"2026-06-29","last_seen":"2026-07-02","days_on_market":3},"price_history":[{"date":"2026-06-29","price":625000,"source":"dvf"}],"status":"active","dvf":{"avg_price_m2_100m":15654,"avg_price_m2_500m":12567,"comparable_sales":[{"price":200000,"date":"2024-05-31","distance_m":39},{"price":4099100,"date":"2024-07-01","distance_m":39},{"price":635000,"date":"2024-07-15","distance_m":39},{"price":2100000,"date":"2024-10-01","distance_m":39},{"price":4500000,"date":"2024-06-24","distance_m":61},{"price":1250000,"date":"2024-07-23","distance_m":67},{"price":961000,"date":"2024-09-05","distance_m":67},{"price":2256000,"date":"2024-10-08","distance_m":67}]},"risks":{"flood":0.04,"clay":0.31,"noise":0.27},"transport_score":78,"neighborhood":{"walk_score":46,"schools_500m":8,"income":44000,"velib_400m":6,"trees_150m":65,"amenities":{"food":1,"health":6,"green":0,"culture":1}},"rent":{"ref_m2":26.9,"max_m2":32.3,"min_m2":18.8,"quartier":"Chaillot","monthly_est":1970},"investment":{"gross_yield":3.78,"net_yield":2.4,"ppm2_percentile":52,"negotiation_margin_pct":0.1,"dpe_risk_score":55,"value_add_flag":false},"pois":[{"type":"transport","lat":48.86979855646069,"lng":2.2853350946861695,"label":"Victor Hugo · METRO 2"},{"type":"transport","lat":48.87533684211653,"lng":2.2901275088247015,"label":"Argentine · METRO 1"},{"type":"transport","lat":48.87126214446096,"lng":2.2932406499473137,"label":"Kléber · METRO 6"},{"type":"transport","lat":48.86698310944948,"lng":2.290058833580487,"label":"Boissière · METRO 6"},{"type":"transport","lat":48.87456815028877,"lng":2.278256505242517,"label":"Anna de Noailles​ · TRAM 3b"},{"type":"park","lat":48.87263371266096,"lng":2.28412135527594,"label":"JARDIN DE L'AVENUE FOCH"},{"type":"velib","lat":48.87030612437,"lng":2.2850745414202,"label":"Raymond Poincaré - Place Victor Hugo"},{"type":"velib","lat":48.87137406080164,"lng":2.2887128591537476,"label":"Paul Valery - Victor Hugo"},{"type":"velib","lat":48.87080942867,"lng":2.2811490076919,"label":"Crevaux - Bugeaud"},{"type":"velib","lat":48.873568706869,"lng":2.2815125225299,"label":"Pergolèse - Marbeau"}],"dpe":{"energy_class":"E","ghg_class":"E"},"images":["https://images.unsplash.com/photo-1560448204-e02f11c3d0e2?w=1200&h=750&q=66&auto=format&fit=crop&crop=entropy","https://images.unsplash.com/photo-1502672260266-1c1ef2d93688?w=1200&h=750&q=66&auto=format&fit=crop&crop=entropy","https://images.unsplash.com/photo-1484154218962-a197022b5858?w=1200&h=750&q=66&auto=format&fit=crop&crop=entropy","https://images.unsplash.com/photo-1554995207-c18c203602cb?w=1200&h=750&q=66&auto=format&fit=crop&crop=entropy","https://images.unsplash.com/photo-1567496898669-ee935f5f647a?w=1200&h=750&q=66&auto=format&fit=crop&crop=entropy"],"thumb":"https://images.unsplash.com/photo-1560448204-e02f11c3d0e2?w=480&h=300&q=55&auto=format&fit=crop&crop=entropy","score":{"opportunity_score":48,"value_score":100,"yield_score":51,"negotiation_score":1,"liquidity_score":71,"gentrification_score":64},"signals":{"price_drops":0,"total_drop_percent":0,"long_time_on_market":false,"explanations":["2.4% net rental yield (gross 3.8%)","28.9% below DVF average (14 419 €/m²)","3 days on market"]},"source":"dvf","url":"https://app.dvf.etalab.gouv.fr/"}