{"id":"dvf-2024-1209703","address":{"raw":"17 Rue De Chateaudun, 75009 Paris","normalized":"17 Rue de Châteaudun 75009 Paris","lat":48.875835,"lng":2.339245,"district":"75009"},"characteristics":{"surface_m2":129,"rooms":4,"floor":2},"pricing":{"current_price":1468800,"price_per_m2":11386,"initial_price":1468800},"timeline":{"first_seen":"2026-06-29","last_seen":"2026-07-01","days_on_market":2},"price_history":[{"date":"2026-06-29","price":1468800,"source":"dvf"}],"status":"active","dvf":{"avg_price_m2_100m":9954,"avg_price_m2_500m":11266,"comparable_sales":[{"price":769669,"date":"2024-03-15","distance_m":41},{"price":685000,"date":"2024-10-23","distance_m":41},{"price":1295000,"date":"2024-03-20","distance_m":42},{"price":330000,"date":"2024-09-13","distance_m":78},{"price":214000,"date":"2024-07-02","distance_m":82},{"price":159000,"date":"2024-10-09","distance_m":92},{"price":721500,"date":"2024-07-23","distance_m":96},{"price":810000,"date":"2024-01-17","distance_m":100}]},"risks":{"flood":0.07,"clay":0.32,"noise":0.41},"transport_score":100,"neighborhood":{"walk_score":71,"schools_500m":12,"income":34000,"velib_400m":11,"trees_150m":123,"amenities":{"food":10,"health":6,"green":1,"culture":2}},"rent":{"ref_m2":21.2,"max_m2":25.4,"min_m2":14.8,"quartier":"Faubourg-Montmartre","monthly_est":3277},"investment":{"gross_yield":2.68,"net_yield":1.37,"ppm2_percentile":58,"negotiation_margin_pct":0.1,"dpe_risk_score":30,"value_add_flag":false},"pois":[{"type":"transport","lat":48.876047496005405,"lng":2.337495844533765,"label":"Notre-Dame-de-Lorette · METRO 12"},{"type":"transport","lat":48.87497174554318,"lng":2.34057598204372,"label":"Le Peletier · METRO 7"},{"type":"transport","lat":48.87817339105656,"lng":2.337857510381017,"label":"Saint-Georges · METRO 12"},{"type":"transport","lat":48.87600859381197,"lng":2.3445724820893283,"label":"Cadet · METRO 7"},{"type":"transport","lat":48.87219090864884,"lng":2.3388571594538052,"label":"Richelieu-Drouot · METRO 9"},{"type":"park","lat":48.87509941790825,"lng":2.3427472199573405,"label":"JARDIN CROMOT-DU BOURG"},{"type":"park","lat":48.878386938089356,"lng":2.3372525341755344,"label":"JARDIN DE LA BIBLIOTHEQUE THIERS (FONDATION DOSNE)"},{"type":"park","lat":48.878495609390626,"lng":2.3367433792051573,"label":"SQUARE ALEX BISCARRE"},{"type":"velib","lat":48.876613982891,"lng":2.3397656902671,"label":"Lamartine - Faubourg Montmartre"},{"type":"velib","lat":48.87514373494672,"lng":2.338118505144376,"label":"Victoire - Laffitte"},{"type":"velib","lat":48.875254549053,"lng":2.3408536612988,"label":"Faubourg Montmartre - La Fayette"},{"type":"velib","lat":48.877851443503,"lng":2.3396701365709,"label":"Choron - Martyrs"}],"dpe":{"energy_class":"F","ghg_class":"F"},"images":["https://images.unsplash.com/photo-1556912173-3bb406ef7e77?w=1200&h=750&q=66&auto=format&fit=crop&crop=entropy","https://images.unsplash.com/photo-1567496898669-ee935f5f647a?w=1200&h=750&q=66&auto=format&fit=crop&crop=entropy","https://images.unsplash.com/photo-1502005097973-6a7082348e28?w=1200&h=750&q=66&auto=format&fit=crop&crop=entropy","https://images.unsplash.com/photo-1554995207-c18c203602cb?w=1200&h=750&q=66&auto=format&fit=crop&crop=entropy","https://images.unsplash.com/photo-1505691938895-1758d7feb511?w=1200&h=750&q=66&auto=format&fit=crop&crop=entropy"],"thumb":"https://images.unsplash.com/photo-1556912173-3bb406ef7e77?w=480&h=300&q=55&auto=format&fit=crop&crop=entropy","score":{"opportunity_score":19,"value_score":42,"yield_score":3,"negotiation_score":0,"liquidity_score":69,"gentrification_score":48},"signals":{"price_drops":0,"total_drop_percent":0,"long_time_on_market":false,"explanations":["1.4% net rental yield (gross 2.7%)","8.7% above DVF average","2 days on market","Energy class F — rental restrictions apply"]},"source":"dvf","url":"https://app.dvf.etalab.gouv.fr/"}