{"id":"dvf-2024-1210436","address":{"raw":"31 Rue Charlot, 75003 Paris","normalized":"31 Rue Charlot 75003 Paris","lat":48.862396,"lng":2.361921,"district":"75003"},"characteristics":{"surface_m2":23,"rooms":2,"floor":3},"pricing":{"current_price":255000,"price_per_m2":11087,"initial_price":255000},"timeline":{"first_seen":"2026-06-29","last_seen":"2026-07-01","days_on_market":2},"price_history":[{"date":"2026-06-29","price":255000,"source":"dvf"}],"status":"active","dvf":{"avg_price_m2_100m":12395,"avg_price_m2_500m":12478,"comparable_sales":[{"price":375000,"date":"2024-09-10","distance_m":20},{"price":145000,"date":"2024-04-11","distance_m":21},{"price":628000,"date":"2024-09-30","distance_m":21},{"price":238500,"date":"2024-04-29","distance_m":29},{"price":150000,"date":"2024-12-02","distance_m":31},{"price":380000,"date":"2024-07-04","distance_m":32},{"price":400000,"date":"2024-05-24","distance_m":43},{"price":300000,"date":"2024-01-25","distance_m":50}]},"risks":{"flood":0.18,"clay":0.23,"noise":0.38},"transport_score":85,"neighborhood":{"walk_score":87,"schools_500m":22,"income":35000,"velib_400m":7,"trees_150m":102,"amenities":{"food":22,"health":6,"green":1,"culture":9}},"rent":{"ref_m2":29.2,"max_m2":35,"min_m2":20.4,"quartier":"Enfants-Rouges","monthly_est":805},"investment":{"gross_yield":3.79,"net_yield":2.41,"ppm2_percentile":36,"negotiation_margin_pct":0.1,"dpe_risk_score":75,"value_add_flag":false},"pois":[{"type":"transport","lat":48.8632579449589,"lng":2.3666610933534518,"label":"Filles du Calvaire · METRO 8"},{"type":"transport","lat":48.861168864595705,"lng":2.3672108677856154,"label":"Saint-Sébastien-Froissart · METRO 8"},{"type":"transport","lat":48.866514461743,"lng":2.3608035032752688,"label":"Temple · METRO 3"},{"type":"transport","lat":48.86532271167806,"lng":2.356729869173701,"label":"Arts et Métiers · METRO 11"},{"type":"transport","lat":48.86558647849898,"lng":2.356736756794993,"label":"Arts et Métiers · METRO 3"},{"type":"park","lat":48.862991808092225,"lng":2.361786917948169,"label":"JARDIN PARTAGE MADELEINE SCUDERY-LES OISEAUX"},{"type":"park","lat":48.86306513083119,"lng":2.3616418938473718,"label":"JARDINET MADELEINE DE SCUDERY"},{"type":"park","lat":48.86385775513695,"lng":2.361728173311372,"label":"JARDINETS DE LA MAIRIE DE PARIS CENTRE"},{"type":"velib","lat":48.8623615,"lng":2.3595041,"label":"Archives - Pastourelle"},{"type":"velib","lat":48.86210505412563,"lng":2.3649600148200993,"label":"Fille du Calvaire - Turenne"},{"type":"velib","lat":48.864461781391,"lng":2.3617628216743,"label":"Mairie du 3ème"},{"type":"velib","lat":48.8601346,"lng":2.3611206,"label":"Perle - Vieille du Temple"}],"dpe":{"energy_class":"D","ghg_class":"C"},"images":["https://images.unsplash.com/photo-1567496898669-ee935f5f647a?w=1200&h=750&q=66&auto=format&fit=crop&crop=entropy","https://images.unsplash.com/photo-1484154218962-a197022b5858?w=1200&h=750&q=66&auto=format&fit=crop&crop=entropy","https://images.unsplash.com/photo-1502672260266-1c1ef2d93688?w=1200&h=750&q=66&auto=format&fit=crop&crop=entropy","https://images.unsplash.com/photo-1493663284031-b7e3aefcae8e?w=1200&h=750&q=66&auto=format&fit=crop&crop=entropy","https://images.unsplash.com/photo-1502005097973-6a7082348e28?w=1200&h=750&q=66&auto=format&fit=crop&crop=entropy"],"thumb":"https://images.unsplash.com/photo-1567496898669-ee935f5f647a?w=480&h=300&q=55&auto=format&fit=crop&crop=entropy","score":{"opportunity_score":49,"value_score":77,"yield_score":51,"negotiation_score":0,"liquidity_score":87,"gentrification_score":46},"signals":{"price_drops":0,"total_drop_percent":0,"long_time_on_market":false,"explanations":["2.4% net rental yield (gross 3.8%)","10.8% below DVF average (12 428 €/m²)","2 days on market"]},"source":"dvf","url":"https://app.dvf.etalab.gouv.fr/"}