{"id":"dvf-2024-1210037","address":{"raw":"27 Rue St Louis En L Ile, 75004 Paris","normalized":"27 Rue Saint-Louis en l'Ile 75004 Paris","lat":48.851634,"lng":2.356965,"district":"75004"},"characteristics":{"surface_m2":90,"rooms":4,"floor":5},"pricing":{"current_price":1180000,"price_per_m2":13111,"initial_price":1180000},"timeline":{"first_seen":"2026-06-29","last_seen":"2026-07-02","days_on_market":3},"price_history":[{"date":"2026-06-29","price":1180000,"source":"dvf"}],"status":"active","dvf":{"avg_price_m2_100m":15674,"avg_price_m2_500m":14218,"comparable_sales":[{"price":940000,"date":"2024-03-28","distance_m":19},{"price":200000,"date":"2024-02-21","distance_m":23},{"price":1705000,"date":"2024-04-22","distance_m":23},{"price":436000,"date":"2024-07-11","distance_m":24},{"price":683050,"date":"2024-10-30","distance_m":31},{"price":191600,"date":"2024-01-19","distance_m":43},{"price":1151815,"date":"2024-08-07","distance_m":50},{"price":282500,"date":"2024-08-23","distance_m":53}]},"risks":{"flood":0.58,"clay":0.41,"noise":0.37},"transport_score":79,"neighborhood":{"walk_score":53,"schools_500m":11,"income":38000,"velib_400m":7,"trees_150m":82,"amenities":{"food":4,"health":1,"green":0,"culture":4}},"rent":{"ref_m2":26.4,"max_m2":31.7,"min_m2":18.5,"quartier":"Notre-Dame","monthly_est":2853},"investment":{"gross_yield":2.9,"net_yield":1.58,"ppm2_percentile":54,"negotiation_margin_pct":0.1,"dpe_risk_score":10,"value_add_flag":false},"pois":[{"type":"transport","lat":48.85357547250359,"lng":2.357162571618337,"label":"Pont Marie · METRO 7"},{"type":"transport","lat":48.85162059096899,"lng":2.3615249655078383,"label":"Sully-Morland · METRO 7"},{"type":"transport","lat":48.85523625280238,"lng":2.360956490023829,"label":"Saint-Paul · METRO 1"},{"type":"transport","lat":48.846151122181325,"lng":2.354917983707404,"label":"Jussieu · METRO 10"},{"type":"transport","lat":48.84595066575015,"lng":2.355050264434754,"label":"Jussieu · METRO 7"},{"type":"park","lat":48.85305872648483,"lng":2.3593821711031913,"label":"JARDIN MARIE TRINTIGNANT"},{"type":"park","lat":48.853627577180006,"lng":2.358477947636266,"label":"JARDIN DE L'HOTEL DE SENS"},{"type":"park","lat":48.853820867612896,"lng":2.3587132923207963,"label":"JARDIN DU PASSAGE DE L'HOTEL DE SENS"},{"type":"velib","lat":48.85097433194,"lng":2.3563072085381,"label":"Quai de Béthune - Pont de la Tournelle"},{"type":"velib","lat":48.853899645527,"lng":2.3569472506642,"label":"Hôtel de Ville - Pont-Marie"},{"type":"velib","lat":48.852639866625,"lng":2.3607301712036,"label":"Village Saint-Paul"},{"type":"velib","lat":48.849063299501,"lng":2.3558086529374,"label":"Institut du Monde Arabe - Saint-Germain"}],"dpe":{"energy_class":"G","ghg_class":"C"},"images":["https://images.unsplash.com/photo-1502005097973-6a7082348e28?w=1200&h=750&q=66&auto=format&fit=crop&crop=entropy","https://images.unsplash.com/photo-1540518614846-7eded433c457?w=1200&h=750&q=66&auto=format&fit=crop&crop=entropy","https://images.unsplash.com/photo-1484154218962-a197022b5858?w=1200&h=750&q=66&auto=format&fit=crop&crop=entropy","https://images.unsplash.com/photo-1522708323590-d24dbb6b0267?w=1200&h=750&q=66&auto=format&fit=crop&crop=entropy","https://images.unsplash.com/photo-1556912173-3bb406ef7e77?w=1200&h=750&q=66&auto=format&fit=crop&crop=entropy"],"thumb":"https://images.unsplash.com/photo-1502005097973-6a7082348e28?w=480&h=300&q=55&auto=format&fit=crop&crop=entropy","score":{"opportunity_score":24,"value_score":83,"yield_score":9,"negotiation_score":1,"liquidity_score":73,"gentrification_score":45},"signals":{"price_drops":0,"total_drop_percent":0,"long_time_on_market":false,"explanations":["1.6% net rental yield (gross 2.9%)","13.1% below DVF average (15 092 €/m²)","3 days on market","Energy class G — rental restrictions apply"]},"source":"dvf","url":"https://app.dvf.etalab.gouv.fr/"}