{"id":"dvf-2024-1228901","address":{"raw":"41 Rue Paul Fort, 75014 Paris","normalized":"41 Rue Paul Fort 75014 Paris","lat":48.824017,"lng":2.327845,"district":"75014"},"characteristics":{"surface_m2":12,"rooms":1,"floor":3},"pricing":{"current_price":115000,"price_per_m2":9583,"initial_price":115000},"timeline":{"first_seen":"2026-06-29","last_seen":"2026-07-01","days_on_market":2},"price_history":[{"date":"2026-06-29","price":115000,"source":"dvf"}],"status":"active","dvf":{"avg_price_m2_100m":8661,"avg_price_m2_500m":9365,"comparable_sales":[{"price":119000,"date":"2024-05-03","distance_m":4},{"price":753837,"date":"2024-07-25","distance_m":24},{"price":205000,"date":"2024-01-22","distance_m":34},{"price":190000,"date":"2024-07-05","distance_m":44},{"price":515640,"date":"2024-08-05","distance_m":44},{"price":585000,"date":"2024-09-09","distance_m":44},{"price":388950,"date":"2024-02-28","distance_m":50},{"price":285000,"date":"2024-09-24","distance_m":52}]},"risks":{"flood":0.03,"clay":0.24,"noise":0.33},"transport_score":90,"neighborhood":{"walk_score":69,"schools_500m":14,"income":32000,"velib_400m":4,"trees_150m":45,"amenities":{"food":18,"health":10,"green":0,"culture":0}},"rent":{"ref_m2":30.2,"max_m2":36.2,"min_m2":21.1,"quartier":"Petit-Montrouge","monthly_est":434},"investment":{"gross_yield":4.53,"net_yield":3.1,"ppm2_percentile":44,"negotiation_margin_pct":0.1,"dpe_risk_score":30,"value_add_flag":false},"pois":[{"type":"transport","lat":48.82341162898739,"lng":2.3255756362122453,"label":"Porte d'Orléans · METRO 4"},{"type":"transport","lat":48.823151633128084,"lng":2.325509577822384,"label":"Porte d'Orléans · TRAM 3a"},{"type":"transport","lat":48.82818847631351,"lng":2.3271646496078247,"label":"Alésia · METRO 4"},{"type":"transport","lat":48.82150891739616,"lng":2.333339832857645,"label":"Montsouris · TRAM 3a"},{"type":"transport","lat":48.82471101880376,"lng":2.318829692620226,"label":"Jean Moulin · TRAM 3a"},{"type":"park","lat":48.823793109225974,"lng":2.331247103085243,"label":"SQUARE MARIAMA BA"},{"type":"park","lat":48.82061933603214,"lng":2.327514050802643,"label":"COMPLEXE SPORTIF ELISABETH"},{"type":"park","lat":48.825222741048876,"lng":2.322933873675472,"label":"PROMENADE PC 14 - CORENTIN - AVENUE DU GENERAL LECLERC"},{"type":"velib","lat":48.825030852925,"lng":2.3264128693982,"label":"Sarrette - Général Leclerc"},{"type":"velib","lat":48.82234096593411,"lng":2.327861653302471,"label":"Le Brix et Mesmin - Jourdan"},{"type":"velib","lat":48.822032,"lng":2.329095,"label":"Jourdan - Monticelli"},{"type":"velib","lat":48.8227639,"lng":2.3249313,"label":"Porte d'Orléans"}],"dpe":{"energy_class":"F","ghg_class":"E"},"images":["https://images.unsplash.com/photo-1554995207-c18c203602cb?w=1200&h=750&q=66&auto=format&fit=crop&crop=entropy","https://images.unsplash.com/photo-1556912173-3bb406ef7e77?w=1200&h=750&q=66&auto=format&fit=crop&crop=entropy","https://images.unsplash.com/photo-1522708323590-d24dbb6b0267?w=1200&h=750&q=66&auto=format&fit=crop&crop=entropy","https://images.unsplash.com/photo-1493663284031-b7e3aefcae8e?w=1200&h=750&q=66&auto=format&fit=crop&crop=entropy","https://images.unsplash.com/photo-1502672260266-1c1ef2d93688?w=1200&h=750&q=66&auto=format&fit=crop&crop=entropy"],"thumb":"https://images.unsplash.com/photo-1554995207-c18c203602cb?w=480&h=300&q=55&auto=format&fit=crop&crop=entropy","score":{"opportunity_score":39,"value_score":56,"yield_score":86,"negotiation_score":0,"liquidity_score":78,"gentrification_score":51},"signals":{"price_drops":0,"total_drop_percent":0,"long_time_on_market":false,"explanations":["3.1% net rental yield (gross 4.5%)","7.2% above DVF average","2 days on market","Energy class F — rental restrictions apply"]},"source":"dvf","url":"https://app.dvf.etalab.gouv.fr/"}