{"id":"dvf-2024-1228489","address":{"raw":"36 Av Mozart, 75016 Paris","normalized":"36 Avenue Mozart 75016 Paris","lat":48.856103,"lng":2.270886,"district":"75016"},"characteristics":{"surface_m2":32,"rooms":1,"floor":2},"pricing":{"current_price":320000,"price_per_m2":10000,"initial_price":320000},"timeline":{"first_seen":"2026-06-29","last_seen":"2026-07-02","days_on_market":3},"price_history":[{"date":"2026-06-29","price":320000,"source":"dvf"}],"status":"active","dvf":{"avg_price_m2_100m":11824,"avg_price_m2_500m":11617,"comparable_sales":[{"price":417000,"date":"2024-01-18","distance_m":25},{"price":1275000,"date":"2024-04-30","distance_m":31},{"price":1100000,"date":"2024-08-28","distance_m":31},{"price":327000,"date":"2024-07-05","distance_m":56},{"price":1990000,"date":"2024-05-14","distance_m":77},{"price":447500,"date":"2024-06-03","distance_m":85},{"price":2371600,"date":"2024-12-10","distance_m":87},{"price":1120000,"date":"2024-03-21","distance_m":91}]},"risks":{"flood":0.03,"clay":0.31,"noise":0.47},"transport_score":92,"neighborhood":{"walk_score":36,"schools_500m":5,"income":44000,"velib_400m":3,"trees_150m":10,"amenities":{"food":7,"health":0,"green":0,"culture":2}},"rent":{"ref_m2":29.5,"max_m2":35.4,"min_m2":20.6,"quartier":"Muette","monthly_est":1133},"investment":{"gross_yield":4.25,"net_yield":2.84,"ppm2_percentile":40,"negotiation_margin_pct":0.1,"dpe_risk_score":75,"value_add_flag":false},"pois":[{"type":"transport","lat":48.855485050404425,"lng":2.2701091389418937,"label":"Ranelagh · METRO 9"},{"type":"transport","lat":48.85697199584854,"lng":2.2747933246088805,"label":"Boulainvilliers · RER C"},{"type":"transport","lat":48.85804605538448,"lng":2.274154629736559,"label":"La Muette · METRO 9"},{"type":"transport","lat":48.85250409151217,"lng":2.2681767494233314,"label":"Jasmin · METRO 9"},{"type":"transport","lat":48.85364805716894,"lng":2.2794870649625665,"label":"Avenue du Président Kennedy · RER C"},{"type":"park","lat":48.85302712415285,"lng":2.27053989881131,"label":"JARDIN CHRISTIANE DESROCHES NOBLECOURT"},{"type":"park","lat":48.859020369022886,"lng":2.2691880980560057,"label":"JARDIN DU RANELAGH"},{"type":"velib","lat":48.8554439,"lng":2.2704418,"label":"Ranelagh - Mozart"},{"type":"velib","lat":48.856399483950504,"lng":2.275240458548069,"label":"Vignes - Boulainvilliers"},{"type":"velib","lat":48.8583666,"lng":2.2744515,"label":"François Ponsard - La Muette"}],"dpe":{"energy_class":"D","ghg_class":"D"},"images":["https://images.unsplash.com/photo-1484154218962-a197022b5858?w=1200&h=750&q=66&auto=format&fit=crop&crop=entropy","https://images.unsplash.com/photo-1502672260266-1c1ef2d93688?w=1200&h=750&q=66&auto=format&fit=crop&crop=entropy","https://images.unsplash.com/photo-1540518614846-7eded433c457?w=1200&h=750&q=66&auto=format&fit=crop&crop=entropy","https://images.unsplash.com/photo-1556912173-3bb406ef7e77?w=1200&h=750&q=66&auto=format&fit=crop&crop=entropy","https://images.unsplash.com/photo-1567496898669-ee935f5f647a?w=1200&h=750&q=66&auto=format&fit=crop&crop=entropy"],"thumb":"https://images.unsplash.com/photo-1484154218962-a197022b5858?w=480&h=300&q=55&auto=format&fit=crop&crop=entropy","score":{"opportunity_score":58,"value_score":87,"yield_score":73,"negotiation_score":1,"liquidity_score":77,"gentrification_score":64},"signals":{"price_drops":0,"total_drop_percent":0,"long_time_on_market":false,"explanations":["2.8% net rental yield (gross 4.3%)","14.8% below DVF average (11 741 €/m²)","3 days on market"]},"source":"dvf","url":"https://app.dvf.etalab.gouv.fr/"}