{"id":"dvf-2024-1209897","address":{"raw":"9 Rue Belidor, 75017 Paris","normalized":"9 Rue Belidor 75017 Paris","lat":48.880189,"lng":2.285657,"district":"75017"},"characteristics":{"surface_m2":30,"rooms":2,"floor":1},"pricing":{"current_price":405000,"price_per_m2":13500,"initial_price":405000},"timeline":{"first_seen":"2026-06-29","last_seen":"2026-07-02","days_on_market":3},"price_history":[{"date":"2026-06-29","price":405000,"source":"dvf"}],"status":"active","dvf":{"avg_price_m2_100m":9582,"avg_price_m2_500m":10388,"comparable_sales":[{"price":100000,"date":"2024-09-27","distance_m":27},{"price":449350,"date":"2024-11-22","distance_m":27},{"price":207000,"date":"2024-01-18","distance_m":36},{"price":617500,"date":"2024-07-23","distance_m":85},{"price":590000,"date":"2024-12-05","distance_m":91},{"price":372870,"date":"2024-12-27","distance_m":91},{"price":716500,"date":"2024-03-11","distance_m":96},{"price":1440000,"date":"2024-08-12","distance_m":97}]},"risks":{"flood":0.02,"clay":0.35,"noise":0.23},"transport_score":100,"neighborhood":{"walk_score":81,"schools_500m":7,"income":35000,"velib_400m":6,"trees_150m":121,"amenities":{"food":15,"health":7,"green":1,"culture":3}},"rent":{"ref_m2":27.3,"max_m2":32.8,"min_m2":19.1,"quartier":"Ternes","monthly_est":984},"investment":{"gross_yield":2.92,"net_yield":1.6,"ppm2_percentile":92,"negotiation_margin_pct":0.1,"dpe_risk_score":10,"value_add_flag":false},"pois":[{"type":"transport","lat":48.88115461321984,"lng":2.2855056217327667,"label":"Anny Flore · TRAM 3b"},{"type":"transport","lat":48.87790843816008,"lng":2.284431219916768,"label":"Neuilly Porte Maillot · RER C"},{"type":"transport","lat":48.87793813782425,"lng":2.283913993903496,"label":"Porte Maillot · TRAM 3b"},{"type":"transport","lat":48.87793268655634,"lng":2.282976188020842,"label":"Porte Maillot · RER E"},{"type":"transport","lat":48.87755125180425,"lng":2.2831622422302296,"label":"Porte Maillot · METRO 1"},{"type":"park","lat":48.87937263695184,"lng":2.286883598526095,"label":"PROMENADE PEREIRE - TERNES / MAILLOT"},{"type":"park","lat":48.88192992427622,"lng":2.2839324474849687,"label":"JARDIN MARGUERITE LONG"},{"type":"park","lat":48.88054619418405,"lng":2.289053526389053,"label":"PROMENADE PEREIRE - GUERSANT / TERNES"},{"type":"velib","lat":48.88022154052015,"lng":2.2854680567979813,"label":"Belidor - Gouvion-Saint-Cyr"},{"type":"velib","lat":48.87973954830735,"lng":2.288012132048607,"label":"Pereire - Ternes"},{"type":"velib","lat":48.8816985773914,"lng":2.2836575657129288,"label":"Jardin Marguerite Long"},{"type":"velib","lat":48.878021154637,"lng":2.2842371277102,"label":"Porte Maillot - Perreire"}],"dpe":{"energy_class":"G","ghg_class":"C"},"images":["https://images.unsplash.com/photo-1493663284031-b7e3aefcae8e?w=1200&h=750&q=66&auto=format&fit=crop&crop=entropy","https://images.unsplash.com/photo-1502005097973-6a7082348e28?w=1200&h=750&q=66&auto=format&fit=crop&crop=entropy","https://images.unsplash.com/photo-1567496898669-ee935f5f647a?w=1200&h=750&q=66&auto=format&fit=crop&crop=entropy","https://images.unsplash.com/photo-1556912173-3bb406ef7e77?w=1200&h=750&q=66&auto=format&fit=crop&crop=entropy","https://images.unsplash.com/photo-1505691938895-1758d7feb511?w=1200&h=750&q=66&auto=format&fit=crop&crop=entropy"],"thumb":"https://images.unsplash.com/photo-1493663284031-b7e3aefcae8e?w=480&h=300&q=55&auto=format&fit=crop&crop=entropy","score":{"opportunity_score":13,"value_score":8,"yield_score":10,"negotiation_score":1,"liquidity_score":84,"gentrification_score":55},"signals":{"price_drops":0,"total_drop_percent":0,"long_time_on_market":false,"explanations":["1.6% net rental yield (gross 2.9%)","36.3% above DVF average","3 days on market","Energy class G — rental restrictions apply"]},"source":"dvf","url":"https://app.dvf.etalab.gouv.fr/"}