{"id":"dvf-2024-1229103","address":{"raw":"21 Rue Du Dragon, 75006 Paris","normalized":"21 Rue du Dragon 75006 Paris","lat":48.853017,"lng":2.330717,"district":"75006"},"characteristics":{"surface_m2":59,"rooms":3,"floor":2},"pricing":{"current_price":970000,"price_per_m2":16441,"initial_price":970000},"timeline":{"first_seen":"2026-06-29","last_seen":"2026-07-01","days_on_market":2},"price_history":[{"date":"2026-06-29","price":970000,"source":"dvf"}],"status":"active","dvf":{"avg_price_m2_100m":15578,"avg_price_m2_500m":17237,"comparable_sales":[{"price":980000,"date":"2024-04-30","distance_m":26},{"price":1457500,"date":"2024-11-27","distance_m":26},{"price":267950,"date":"2024-11-14","distance_m":27},{"price":660000,"date":"2024-07-24","distance_m":33},{"price":686150,"date":"2024-05-13","distance_m":35},{"price":717130,"date":"2024-06-14","distance_m":35},{"price":1255950,"date":"2024-10-18","distance_m":35},{"price":190000,"date":"2024-02-22","distance_m":38}]},"risks":{"flood":0.37,"clay":0.12,"noise":0.58},"transport_score":95,"neighborhood":{"walk_score":59,"schools_500m":9,"income":43000,"velib_400m":10,"trees_150m":10,"amenities":{"food":14,"health":1,"green":1,"culture":1}},"rent":{"ref_m2":28.3,"max_m2":34,"min_m2":19.8,"quartier":"Saint-Germain-des-Prés","monthly_est":2006},"investment":{"gross_yield":2.48,"net_yield":1.19,"ppm2_percentile":68,"negotiation_margin_pct":0.1,"dpe_risk_score":75,"value_add_flag":false},"pois":[{"type":"transport","lat":48.851071370372,"lng":2.3307007099542143,"label":"Saint-Sulpice · METRO 4"},{"type":"transport","lat":48.853718934000206,"lng":2.3337761382184676,"label":"Saint-Germain-des-Prés · METRO 4"},{"type":"transport","lat":48.85176205249548,"lng":2.326822568897497,"label":"Sèvres-Babylone · METRO 12"},{"type":"transport","lat":48.8530167679172,"lng":2.335502051727558,"label":"Mabillon · METRO 10"},{"type":"transport","lat":48.851031751239304,"lng":2.3261023128241907,"label":"Sèvres-Babylone · METRO 10"},{"type":"park","lat":48.854597182449275,"lng":2.330849197730943,"label":"SQUARE TARAS CHEVTCHENKO"},{"type":"park","lat":48.852767431563166,"lng":2.3280139556593817,"label":"SQUARE ROGER STEPHANE"},{"type":"park","lat":48.853872804912584,"lng":2.3336969565688905,"label":"JARDINET DU BOULEVARD SAINT-GERMAIN"},{"type":"velib","lat":48.852575112948415,"lng":2.331552766263485,"label":"Sabot - Rennes"},{"type":"velib","lat":48.853729675265,"lng":2.3300181032703,"label":"Saint Pères - Saint Germain"},{"type":"velib","lat":48.85165383178419,"lng":2.3308077827095985,"label":"Saint-Sulpice"},{"type":"velib","lat":48.853305277595,"lng":2.3344654618827,"label":"Saint-Germain - Ciseaux"}],"dpe":{"energy_class":"D","ghg_class":"D"},"images":["https://images.unsplash.com/photo-1505691938895-1758d7feb511?w=1200&h=750&q=66&auto=format&fit=crop&crop=entropy","https://images.unsplash.com/photo-1493809842364-78817add7ffb?w=1200&h=750&q=66&auto=format&fit=crop&crop=entropy","https://images.unsplash.com/photo-1522708323590-d24dbb6b0267?w=1200&h=750&q=66&auto=format&fit=crop&crop=entropy","https://images.unsplash.com/photo-1484154218962-a197022b5858?w=1200&h=750&q=66&auto=format&fit=crop&crop=entropy","https://images.unsplash.com/photo-1493663284031-b7e3aefcae8e?w=1200&h=750&q=66&auto=format&fit=crop&crop=entropy"],"thumb":"https://images.unsplash.com/photo-1505691938895-1758d7feb511?w=480&h=300&q=55&auto=format&fit=crop&crop=entropy","score":{"opportunity_score":28,"value_score":47,"yield_score":0,"negotiation_score":0,"liquidity_score":88,"gentrification_score":48},"signals":{"price_drops":0,"total_drop_percent":0,"long_time_on_market":false,"explanations":["1.2% net rental yield (gross 2.5%)","1.2% above DVF average","2 days on market"]},"source":"dvf","url":"https://app.dvf.etalab.gouv.fr/"}