{"id":"dvf-2024-1207788","address":{"raw":"4 Rue Sainte Opportune, 75001 Paris","normalized":"4 Rue Sainte-Opportune 75001 Paris","lat":48.860015,"lng":2.347356,"district":"75001"},"characteristics":{"surface_m2":59,"rooms":2,"floor":4},"pricing":{"current_price":612750,"price_per_m2":10386,"initial_price":612750},"timeline":{"first_seen":"2026-06-29","last_seen":"2026-07-01","days_on_market":2},"price_history":[{"date":"2026-06-29","price":612750,"source":"dvf"}],"status":"active","dvf":{"avg_price_m2_100m":11795,"avg_price_m2_500m":12038,"comparable_sales":[{"price":120000,"date":"2024-09-11","distance_m":11},{"price":780000,"date":"2024-12-05","distance_m":14},{"price":1096700,"date":"2024-07-16","distance_m":29},{"price":135000,"date":"2024-03-20","distance_m":31},{"price":230000,"date":"2024-01-17","distance_m":41},{"price":189900,"date":"2024-09-02","distance_m":41},{"price":230000,"date":"2024-09-19","distance_m":41},{"price":654500,"date":"2024-06-28","distance_m":45}]},"risks":{"flood":0.32,"clay":0.29,"noise":0.55},"transport_score":100,"neighborhood":{"walk_score":44,"schools_500m":6,"income":36000,"velib_400m":12,"trees_150m":39,"amenities":{"food":2,"health":0,"green":2,"culture":3}},"rent":{"ref_m2":26.7,"max_m2":32,"min_m2":18.7,"quartier":"Halles","monthly_est":1888},"investment":{"gross_yield":3.7,"net_yield":2.32,"ppm2_percentile":26,"negotiation_margin_pct":0.1,"dpe_risk_score":55,"value_add_flag":false},"pois":[{"type":"transport","lat":48.8597186619952,"lng":2.346768285736699,"label":"Châtelet · METRO 4"},{"type":"transport","lat":48.859589655582816,"lng":2.346478183587595,"label":"Châtelet · METRO 14"},{"type":"transport","lat":48.859287325170946,"lng":2.345803056189527,"label":"Châtelet · METRO 1"},{"type":"transport","lat":48.86182227279812,"lng":2.3470126872387564,"label":"Châtelet-Les Halles · RER B"},{"type":"transport","lat":48.86182227279812,"lng":2.3470126872387564,"label":"Châtelet-Les Halles · RER D"},{"type":"park","lat":48.85663881172585,"lng":2.3514968961142664,"label":"FORET URBAINE DE LA PLACE DE L HOTEL DE VILLE"},{"type":"park","lat":48.85992497594794,"lng":2.3406756331125718,"label":"SQUARE MICHEL CALDAGUES"},{"type":"velib","lat":48.859279702476,"lng":2.3466217517853,"label":"Lavandieres Sainte Opportune - Rivoli"},{"type":"velib","lat":48.859059340842,"lng":2.3476943001151,"label":"Saint-Denis - Rivoli"},{"type":"velib","lat":48.860448992575,"lng":2.3460162431002,"label":"Halles - Bourdonnais"},{"type":"velib","lat":48.860134890542,"lng":2.3500636965036,"label":"Place Edmond Michelet"}],"dpe":{"energy_class":"E","ghg_class":"C"},"images":["https://images.unsplash.com/photo-1540518614846-7eded433c457?w=1200&h=750&q=66&auto=format&fit=crop&crop=entropy","https://images.unsplash.com/photo-1493663284031-b7e3aefcae8e?w=1200&h=750&q=66&auto=format&fit=crop&crop=entropy","https://images.unsplash.com/photo-1502005097973-6a7082348e28?w=1200&h=750&q=66&auto=format&fit=crop&crop=entropy","https://images.unsplash.com/photo-1560448204-e02f11c3d0e2?w=1200&h=750&q=66&auto=format&fit=crop&crop=entropy","https://images.unsplash.com/photo-1505691938895-1758d7feb511?w=1200&h=750&q=66&auto=format&fit=crop&crop=entropy"],"thumb":"https://images.unsplash.com/photo-1540518614846-7eded433c457?w=480&h=300&q=55&auto=format&fit=crop&crop=entropy","score":{"opportunity_score":43,"value_score":82,"yield_score":47,"negotiation_score":0,"liquidity_score":81,"gentrification_score":45},"signals":{"price_drops":0,"total_drop_percent":0,"long_time_on_market":false,"explanations":["2.3% net rental yield (gross 3.7%)","12.7% below DVF average (11 892 €/m²)","Cheaper than 74% of the arrondissement","2 days on market"]},"source":"dvf","url":"https://app.dvf.etalab.gouv.fr/"}