{"id":"dvf-2024-1210202","address":{"raw":"223 Rue La Fayette, 75010 Paris","normalized":"223 Rue la Fayette 75010 Paris","lat":48.881642,"lng":2.365531,"district":"75010"},"characteristics":{"surface_m2":25,"rooms":1,"floor":1},"pricing":{"current_price":192800,"price_per_m2":7712,"initial_price":192800},"timeline":{"first_seen":"2026-06-29","last_seen":"2026-07-01","days_on_market":2},"price_history":[{"date":"2026-06-29","price":192800,"source":"dvf"}],"status":"active","dvf":{"avg_price_m2_100m":9433,"avg_price_m2_500m":9081,"comparable_sales":[{"price":240000,"date":"2024-04-27","distance_m":40},{"price":216000,"date":"2024-09-26","distance_m":40},{"price":192000,"date":"2024-12-05","distance_m":40},{"price":75000,"date":"2024-12-30","distance_m":40},{"price":308000,"date":"2024-10-15","distance_m":55},{"price":585000,"date":"2024-02-21","distance_m":72},{"price":205000,"date":"2024-02-29","distance_m":72},{"price":708975,"date":"2024-02-29","distance_m":72}]},"risks":{"flood":0.04,"clay":0.21,"noise":0.49},"transport_score":100,"neighborhood":{"walk_score":93,"schools_500m":7,"income":29000,"velib_400m":6,"trees_150m":71,"amenities":{"food":18,"health":10,"green":4,"culture":4}},"rent":{"ref_m2":31.1,"max_m2":37.3,"min_m2":21.8,"quartier":"Saint-Vincent-de-Paul","monthly_est":932},"investment":{"gross_yield":5.8,"net_yield":4.28,"ppm2_percentile":14,"negotiation_margin_pct":0.1,"dpe_risk_score":75,"value_add_flag":false},"pois":[{"type":"transport","lat":48.88094656356074,"lng":2.3649934724001813,"label":"Louis Blanc · METRO 7"},{"type":"transport","lat":48.881192119070995,"lng":2.364378741179748,"label":"Louis Blanc · METRO 7bis"},{"type":"transport","lat":48.88428415025653,"lng":2.365821546282089,"label":"Stalingrad · METRO 2"},{"type":"transport","lat":48.88432566304799,"lng":2.3673720385654686,"label":"Stalingrad · METRO 5"},{"type":"transport","lat":48.88162402899078,"lng":2.3702590567553905,"label":"Jaurès · METRO 2"},{"type":"park","lat":48.882794051804666,"lng":2.3623244893977158,"label":"JARDINET DE LA STATUE DU FAUNE"},{"type":"park","lat":48.88042258054138,"lng":2.3621892464466105,"label":"JARDINET DE LA STATUE DE LA MATERNITE"},{"type":"park","lat":48.88458503435804,"lng":2.365567525732703,"label":"JARDIN PARTAGE 238-240 BOULEVARD DE LA VILLETTE"},{"type":"velib","lat":48.882030182599,"lng":2.363561578095,"label":"Louis Blanc - Aqueduc"},{"type":"velib","lat":48.881269515794,"lng":2.3681860417128,"label":"Quai de Valmy"},{"type":"velib","lat":48.879359419425,"lng":2.3665961623192,"label":"Alexandre Parodi - Quai de Valmy"},{"type":"velib","lat":48.883886063895,"lng":2.367198803315,"label":"Aqueduc - Villette"}],"dpe":{"energy_class":"D","ghg_class":"C"},"images":["https://images.unsplash.com/photo-1540518614846-7eded433c457?w=1200&h=750&q=66&auto=format&fit=crop&crop=entropy","https://images.unsplash.com/photo-1554995207-c18c203602cb?w=1200&h=750&q=66&auto=format&fit=crop&crop=entropy","https://images.unsplash.com/photo-1493663284031-b7e3aefcae8e?w=1200&h=750&q=66&auto=format&fit=crop&crop=entropy","https://images.unsplash.com/photo-1505691938895-1758d7feb511?w=1200&h=750&q=66&auto=format&fit=crop&crop=entropy","https://images.unsplash.com/photo-1567496898669-ee935f5f647a?w=1200&h=750&q=66&auto=format&fit=crop&crop=entropy"],"thumb":"https://images.unsplash.com/photo-1540518614846-7eded433c457?w=480&h=300&q=55&auto=format&fit=crop&crop=entropy","score":{"opportunity_score":66,"value_score":93,"yield_score":100,"negotiation_score":0,"liquidity_score":84,"gentrification_score":46},"signals":{"price_drops":0,"total_drop_percent":0,"long_time_on_market":false,"explanations":["4.3% net rental yield (gross 5.8%)","17% below DVF average (9 292 €/m²)","Cheaper than 86% of the arrondissement","2 days on market"]},"source":"dvf","url":"https://app.dvf.etalab.gouv.fr/"}