{"id":"dvf-2024-1210173","address":{"raw":"32 Rue Pierre Semard, 75009 Paris","normalized":"32 Rue Pierre Sémard 75009 Paris","lat":48.878924,"lng":2.348351,"district":"75009"},"characteristics":{"surface_m2":50,"rooms":2,"floor":4},"pricing":{"current_price":395000,"price_per_m2":7900,"initial_price":395000},"timeline":{"first_seen":"2026-06-29","last_seen":"2026-07-02","days_on_market":3},"price_history":[{"date":"2026-06-29","price":395000,"source":"dvf"}],"status":"active","dvf":{"avg_price_m2_100m":10330,"avg_price_m2_500m":10590,"comparable_sales":[{"price":83000,"date":"2024-07-31","distance_m":31},{"price":850000,"date":"2024-12-13","distance_m":34},{"price":1020000,"date":"2024-11-12","distance_m":43},{"price":430000,"date":"2024-02-29","distance_m":46},{"price":893000,"date":"2024-04-02","distance_m":46},{"price":590000,"date":"2024-03-26","distance_m":49},{"price":547000,"date":"2024-04-26","distance_m":58},{"price":1423500,"date":"2024-01-24","distance_m":60}]},"risks":{"flood":0.04,"clay":0.56,"noise":0.4},"transport_score":96,"neighborhood":{"walk_score":83,"schools_500m":18,"income":34000,"velib_400m":14,"trees_150m":43,"amenities":{"food":25,"health":0,"green":4,"culture":5}},"rent":{"ref_m2":26.7,"max_m2":32,"min_m2":18.7,"quartier":"Rochechouart","monthly_est":1600},"investment":{"gross_yield":4.86,"net_yield":3.41,"ppm2_percentile":8,"negotiation_margin_pct":0.1,"dpe_risk_score":30,"value_add_flag":true},"pois":[{"type":"transport","lat":48.877100185798646,"lng":2.3487755574768467,"label":"Poissonnière · METRO 7"},{"type":"transport","lat":48.87600859381197,"lng":2.3445724820893283,"label":"Cadet · METRO 7"},{"type":"transport","lat":48.8834180885266,"lng":2.349674832582202,"label":"Barbès-Rochechouart · METRO 4"},{"type":"transport","lat":48.882972767827276,"lng":2.3446670737483,"label":"Anvers · METRO 2"},{"type":"transport","lat":48.87979369411629,"lng":2.355791907531139,"label":"Gare du Nord · METRO 4"},{"type":"park","lat":48.87771229681209,"lng":2.3460372839515125,"label":"JARDIN PARTAGE DU TEP VALEYRE"},{"type":"park","lat":48.87697151235832,"lng":2.3464886983445425,"label":"SQUARE MONTHOLON"},{"type":"park","lat":48.878960793257036,"lng":2.351921096782042,"label":"JARDINET SAINT VINCENT DE PAUL"},{"type":"velib","lat":48.879223,"lng":2.349147,"label":"Abbeville - Faubourg Poissonnière"},{"type":"velib","lat":48.87759897050706,"lng":2.348463758826256,"label":"Bellefond - Poissonnière"},{"type":"velib","lat":48.878255397645,"lng":2.3452642187476,"label":"Bellefond - Maubeuge"},{"type":"velib","lat":48.880883445404436,"lng":2.349934279918671,"label":"Faubourg Poissonnière - Dunkerque"}],"dpe":{"energy_class":"F","ghg_class":"C"},"images":["https://images.unsplash.com/photo-1554995207-c18c203602cb?w=1200&h=750&q=66&auto=format&fit=crop&crop=entropy","https://images.unsplash.com/photo-1484154218962-a197022b5858?w=1200&h=750&q=66&auto=format&fit=crop&crop=entropy","https://images.unsplash.com/photo-1493809842364-78817add7ffb?w=1200&h=750&q=66&auto=format&fit=crop&crop=entropy","https://images.unsplash.com/photo-1502005097973-6a7082348e28?w=1200&h=750&q=66&auto=format&fit=crop&crop=entropy","https://images.unsplash.com/photo-1493663284031-b7e3aefcae8e?w=1200&h=750&q=66&auto=format&fit=crop&crop=entropy"],"thumb":"https://images.unsplash.com/photo-1554995207-c18c203602cb?w=480&h=300&q=55&auto=format&fit=crop&crop=entropy","score":{"opportunity_score":76,"value_score":100,"yield_score":97,"negotiation_score":1,"liquidity_score":80,"gentrification_score":48},"signals":{"price_drops":0,"total_drop_percent":0,"long_time_on_market":false,"explanations":["3.4% net rental yield (gross 4.9%)","24.3% below DVF average (10 434 €/m²)","Cheaper than 92% of the arrondissement","3 days on market","Value-add: discount exceeds renovation cost (F/G arbitrage)"]},"source":"dvf","url":"https://app.dvf.etalab.gouv.fr/"}