{"id":"dvf-2024-1210044","address":{"raw":"76 Rue De Romainville, 75019 Paris","normalized":"76 Rue de Romainville 75019 Paris","lat":48.877154,"lng":2.403632,"district":"75019"},"characteristics":{"surface_m2":50,"rooms":2,"floor":3},"pricing":{"current_price":587500,"price_per_m2":11750,"initial_price":587500},"timeline":{"first_seen":"2026-06-29","last_seen":"2026-07-02","days_on_market":3},"price_history":[{"date":"2026-06-29","price":587500,"source":"dvf"}],"status":"active","dvf":{"avg_price_m2_100m":6536,"avg_price_m2_500m":7736,"comparable_sales":[{"price":605000,"date":"2024-09-04","distance_m":18},{"price":230000,"date":"2024-01-11","distance_m":52},{"price":178500,"date":"2024-03-29","distance_m":52},{"price":370000,"date":"2024-05-31","distance_m":52},{"price":170000,"date":"2024-12-30","distance_m":52},{"price":357000,"date":"2024-09-30","distance_m":77},{"price":182500,"date":"2024-04-17","distance_m":81},{"price":387650,"date":"2024-05-13","distance_m":83}]},"risks":{"flood":0.07,"clay":0.23,"noise":0.29},"transport_score":96,"neighborhood":{"walk_score":80,"schools_500m":11,"income":23000,"velib_400m":5,"trees_150m":146,"amenities":{"food":20,"health":4,"green":2,"culture":2}},"rent":{"ref_m2":23.4,"max_m2":28.1,"min_m2":16.4,"quartier":"Amérique","monthly_est":1405},"investment":{"gross_yield":2.87,"net_yield":1.55,"ppm2_percentile":94,"negotiation_margin_pct":0.1,"dpe_risk_score":88,"value_add_flag":false},"pois":[{"type":"transport","lat":48.87717481930548,"lng":2.406480156998486,"label":"Porte des Lilas · METRO 11"},{"type":"transport","lat":48.87711051176337,"lng":2.40672924554309,"label":"Porte des Lilas · METRO 3bis"},{"type":"transport","lat":48.87663081498978,"lng":2.406999582693831,"label":"Porte des Lilas · TRAM 3b"},{"type":"transport","lat":48.87945550325808,"lng":2.4012336448556546,"label":"Hôpital Robert Debré · TRAM 3b"},{"type":"transport","lat":48.87547445667917,"lng":2.398867596625601,"label":"Télégraphe · METRO 11"},{"type":"park","lat":48.87609641086384,"lng":2.402298340872334,"label":"JARDIN PARTAGE L'ILOT LILAS"},{"type":"park","lat":48.879015867288274,"lng":2.402291703126298,"label":"JARDIN DE NOTRE DAME DE FATIMA"},{"type":"park","lat":48.8761330984973,"lng":2.4066078015805856,"label":"SQUARE DU DOCTEUR VARIOT"},{"type":"velib","lat":48.87660391892763,"lng":2.404769691129476,"label":"Belleville - Porte des Lilas"},{"type":"velib","lat":48.875337902264,"lng":2.4059921130538,"label":"Gambetta - Tourelles"},{"type":"velib","lat":48.8756045,"lng":2.3995549,"label":"Belleville - Télégraphe"},{"type":"velib","lat":48.877321579493575,"lng":2.4083782732486725,"label":"Place du Maquis du Vercors"}],"dpe":{"energy_class":"C","ghg_class":"A"},"images":["https://images.unsplash.com/photo-1505691938895-1758d7feb511?w=1200&h=750&q=66&auto=format&fit=crop&crop=entropy","https://images.unsplash.com/photo-1522708323590-d24dbb6b0267?w=1200&h=750&q=66&auto=format&fit=crop&crop=entropy","https://images.unsplash.com/photo-1554995207-c18c203602cb?w=1200&h=750&q=66&auto=format&fit=crop&crop=entropy","https://images.unsplash.com/photo-1502672260266-1c1ef2d93688?w=1200&h=750&q=66&auto=format&fit=crop&crop=entropy","https://images.unsplash.com/photo-1484154218962-a197022b5858?w=1200&h=750&q=66&auto=format&fit=crop&crop=entropy"],"thumb":"https://images.unsplash.com/photo-1505691938895-1758d7feb511?w=480&h=300&q=55&auto=format&fit=crop&crop=entropy","score":{"opportunity_score":18,"value_score":6,"yield_score":7,"negotiation_score":1,"liquidity_score":72,"gentrification_score":45},"signals":{"price_drops":0,"total_drop_percent":0,"long_time_on_market":false,"explanations":["1.6% net rental yield (gross 2.9%)","67.5% above DVF average","3 days on market"]},"source":"dvf","url":"https://app.dvf.etalab.gouv.fr/"}