{"id":"dvf-2024-1209118","address":{"raw":"35 Rue Des Archives, 75004 Paris","normalized":"35 Rue des Archives 75004 Paris","lat":48.859641,"lng":2.356277,"district":"75004"},"characteristics":{"surface_m2":100,"rooms":4,"floor":4},"pricing":{"current_price":1038800,"price_per_m2":10388,"initial_price":1038800},"timeline":{"first_seen":"2026-06-29","last_seen":"2026-07-01","days_on_market":2},"price_history":[{"date":"2026-06-29","price":1038800,"source":"dvf"}],"status":"active","dvf":{"avg_price_m2_100m":12541,"avg_price_m2_500m":12834,"comparable_sales":[{"price":1150000,"date":"2024-09-26","distance_m":19},{"price":513000,"date":"2024-04-18","distance_m":43},{"price":700000,"date":"2024-10-08","distance_m":54},{"price":950950,"date":"2024-12-17","distance_m":54},{"price":210000,"date":"2024-11-22","distance_m":56},{"price":271425,"date":"2024-08-29","distance_m":61},{"price":297800,"date":"2024-10-24","distance_m":65},{"price":952000,"date":"2024-07-08","distance_m":66}]},"risks":{"flood":0.15,"clay":0.44,"noise":0.43},"transport_score":84,"neighborhood":{"walk_score":53,"schools_500m":8,"income":38000,"velib_400m":9,"trees_150m":112,"amenities":{"food":1,"health":1,"green":2,"culture":3}},"rent":{"ref_m2":26.4,"max_m2":31.7,"min_m2":18.5,"quartier":"Saint-Merri","monthly_est":3170},"investment":{"gross_yield":3.66,"net_yield":2.29,"ppm2_percentile":14,"negotiation_margin_pct":0.1,"dpe_risk_score":10,"value_add_flag":false},"pois":[{"type":"transport","lat":48.86120499033039,"lng":2.353495741491146,"label":"Rambuteau · METRO 11"},{"type":"transport","lat":48.857477982529346,"lng":2.3515775629949967,"label":"Hôtel de Ville · METRO 1"},{"type":"transport","lat":48.85745183174312,"lng":2.3510084614060265,"label":"Hôtel de Ville · METRO 11"},{"type":"transport","lat":48.85523625280238,"lng":2.360956490023829,"label":"Saint-Paul · METRO 1"},{"type":"transport","lat":48.86532271167806,"lng":2.356729869173701,"label":"Arts et Métiers · METRO 11"},{"type":"park","lat":48.858614978289566,"lng":2.356505654906898,"label":"JARDIN DU CLOS DES BLANCS MANTEAUX-FRANCESCA DANDOLO"},{"type":"park","lat":48.85847731167387,"lng":2.3564317547492526,"label":"JARDIN PARTAGE DU CLOS DES BLANCS MANTEAUX"},{"type":"park","lat":48.858722932004824,"lng":2.357995762534248,"label":"SQUARE CHARLES-VICTOR LANGLOIS"},{"type":"velib","lat":48.85941800703,"lng":2.3559471219778,"label":"Blancs-Manteaux - Archives"},{"type":"velib","lat":48.858256413365815,"lng":2.35821794718504,"label":"Vieille du Temple - Francs Bourgeois"},{"type":"velib","lat":48.861636880212,"lng":2.3566960206458,"label":"Temple - Haudriettes"},{"type":"velib","lat":48.857346707443,"lng":2.3539767041802,"label":"Archives - Rivoli"}],"dpe":{"energy_class":"G","ghg_class":"C"},"images":["https://images.unsplash.com/photo-1522708323590-d24dbb6b0267?w=1200&h=750&q=66&auto=format&fit=crop&crop=entropy","https://images.unsplash.com/photo-1556912173-3bb406ef7e77?w=1200&h=750&q=66&auto=format&fit=crop&crop=entropy","https://images.unsplash.com/photo-1502672260266-1c1ef2d93688?w=1200&h=750&q=66&auto=format&fit=crop&crop=entropy","https://images.unsplash.com/photo-1493809842364-78817add7ffb?w=1200&h=750&q=66&auto=format&fit=crop&crop=entropy","https://images.unsplash.com/photo-1484154218962-a197022b5858?w=1200&h=750&q=66&auto=format&fit=crop&crop=entropy"],"thumb":"https://images.unsplash.com/photo-1522708323590-d24dbb6b0267?w=480&h=300&q=55&auto=format&fit=crop&crop=entropy","score":{"opportunity_score":32,"value_score":95,"yield_score":45,"negotiation_score":0,"liquidity_score":74,"gentrification_score":45},"signals":{"price_drops":0,"total_drop_percent":0,"long_time_on_market":false,"explanations":["2.3% net rental yield (gross 3.7%)","17.9% below DVF average (12 658 €/m²)","Cheaper than 86% of the arrondissement","2 days on market","Energy class G — rental restrictions apply"]},"source":"dvf","url":"https://app.dvf.etalab.gouv.fr/"}