{"id":"dvf-2024-1209983","address":{"raw":"3 Rue Stephenson, 75018 Paris","normalized":"3 Rue Stephenson 75018 Paris","lat":48.88529,"lng":2.356663,"district":"75018"},"characteristics":{"surface_m2":46,"rooms":2,"floor":2},"pricing":{"current_price":295000,"price_per_m2":6413,"initial_price":295000},"timeline":{"first_seen":"2026-06-29","last_seen":"2026-07-01","days_on_market":2},"price_history":[{"date":"2026-06-29","price":295000,"source":"dvf"}],"status":"active","dvf":{"avg_price_m2_100m":8244,"avg_price_m2_500m":7868,"comparable_sales":[{"price":275000,"date":"2024-05-31","distance_m":11},{"price":190000,"date":"2024-10-28","distance_m":11},{"price":392000,"date":"2024-07-25","distance_m":49},{"price":115000,"date":"2024-03-21","distance_m":52},{"price":460000,"date":"2024-02-23","distance_m":68},{"price":395000,"date":"2024-12-31","distance_m":68},{"price":600000,"date":"2024-06-27","distance_m":91},{"price":405000,"date":"2024-10-23","distance_m":91}]},"risks":{"flood":0.04,"clay":0.38,"noise":0.36},"transport_score":90,"neighborhood":{"walk_score":87,"schools_500m":16,"income":26000,"velib_400m":8,"trees_150m":103,"amenities":{"food":37,"health":11,"green":1,"culture":4}},"rent":{"ref_m2":25.4,"max_m2":30.5,"min_m2":17.8,"quartier":"Goutte-d'Or","monthly_est":1403},"investment":{"gross_yield":5.71,"net_yield":4.19,"ppm2_percentile":10,"negotiation_margin_pct":0.1,"dpe_risk_score":75,"value_add_flag":false},"pois":[{"type":"transport","lat":48.8843996770653,"lng":2.360399500808732,"label":"La Chapelle · METRO 2"},{"type":"transport","lat":48.88175948915267,"lng":2.357570193470877,"label":"Gare du Nord · RER D"},{"type":"transport","lat":48.88175948915267,"lng":2.357570193470877,"label":"Gare du Nord · RER B"},{"type":"transport","lat":48.88380394240113,"lng":2.3506129993253224,"label":"Barbès-Rochechouart · METRO 2"},{"type":"transport","lat":48.88092200667149,"lng":2.356328543670162,"label":"Gare du Nord · TRAIN K"},{"type":"park","lat":48.885329532724285,"lng":2.356202700910435,"label":"SQUARE ALAIN BASHUNG"},{"type":"park","lat":48.885555742216695,"lng":2.3563270336252726,"label":"JARDIN PARTAGE DU SQUARE ALAIN BASHUNG"},{"type":"park","lat":48.8846833561673,"lng":2.358480974991441,"label":"JARDIN PARTAGE DU SQUARE DE JESSAINT"},{"type":"velib","lat":48.88611466796807,"lng":2.356855627529275,"label":"Jean-François Lépine - Stephenson"},{"type":"velib","lat":48.884178287286,"lng":2.3561057075858,"label":"Gare du Nord - La Chapelle"},{"type":"velib","lat":48.88484543106364,"lng":2.358930408954621,"label":"Jessaint - Marx Dormoy"},{"type":"velib","lat":48.8847601,"lng":2.3534657,"label":"Chartres - La Charbonnière"}],"dpe":{"energy_class":"D","ghg_class":"D"},"images":["https://images.unsplash.com/photo-1554995207-c18c203602cb?w=1200&h=750&q=66&auto=format&fit=crop&crop=entropy","https://images.unsplash.com/photo-1493809842364-78817add7ffb?w=1200&h=750&q=66&auto=format&fit=crop&crop=entropy","https://images.unsplash.com/photo-1560448204-e02f11c3d0e2?w=1200&h=750&q=66&auto=format&fit=crop&crop=entropy","https://images.unsplash.com/photo-1567496898669-ee935f5f647a?w=1200&h=750&q=66&auto=format&fit=crop&crop=entropy","https://images.unsplash.com/photo-1484154218962-a197022b5858?w=1200&h=750&q=66&auto=format&fit=crop&crop=entropy"],"thumb":"https://images.unsplash.com/photo-1554995207-c18c203602cb?w=480&h=300&q=55&auto=format&fit=crop&crop=entropy","score":{"opportunity_score":66,"value_score":100,"yield_score":100,"negotiation_score":0,"liquidity_score":74,"gentrification_score":44},"signals":{"price_drops":0,"total_drop_percent":0,"long_time_on_market":false,"explanations":["4.2% net rental yield (gross 5.7%)","20.8% below DVF average (8 094 €/m²)","Cheaper than 90% of the arrondissement","2 days on market"]},"source":"dvf","url":"https://app.dvf.etalab.gouv.fr/"}