{"id":"dvf-2024-1229101","address":{"raw":"3 Rue Vergniaud, 75013 Paris","normalized":"3 Rue Vergniaud 75013 Paris","lat":48.82984,"lng":2.345979,"district":"75013"},"characteristics":{"surface_m2":32,"rooms":1,"floor":1},"pricing":{"current_price":300000,"price_per_m2":9375,"initial_price":300000},"timeline":{"first_seen":"2026-06-29","last_seen":"2026-07-02","days_on_market":3},"price_history":[{"date":"2026-06-29","price":300000,"source":"dvf"}],"status":"active","dvf":{"avg_price_m2_100m":7357,"avg_price_m2_500m":9177,"comparable_sales":[{"price":670000,"date":"2024-11-06","distance_m":7},{"price":181225,"date":"2024-12-12","distance_m":7},{"price":673170,"date":"2024-03-26","distance_m":26},{"price":375000,"date":"2024-05-21","distance_m":26},{"price":215000,"date":"2024-04-24","distance_m":26},{"price":699000,"date":"2024-12-17","distance_m":26},{"price":432300,"date":"2024-07-02","distance_m":49},{"price":367308,"date":"2024-02-16","distance_m":110}]},"risks":{"flood":0.1,"clay":0.28,"noise":0.53},"transport_score":70,"neighborhood":{"walk_score":62,"schools_500m":13,"income":27000,"velib_400m":5,"trees_150m":99,"amenities":{"food":8,"health":5,"green":0,"culture":2}},"rent":{"ref_m2":31,"max_m2":37.2,"min_m2":21.7,"quartier":"Maison-Blanche","monthly_est":1190},"investment":{"gross_yield":4.76,"net_yield":3.31,"ppm2_percentile":62,"negotiation_margin_pct":0.1,"dpe_risk_score":75,"value_add_flag":false},"pois":[{"type":"transport","lat":48.831129548026645,"lng":2.3435116577497763,"label":"Glacière · METRO 6"},{"type":"transport","lat":48.82979051369297,"lng":2.350414872010464,"label":"Corvisart · METRO 6"},{"type":"transport","lat":48.830972672988366,"lng":2.3555802740779104,"label":"Place d'Italie · METRO 5"},{"type":"transport","lat":48.83143363013256,"lng":2.355643643033711,"label":"Place d'Italie · METRO 7"},{"type":"transport","lat":48.83290081566025,"lng":2.3371351933439004,"label":"Saint-Jacques · METRO 6"},{"type":"park","lat":48.829683591378334,"lng":2.344877662756879,"label":"MAIL DE BIEVRE"},{"type":"park","lat":48.82879881542339,"lng":2.3496154437940278,"label":"JARDIN BRASSAI"},{"type":"park","lat":48.83289566185049,"lng":2.3496332224900276,"label":"SQUARE RENE LE GALL"},{"type":"velib","lat":48.829522989420596,"lng":2.343570403754711,"label":"Glacière - Soeur Catherine Marie"},{"type":"velib","lat":48.830981659316855,"lng":2.3481646925210953,"label":"Croulebarde - Corvisart"},{"type":"velib","lat":48.831151602964,"lng":2.343822196126,"label":"Auguste Blanqui - Glacière"},{"type":"velib","lat":48.8300989,"lng":2.3502726,"label":"Auguste Blanqui - Corvisart"}],"dpe":{"energy_class":"D","ghg_class":"B"},"images":["https://images.unsplash.com/photo-1567496898669-ee935f5f647a?w=1200&h=750&q=66&auto=format&fit=crop&crop=entropy","https://images.unsplash.com/photo-1540518614846-7eded433c457?w=1200&h=750&q=66&auto=format&fit=crop&crop=entropy","https://images.unsplash.com/photo-1502672260266-1c1ef2d93688?w=1200&h=750&q=66&auto=format&fit=crop&crop=entropy","https://images.unsplash.com/photo-1484154218962-a197022b5858?w=1200&h=750&q=66&auto=format&fit=crop&crop=entropy","https://images.unsplash.com/photo-1560448204-e02f11c3d0e2?w=1200&h=750&q=66&auto=format&fit=crop&crop=entropy"],"thumb":"https://images.unsplash.com/photo-1567496898669-ee935f5f647a?w=480&h=300&q=55&auto=format&fit=crop&crop=entropy","score":{"opportunity_score":48,"value_score":38,"yield_score":93,"negotiation_score":1,"liquidity_score":70,"gentrification_score":48},"signals":{"price_drops":0,"total_drop_percent":0,"long_time_on_market":false,"explanations":["3.3% net rental yield (gross 4.8%)","16% above DVF average","3 days on market"]},"source":"dvf","url":"https://app.dvf.etalab.gouv.fr/"}