{"id":"dvf-2024-1229224","address":{"raw":"14 Bd Saint Germain, 75005 Paris","normalized":"14 Boulevard Saint-Germain 75005 Paris","lat":48.849588,"lng":2.354304,"district":"75005"},"characteristics":{"surface_m2":99,"rooms":4,"floor":3},"pricing":{"current_price":1315000,"price_per_m2":13283,"initial_price":1315000},"timeline":{"first_seen":"2026-06-29","last_seen":"2026-07-01","days_on_market":2},"price_history":[{"date":"2026-06-29","price":1315000,"source":"dvf"}],"status":"active","dvf":{"avg_price_m2_100m":12985,"avg_price_m2_500m":13540,"comparable_sales":[{"price":165000,"date":"2024-04-08","distance_m":42},{"price":647950,"date":"2024-01-24","distance_m":63},{"price":448500,"date":"2024-06-28","distance_m":65},{"price":175000,"date":"2024-12-09","distance_m":77},{"price":797912,"date":"2024-04-12","distance_m":80},{"price":288628,"date":"2024-04-12","distance_m":80},{"price":267800,"date":"2024-08-29","distance_m":80},{"price":545000,"date":"2024-06-14","distance_m":81}]},"risks":{"flood":0.34,"clay":0.41,"noise":0.47},"transport_score":84,"neighborhood":{"walk_score":76,"schools_500m":9,"income":37000,"velib_400m":7,"trees_150m":62,"amenities":{"food":28,"health":5,"green":0,"culture":4}},"rent":{"ref_m2":26.4,"max_m2":31.7,"min_m2":18.5,"quartier":"Saint-Victor","monthly_est":3138},"investment":{"gross_yield":2.86,"net_yield":1.55,"ppm2_percentile":66,"negotiation_margin_pct":0.1,"dpe_risk_score":55,"value_add_flag":false},"pois":[{"type":"transport","lat":48.84665685124266,"lng":2.3516232550160123,"label":"Cardinal Lemoine · METRO 10"},{"type":"transport","lat":48.846151122181325,"lng":2.354917983707404,"label":"Jussieu · METRO 10"},{"type":"transport","lat":48.84595066575015,"lng":2.355050264434754,"label":"Jussieu · METRO 7"},{"type":"transport","lat":48.85008987805251,"lng":2.3482087741854687,"label":"Maubert-Mutualité · METRO 10"},{"type":"transport","lat":48.85357547250359,"lng":2.357162571618337,"label":"Pont Marie · METRO 7"},{"type":"park","lat":48.849374465964786,"lng":2.3506941869796023,"label":"JARDINETS DE L'EGLISE SAINT-NICOLAS DU CHARDONNET"},{"type":"park","lat":48.852028944577135,"lng":2.35221926355071,"label":"SQUARE DE L'ILE DE FRANCE"},{"type":"park","lat":48.85059081440788,"lng":2.35002361758125,"label":"SQUARE DANIELLE MITTERAND"},{"type":"velib","lat":48.84969649427,"lng":2.3529685288668,"label":"Poissy - Saint-Germain"},{"type":"velib","lat":48.849063299501,"lng":2.3558086529374,"label":"Institut du Monde Arabe - Saint-Germain"},{"type":"velib","lat":48.850458009188,"lng":2.3524542754922,"label":"Pontoise - La Tournelle"},{"type":"velib","lat":48.85097433194,"lng":2.3563072085381,"label":"Quai de Béthune - Pont de la Tournelle"}],"dpe":{"energy_class":"E","ghg_class":"C"},"images":["https://images.unsplash.com/photo-1502005097973-6a7082348e28?w=1200&h=750&q=66&auto=format&fit=crop&crop=entropy","https://images.unsplash.com/photo-1522708323590-d24dbb6b0267?w=1200&h=750&q=66&auto=format&fit=crop&crop=entropy","https://images.unsplash.com/photo-1554995207-c18c203602cb?w=1200&h=750&q=66&auto=format&fit=crop&crop=entropy","https://images.unsplash.com/photo-1493663284031-b7e3aefcae8e?w=1200&h=750&q=66&auto=format&fit=crop&crop=entropy","https://images.unsplash.com/photo-1556912173-3bb406ef7e77?w=1200&h=750&q=66&auto=format&fit=crop&crop=entropy"],"thumb":"https://images.unsplash.com/photo-1502005097973-6a7082348e28?w=480&h=300&q=55&auto=format&fit=crop&crop=entropy","score":{"opportunity_score":26,"value_score":49,"yield_score":7,"negotiation_score":0,"liquidity_score":76,"gentrification_score":50},"signals":{"price_drops":0,"total_drop_percent":0,"long_time_on_market":false,"explanations":["1.6% net rental yield (gross 2.9%)","2 days on market"]},"source":"dvf","url":"https://app.dvf.etalab.gouv.fr/"}