{"id":"dvf-2024-1229123","address":{"raw":"37 Rue Henri Barbusse, 75005 Paris","normalized":"37 Rue Henri Barbusse 75005 Paris","lat":48.840426,"lng":2.338369,"district":"75005"},"characteristics":{"surface_m2":28,"rooms":2,"floor":1},"pricing":{"current_price":320000,"price_per_m2":11429,"initial_price":320000},"timeline":{"first_seen":"2026-06-29","last_seen":"2026-07-02","days_on_market":3},"price_history":[{"date":"2026-06-29","price":320000,"source":"dvf"}],"status":"active","dvf":{"avg_price_m2_100m":12256,"avg_price_m2_500m":12846,"comparable_sales":[{"price":1960000,"date":"2024-05-15","distance_m":21},{"price":1076800,"date":"2024-07-22","distance_m":43},{"price":1297200,"date":"2024-12-19","distance_m":63},{"price":228000,"date":"2024-06-25","distance_m":71},{"price":208548,"date":"2024-07-19","distance_m":71},{"price":2020000,"date":"2024-09-06","distance_m":74},{"price":958653,"date":"2024-03-15","distance_m":78},{"price":585700,"date":"2024-09-10","distance_m":78}]},"risks":{"flood":0,"clay":0.3,"noise":0.35},"transport_score":92,"neighborhood":{"walk_score":88,"schools_500m":18,"income":37000,"velib_400m":5,"trees_150m":61,"amenities":{"food":29,"health":4,"green":4,"culture":4}},"rent":{"ref_m2":29.2,"max_m2":35,"min_m2":20.4,"quartier":"Val-de-Grace","monthly_est":980},"investment":{"gross_yield":3.68,"net_yield":2.3,"ppm2_percentile":30,"negotiation_margin_pct":0.1,"dpe_risk_score":10,"value_add_flag":false},"pois":[{"type":"transport","lat":48.840033787418086,"lng":2.3370964308800906,"label":"Port Royal · RER B"},{"type":"transport","lat":48.84543415048044,"lng":2.339762849560476,"label":"Luxembourg · RER B"},{"type":"transport","lat":48.83896428071056,"lng":2.3307541920862156,"label":"Raspail · METRO 6"},{"type":"transport","lat":48.83896428071056,"lng":2.3307541920862156,"label":"Raspail · METRO 4"},{"type":"transport","lat":48.84221841361353,"lng":2.329008926235403,"label":"Vavin · METRO 4"},{"type":"park","lat":48.84169874561427,"lng":2.3368620719666335,"label":"JARDIN DES GRANDS EXPLORATEURS - MARCO POLO ET CAVELIER DE LA SALLE"},{"type":"park","lat":48.84339641021698,"lng":2.336974776000029,"label":"ESPLANADE GASTON MONNERVILLE"},{"type":"park","lat":48.839210617967055,"lng":2.342718613287843,"label":"JARDINS DU VAL DE GRACE"},{"type":"velib","lat":48.838608030238,"lng":2.3406994164846,"label":"Port Royal - Hôpital Cochin"},{"type":"velib","lat":48.8417514,"lng":2.3413893,"label":"Saint-Jacques - Val de Grâce"},{"type":"velib","lat":48.84342376221923,"lng":2.3376645147800446,"label":"Herschel - Observatoire"},{"type":"velib","lat":48.842741502832,"lng":2.3350211977959,"label":"Michelet - Assas"}],"dpe":{"energy_class":"G","ghg_class":"C"},"images":["https://images.unsplash.com/photo-1560448204-e02f11c3d0e2?w=1200&h=750&q=66&auto=format&fit=crop&crop=entropy","https://images.unsplash.com/photo-1540518614846-7eded433c457?w=1200&h=750&q=66&auto=format&fit=crop&crop=entropy","https://images.unsplash.com/photo-1502005097973-6a7082348e28?w=1200&h=750&q=66&auto=format&fit=crop&crop=entropy","https://images.unsplash.com/photo-1493809842364-78817add7ffb?w=1200&h=750&q=66&auto=format&fit=crop&crop=entropy","https://images.unsplash.com/photo-1502672260266-1c1ef2d93688?w=1200&h=750&q=66&auto=format&fit=crop&crop=entropy"],"thumb":"https://images.unsplash.com/photo-1560448204-e02f11c3d0e2?w=480&h=300&q=55&auto=format&fit=crop&crop=entropy","score":{"opportunity_score":29,"value_score":71,"yield_score":46,"negotiation_score":1,"liquidity_score":89,"gentrification_score":50},"signals":{"price_drops":0,"total_drop_percent":0,"long_time_on_market":false,"explanations":["2.3% net rental yield (gross 3.7%)","8.5% below DVF average (12 492 €/m²)","Cheaper than 70% of the arrondissement","3 days on market","Energy class G — rental restrictions apply"]},"source":"dvf","url":"https://app.dvf.etalab.gouv.fr/"}