{"id":"dvf-2024-1209672","address":{"raw":"20 Rue Des Maraichers, 75020 Paris","normalized":"20 Rue des Maraîchers 75020 Paris","lat":48.849279,"lng":2.407752,"district":"75020"},"characteristics":{"surface_m2":87,"rooms":4,"floor":5},"pricing":{"current_price":800000,"price_per_m2":9195,"initial_price":800000},"timeline":{"first_seen":"2026-06-29","last_seen":"2026-07-02","days_on_market":3},"price_history":[{"date":"2026-06-29","price":800000,"source":"dvf"}],"status":"active","dvf":{"avg_price_m2_100m":8765,"avg_price_m2_500m":8435,"comparable_sales":[{"price":215000,"date":"2024-01-30","distance_m":30},{"price":200000,"date":"2024-03-29","distance_m":30},{"price":855450,"date":"2024-05-13","distance_m":30},{"price":625000,"date":"2024-10-18","distance_m":30},{"price":256000,"date":"2024-08-27","distance_m":60},{"price":247000,"date":"2024-12-18","distance_m":90},{"price":1080000,"date":"2024-04-16","distance_m":93},{"price":520000,"date":"2024-04-25","distance_m":93}]},"risks":{"flood":0.06,"clay":0.05,"noise":0.31},"transport_score":95,"neighborhood":{"walk_score":72,"schools_500m":18,"income":25000,"velib_400m":6,"trees_150m":139,"amenities":{"food":23,"health":5,"green":0,"culture":1}},"rent":{"ref_m2":20.5,"max_m2":24.6,"min_m2":14.3,"quartier":"Charonne","monthly_est":2140},"investment":{"gross_yield":3.21,"net_yield":1.87,"ppm2_percentile":68,"negotiation_margin_pct":0.1,"dpe_risk_score":75,"value_add_flag":false},"pois":[{"type":"transport","lat":48.847335584614896,"lng":2.408089407236094,"label":"Porte de Vincennes · METRO 1"},{"type":"transport","lat":48.847393890496086,"lng":2.40965605640417,"label":"Porte de Vincennes · TRAM 3b"},{"type":"transport","lat":48.84694815185174,"lng":2.409551429787372,"label":"Porte de Vincennes · TRAM 3a"},{"type":"transport","lat":48.85272512017012,"lng":2.406089161868773,"label":"Maraîchers · METRO 9"},{"type":"transport","lat":48.85298727790375,"lng":2.4107411361264375,"label":"Porte de Montreuil · TRAM 3b"},{"type":"park","lat":48.85052208791011,"lng":2.40948131125961,"label":"PROMENADE PC20-BOIS DE CHARONNE"},{"type":"park","lat":48.85101736016151,"lng":2.4088144479712383,"label":"PROMENADE PC 20 - CROIX SAINT SIMON - COURS DE VINCENNES"},{"type":"park","lat":48.8484174957957,"lng":2.4045851747763245,"label":"SQUARE REJANE"},{"type":"velib","lat":48.85026702458,"lng":2.4062821269035,"label":"Pyrénées - Plaine"},{"type":"velib","lat":48.847796779935,"lng":2.4061721563339,"label":"Pyrénées - Cours de Vincennes"},{"type":"velib","lat":48.847238029966,"lng":2.4107042336225,"label":"Cours de Vincennes - Davout"},{"type":"velib","lat":48.846918761569,"lng":2.4105220288038,"label":"Cours de Vincennes - Soult"}],"dpe":{"energy_class":"D","ghg_class":"D"},"images":["https://images.unsplash.com/photo-1522708323590-d24dbb6b0267?w=1200&h=750&q=66&auto=format&fit=crop&crop=entropy","https://images.unsplash.com/photo-1502672260266-1c1ef2d93688?w=1200&h=750&q=66&auto=format&fit=crop&crop=entropy","https://images.unsplash.com/photo-1493663284031-b7e3aefcae8e?w=1200&h=750&q=66&auto=format&fit=crop&crop=entropy","https://images.unsplash.com/photo-1484154218962-a197022b5858?w=1200&h=750&q=66&auto=format&fit=crop&crop=entropy","https://images.unsplash.com/photo-1554995207-c18c203602cb?w=1200&h=750&q=66&auto=format&fit=crop&crop=entropy"],"thumb":"https://images.unsplash.com/photo-1522708323590-d24dbb6b0267?w=480&h=300&q=55&auto=format&fit=crop&crop=entropy","score":{"opportunity_score":28,"value_score":34,"yield_score":24,"negotiation_score":1,"liquidity_score":66,"gentrification_score":45},"signals":{"price_drops":0,"total_drop_percent":0,"long_time_on_market":false,"explanations":["1.9% net rental yield (gross 3.2%)","6.5% above DVF average","3 days on market"]},"source":"dvf","url":"https://app.dvf.etalab.gouv.fr/"}