{"id":"dvf-2024-1227736","address":{"raw":"9 Rue Saint Sulpice, 75006 Paris","normalized":"9 Rue Saint-Sulpice 75006 Paris","lat":48.851465,"lng":2.33772,"district":"75006"},"characteristics":{"surface_m2":25,"rooms":2,"floor":4},"pricing":{"current_price":370000,"price_per_m2":14800,"initial_price":370000},"timeline":{"first_seen":"2026-06-29","last_seen":"2026-07-02","days_on_market":3},"price_history":[{"date":"2026-06-29","price":370000,"source":"dvf"}],"status":"active","dvf":{"avg_price_m2_100m":17993,"avg_price_m2_500m":16495,"comparable_sales":[{"price":194000,"date":"2024-07-02","distance_m":19},{"price":1188350,"date":"2024-05-03","distance_m":27},{"price":517509,"date":"2024-10-17","distance_m":27},{"price":513040,"date":"2024-10-28","distance_m":27},{"price":710000,"date":"2024-01-26","distance_m":30},{"price":655000,"date":"2024-11-25","distance_m":30},{"price":362548,"date":"2024-12-26","distance_m":34},{"price":361905,"date":"2024-10-07","distance_m":41}]},"risks":{"flood":0.15,"clay":0.36,"noise":0.7},"transport_score":98,"neighborhood":{"walk_score":81,"schools_500m":8,"income":43000,"velib_400m":9,"trees_150m":141,"amenities":{"food":13,"health":6,"green":1,"culture":4}},"rent":{"ref_m2":29.7,"max_m2":35.6,"min_m2":20.8,"quartier":"Odeon","monthly_est":890},"investment":{"gross_yield":2.89,"net_yield":1.57,"ppm2_percentile":50,"negotiation_margin_pct":0.1,"dpe_risk_score":55,"value_add_flag":false},"pois":[{"type":"transport","lat":48.852300763094235,"lng":2.3397277815930964,"label":"Odéon · METRO 4"},{"type":"transport","lat":48.85193594203498,"lng":2.340613006406504,"label":"Odéon · METRO 10"},{"type":"transport","lat":48.8530167679172,"lng":2.335502051727558,"label":"Mabillon · METRO 10"},{"type":"transport","lat":48.853718934000206,"lng":2.3337761382184676,"label":"Saint-Germain-des-Prés · METRO 4"},{"type":"transport","lat":48.85316798489062,"lng":2.343285978923924,"label":"Saint-Michel · METRO 4"},{"type":"park","lat":48.85142545112204,"lng":2.338156317651731,"label":"JARDINET DU 6 RUE CONDE"},{"type":"park","lat":48.849520121107176,"lng":2.3376796364935615,"label":"SQUARE FRANCIS POULENC"},{"type":"park","lat":48.85371512804107,"lng":2.334597522096189,"label":"SQUARE FELIX DESRUELLES"},{"type":"velib","lat":48.851751374458864,"lng":2.338161695134053,"label":"Quatre Vents - Carrefour de l'Odéon"},{"type":"velib","lat":48.85165625855281,"lng":2.335500307381153,"label":"Marché Saint-Germain"},{"type":"velib","lat":48.84954227788459,"lng":2.337939441204071,"label":"Sénat - Condé"},{"type":"velib","lat":48.85375581057431,"lng":2.3390958085656166,"label":"André Mazet - Saint-André des Arts"}],"dpe":{"energy_class":"E","ghg_class":"B"},"images":["https://images.unsplash.com/photo-1567496898669-ee935f5f647a?w=1200&h=750&q=66&auto=format&fit=crop&crop=entropy","https://images.unsplash.com/photo-1540518614846-7eded433c457?w=1200&h=750&q=66&auto=format&fit=crop&crop=entropy","https://images.unsplash.com/photo-1502005097973-6a7082348e28?w=1200&h=750&q=66&auto=format&fit=crop&crop=entropy","https://images.unsplash.com/photo-1522708323590-d24dbb6b0267?w=1200&h=750&q=66&auto=format&fit=crop&crop=entropy","https://images.unsplash.com/photo-1556912173-3bb406ef7e77?w=1200&h=750&q=66&auto=format&fit=crop&crop=entropy"],"thumb":"https://images.unsplash.com/photo-1567496898669-ee935f5f647a?w=480&h=300&q=55&auto=format&fit=crop&crop=entropy","score":{"opportunity_score":37,"value_score":87,"yield_score":8,"negotiation_score":1,"liquidity_score":96,"gentrification_score":48},"signals":{"price_drops":0,"total_drop_percent":0,"long_time_on_market":false,"explanations":["1.6% net rental yield (gross 2.9%)","14.9% below DVF average (17 394 €/m²)","3 days on market"]},"source":"dvf","url":"https://app.dvf.etalab.gouv.fr/"}