{"id":"dvf-2024-1229081","address":{"raw":"59 Rue Desnouettes, 75015 Paris","normalized":"59 Rue Desnouettes 75015 Paris","lat":48.835654,"lng":2.286751,"district":"75015"},"characteristics":{"surface_m2":80,"rooms":3,"floor":5},"pricing":{"current_price":798000,"price_per_m2":9975,"initial_price":798000},"timeline":{"first_seen":"2026-06-29","last_seen":"2026-07-01","days_on_market":2},"price_history":[{"date":"2026-06-29","price":798000,"source":"dvf"}],"status":"active","dvf":{"avg_price_m2_100m":9343,"avg_price_m2_500m":9125,"comparable_sales":[{"price":1330000,"date":"2024-06-21","distance_m":31},{"price":280000,"date":"2024-07-01","distance_m":53},{"price":282700,"date":"2024-01-11","distance_m":54},{"price":224000,"date":"2024-09-05","distance_m":69},{"price":620000,"date":"2024-01-26","distance_m":98},{"price":260000,"date":"2024-03-27","distance_m":98},{"price":922000,"date":"2024-06-27","distance_m":98},{"price":435000,"date":"2024-07-16","distance_m":98}]},"risks":{"flood":0.01,"clay":0.28,"noise":0.27},"transport_score":93,"neighborhood":{"walk_score":90,"schools_500m":10,"income":33000,"velib_400m":7,"trees_150m":63,"amenities":{"food":19,"health":8,"green":2,"culture":5}},"rent":{"ref_m2":23.3,"max_m2":28,"min_m2":16.3,"quartier":"Saint-Lambert","monthly_est":2240},"investment":{"gross_yield":3.37,"net_yield":2.02,"ppm2_percentile":58,"negotiation_margin_pct":0.1,"dpe_risk_score":88,"value_add_flag":false},"pois":[{"type":"transport","lat":48.83435816545286,"lng":2.2840072433034186,"label":"Desnouettes · TRAM 3a"},{"type":"transport","lat":48.832676871877865,"lng":2.288069457597242,"label":"Porte de Versailles · TRAM 3a"},{"type":"transport","lat":48.83244909914335,"lng":2.2880221411003245,"label":"Porte de Versailles · METRO 12"},{"type":"transport","lat":48.83187246749725,"lng":2.287207137822909,"label":"Porte de Versailles · TRAM 2"},{"type":"transport","lat":48.83873485883676,"lng":2.2821433781708915,"label":"Lourmel · METRO 8"},{"type":"park","lat":48.834893983200665,"lng":2.2848805939418115,"label":"PROMENADE PC 15 - BALARD - DESNOUETTES - SERRES"},{"type":"park","lat":48.83468809976544,"lng":2.2839197365714905,"label":"SQUARE MARIN LA MESLEE"},{"type":"park","lat":48.833567216264655,"lng":2.2850347663826334,"label":"JARDIN ELISABETH BOSELLI"},{"type":"velib","lat":48.83476837934194,"lng":2.284142297394666,"label":"Square Desnouettes"},{"type":"velib","lat":48.83648798164934,"lng":2.2897250577807426,"label":"Dominique Pado - Croix Nivert"},{"type":"velib","lat":48.833468517426,"lng":2.2858720645308,"label":"Palais des Sports"},{"type":"velib","lat":48.83671783466264,"lng":2.283664085650799,"label":"Vasco de Gama"}],"dpe":{"energy_class":"C","ghg_class":"B"},"images":["https://images.unsplash.com/photo-1556912173-3bb406ef7e77?w=1200&h=750&q=66&auto=format&fit=crop&crop=entropy","https://images.unsplash.com/photo-1502005097973-6a7082348e28?w=1200&h=750&q=66&auto=format&fit=crop&crop=entropy","https://images.unsplash.com/photo-1505691938895-1758d7feb511?w=1200&h=750&q=66&auto=format&fit=crop&crop=entropy","https://images.unsplash.com/photo-1540518614846-7eded433c457?w=1200&h=750&q=66&auto=format&fit=crop&crop=entropy","https://images.unsplash.com/photo-1484154218962-a197022b5858?w=1200&h=750&q=66&auto=format&fit=crop&crop=entropy"],"thumb":"https://images.unsplash.com/photo-1556912173-3bb406ef7e77?w=480&h=300&q=55&auto=format&fit=crop&crop=entropy","score":{"opportunity_score":36,"value_score":42,"yield_score":31,"negotiation_score":0,"liquidity_score":73,"gentrification_score":52},"signals":{"price_drops":0,"total_drop_percent":0,"long_time_on_market":false,"explanations":["2.0% net rental yield (gross 3.4%)","7.8% above DVF average","2 days on market"]},"source":"dvf","url":"https://app.dvf.etalab.gouv.fr/"}