{"id":"dvf-2024-1228740","address":{"raw":"13 Bd De Picpus, 75012 Paris","normalized":"13 Rue de Picpus 75012 Paris","lat":48.846855,"lng":2.394055,"district":"75012"},"characteristics":{"surface_m2":23,"rooms":1,"floor":3},"pricing":{"current_price":215000,"price_per_m2":9348,"initial_price":215000},"timeline":{"first_seen":"2026-06-29","last_seen":"2026-07-02","days_on_market":3},"price_history":[{"date":"2026-06-29","price":215000,"source":"dvf"}],"status":"active","dvf":{"avg_price_m2_100m":9191,"avg_price_m2_500m":9359,"comparable_sales":[{"price":852000,"date":"2024-12-10","distance_m":37},{"price":630000,"date":"2024-03-04","distance_m":45},{"price":169435,"date":"2024-04-12","distance_m":47},{"price":400000,"date":"2024-08-01","distance_m":62},{"price":280000,"date":"2024-09-10","distance_m":64},{"price":520600,"date":"2024-06-10","distance_m":66},{"price":545000,"date":"2024-07-16","distance_m":84},{"price":370000,"date":"2024-04-11","distance_m":104}]},"risks":{"flood":0.08,"clay":0.25,"noise":0.63},"transport_score":100,"neighborhood":{"walk_score":75,"schools_500m":20,"income":31000,"velib_400m":6,"trees_150m":22,"amenities":{"food":13,"health":4,"green":3,"culture":3}},"rent":{"ref_m2":28,"max_m2":33.6,"min_m2":19.6,"quartier":"Picpus","monthly_est":773},"investment":{"gross_yield":4.31,"net_yield":2.9,"ppm2_percentile":54,"negotiation_margin_pct":0.1,"dpe_risk_score":75,"value_add_flag":false},"pois":[{"type":"transport","lat":48.84737487872935,"lng":2.3954619948327402,"label":"Nation · METRO 6"},{"type":"transport","lat":48.847579367477074,"lng":2.3955545121706874,"label":"Nation · METRO 1"},{"type":"transport","lat":48.848474285974376,"lng":2.395062305425881,"label":"Nation · METRO 2"},{"type":"transport","lat":48.84823711041019,"lng":2.395823588826126,"label":"Nation · RER A"},{"type":"transport","lat":48.84894464506383,"lng":2.3958794351856887,"label":"Nation · METRO 9"},{"type":"park","lat":48.84860642953009,"lng":2.3919262486821276,"label":"JARDIN DE L'IMPERATRICE EUGENIE"},{"type":"park","lat":48.84483294429696,"lng":2.388993806026377,"label":"JARDINET DE L’EGLISE SAINT-ELOI"},{"type":"park","lat":48.8426028146133,"lng":2.393298007832653,"label":"JARDIN PARTAGE DU 107 RUE DE REUILLY"},{"type":"velib","lat":48.8471116,"lng":2.3956204,"label":"Fabre d'Eglantine - Place de la Nation"},{"type":"velib","lat":48.8487726,"lng":2.393606,"label":"Faubourg St-Antoine - Place de la Nation"},{"type":"velib","lat":48.8453579,"lng":2.3965022,"label":"Saint-Mandé - Fabre d'Eglantine"},{"type":"velib","lat":48.847648620797,"lng":2.3902582749724,"label":"Diderot - Pierre Bourdan"}],"dpe":{"energy_class":"D","ghg_class":"B"},"images":["https://images.unsplash.com/photo-1505691938895-1758d7feb511?w=1200&h=750&q=66&auto=format&fit=crop&crop=entropy","https://images.unsplash.com/photo-1560448204-e02f11c3d0e2?w=1200&h=750&q=66&auto=format&fit=crop&crop=entropy","https://images.unsplash.com/photo-1522708323590-d24dbb6b0267?w=1200&h=750&q=66&auto=format&fit=crop&crop=entropy","https://images.unsplash.com/photo-1556912173-3bb406ef7e77?w=1200&h=750&q=66&auto=format&fit=crop&crop=entropy","https://images.unsplash.com/photo-1502672260266-1c1ef2d93688?w=1200&h=750&q=66&auto=format&fit=crop&crop=entropy"],"thumb":"https://images.unsplash.com/photo-1505691938895-1758d7feb511?w=480&h=300&q=55&auto=format&fit=crop&crop=entropy","score":{"opportunity_score":48,"value_score":48,"yield_score":76,"negotiation_score":1,"liquidity_score":80,"gentrification_score":52},"signals":{"price_drops":0,"total_drop_percent":0,"long_time_on_market":false,"explanations":["2.9% net rental yield (gross 4.3%)","1% above DVF average","3 days on market"]},"source":"dvf","url":"https://app.dvf.etalab.gouv.fr/"}