{"id":"dvf-2024-1209568","address":{"raw":"23 Rue Des Amiraux, 75018 Paris","normalized":"23 Rue des Amiraux 75018 Paris","lat":48.89468,"lng":2.350028,"district":"75018"},"characteristics":{"surface_m2":11,"rooms":1,"floor":1},"pricing":{"current_price":110000,"price_per_m2":10000,"initial_price":110000},"timeline":{"first_seen":"2026-06-29","last_seen":"2026-07-01","days_on_market":2},"price_history":[{"date":"2026-06-29","price":110000,"source":"dvf"}],"status":"active","dvf":{"avg_price_m2_100m":8066,"avg_price_m2_500m":8694,"comparable_sales":[{"price":120000,"date":"2024-05-17","distance_m":41},{"price":170000,"date":"2024-10-15","distance_m":60},{"price":300000,"date":"2024-12-17","distance_m":61},{"price":213000,"date":"2024-05-13","distance_m":62},{"price":455000,"date":"2024-12-02","distance_m":63},{"price":332000,"date":"2024-07-26","distance_m":65},{"price":309000,"date":"2024-02-06","distance_m":70},{"price":473000,"date":"2024-02-29","distance_m":70}]},"risks":{"flood":0.05,"clay":0.29,"noise":0.48},"transport_score":97,"neighborhood":{"walk_score":89,"schools_500m":11,"income":26000,"velib_400m":7,"trees_150m":42,"amenities":{"food":20,"health":6,"green":5,"culture":4}},"rent":{"ref_m2":28,"max_m2":33.6,"min_m2":19.6,"quartier":"Clignancourt","monthly_est":370},"investment":{"gross_yield":4.03,"net_yield":2.63,"ppm2_percentile":62,"negotiation_margin_pct":0.1,"dpe_risk_score":75,"value_add_flag":false},"pois":[{"type":"transport","lat":48.894343848842425,"lng":2.347430779960205,"label":"Simplon · METRO 4"},{"type":"transport","lat":48.89146500033268,"lng":2.3498154532183615,"label":"Marcadet-Poissonniers · METRO 12"},{"type":"transport","lat":48.89143955488239,"lng":2.349627158227453,"label":"Marcadet-Poissonniers · METRO 4"},{"type":"transport","lat":48.898329104399316,"lng":2.3517120717216238,"label":"Diane Arbus · TRAM 3b"},{"type":"transport","lat":48.892418922945716,"lng":2.3447646117383565,"label":"Jules Joffrin · METRO 12"},{"type":"park","lat":48.89406058122439,"lng":2.3497537996487603,"label":"JARDIN DE LA RUE DU SIMPLON (JARDIN D'ENFANTS)"},{"type":"park","lat":48.89404564316669,"lng":2.352269530892891,"label":"JARDIN HENRI SAUVAGE"},{"type":"park","lat":48.89499093055817,"lng":2.353811774518237,"label":"JARDIN JANE VIALLE"},{"type":"velib","lat":48.8953643,"lng":2.3498166,"label":"Championnet."},{"type":"velib","lat":48.89374453351521,"lng":2.3476678133010864,"label":"Joseph Dijon - Ornano"},{"type":"velib","lat":48.89543299733937,"lng":2.3530178144574165,"label":"Poissonniers - Championnet"},{"type":"velib","lat":48.892511213520656,"lng":2.3522228747606277,"label":"Poissonniers - Nord"}],"dpe":{"energy_class":"D","ghg_class":"B"},"images":["https://images.unsplash.com/photo-1554995207-c18c203602cb?w=1200&h=750&q=66&auto=format&fit=crop&crop=entropy","https://images.unsplash.com/photo-1522708323590-d24dbb6b0267?w=1200&h=750&q=66&auto=format&fit=crop&crop=entropy","https://images.unsplash.com/photo-1560448204-e02f11c3d0e2?w=1200&h=750&q=66&auto=format&fit=crop&crop=entropy","https://images.unsplash.com/photo-1556912173-3bb406ef7e77?w=1200&h=750&q=66&auto=format&fit=crop&crop=entropy","https://images.unsplash.com/photo-1505691938895-1758d7feb511?w=1200&h=750&q=66&auto=format&fit=crop&crop=entropy"],"thumb":"https://images.unsplash.com/photo-1554995207-c18c203602cb?w=480&h=300&q=55&auto=format&fit=crop&crop=entropy","score":{"opportunity_score":41,"value_score":38,"yield_score":63,"negotiation_score":0,"liquidity_score":81,"gentrification_score":44},"signals":{"price_drops":0,"total_drop_percent":0,"long_time_on_market":false,"explanations":["2.6% net rental yield (gross 4.0%)","20.2% above DVF average","2 days on market"]},"source":"dvf","url":"https://app.dvf.etalab.gouv.fr/"}