{"id":"dvf-2024-1228666","address":{"raw":"6 Rue De L Essai, 75005 Paris","normalized":"6 Rue de l'Essai 75005 Paris","lat":48.839483,"lng":2.358405,"district":"75005"},"characteristics":{"surface_m2":17,"rooms":1,"floor":0},"pricing":{"current_price":230000,"price_per_m2":13529,"initial_price":230000},"timeline":{"first_seen":"2026-06-29","last_seen":"2026-07-01","days_on_market":2},"price_history":[{"date":"2026-06-29","price":230000,"source":"dvf"}],"status":"active","dvf":{"avg_price_m2_100m":10940,"avg_price_m2_500m":10840,"comparable_sales":[{"price":235000,"date":"2024-07-26","distance_m":21},{"price":660000,"date":"2024-01-29","distance_m":28},{"price":432000,"date":"2024-02-13","distance_m":29},{"price":527000,"date":"2024-07-15","distance_m":31},{"price":435000,"date":"2024-04-15","distance_m":41},{"price":690000,"date":"2024-07-16","distance_m":45},{"price":870000,"date":"2024-01-03","distance_m":47},{"price":260000,"date":"2024-11-20","distance_m":47}]},"risks":{"flood":0.13,"clay":0.32,"noise":0.26},"transport_score":95,"neighborhood":{"walk_score":86,"schools_500m":11,"income":37000,"velib_400m":6,"trees_150m":100,"amenities":{"food":34,"health":10,"green":0,"culture":6}},"rent":{"ref_m2":30.2,"max_m2":36.2,"min_m2":21.1,"quartier":"Jardin-des-Plantes","monthly_est":615},"investment":{"gross_yield":3.21,"net_yield":1.87,"ppm2_percentile":72,"negotiation_margin_pct":0.1,"dpe_risk_score":10,"value_add_flag":false},"pois":[{"type":"transport","lat":48.83842729696758,"lng":2.360967167698855,"label":"Saint-Marcel · METRO 5"},{"type":"transport","lat":48.835152535740804,"lng":2.3585662563494667,"label":"Campo Formio · METRO 5"},{"type":"transport","lat":48.84023383632875,"lng":2.3516064753021904,"label":"Censier-Daubenton · METRO 7"},{"type":"transport","lat":48.83593030287887,"lng":2.3525422662627022,"label":"Les Gobelins · METRO 7"},{"type":"transport","lat":48.84286683068267,"lng":2.352224728183084,"label":"Place Monge · METRO 7"},{"type":"park","lat":48.83876418659765,"lng":2.353757908862067,"label":"SQUARE THEODORE MONOD"},{"type":"park","lat":48.840735793145086,"lng":2.3631637124832836,"label":"SQUARE MARIE CURIE"},{"type":"park","lat":48.83615372496458,"lng":2.359892493989504,"label":"JARDIN FEDERICA MONTSENY"},{"type":"velib","lat":48.83907826424974,"lng":2.356877340669728,"label":"Geoffroy-Saint-Hilaire - Saint-Marcel"},{"type":"velib","lat":48.838151608087,"lng":2.3571084495564,"label":"Duméril - Jeanne d'Arc"},{"type":"velib","lat":48.839504424583,"lng":2.3609894170229,"label":"Saint-Marcel - Hôpital"},{"type":"velib","lat":48.8377016,"lng":2.3604946,"label":"Hôpital Pitié Salpêtrière"}],"dpe":{"energy_class":"G","ghg_class":"G"},"images":["https://images.unsplash.com/photo-1560448204-e02f11c3d0e2?w=1200&h=750&q=66&auto=format&fit=crop&crop=entropy","https://images.unsplash.com/photo-1502005097973-6a7082348e28?w=1200&h=750&q=66&auto=format&fit=crop&crop=entropy","https://images.unsplash.com/photo-1556912173-3bb406ef7e77?w=1200&h=750&q=66&auto=format&fit=crop&crop=entropy","https://images.unsplash.com/photo-1502672260266-1c1ef2d93688?w=1200&h=750&q=66&auto=format&fit=crop&crop=entropy","https://images.unsplash.com/photo-1505691938895-1758d7feb511?w=1200&h=750&q=66&auto=format&fit=crop&crop=entropy"],"thumb":"https://images.unsplash.com/photo-1560448204-e02f11c3d0e2?w=480&h=300&q=55&auto=format&fit=crop&crop=entropy","score":{"opportunity_score":19,"value_score":28,"yield_score":24,"negotiation_score":0,"liquidity_score":90,"gentrification_score":50},"signals":{"price_drops":0,"total_drop_percent":0,"long_time_on_market":false,"explanations":["1.9% net rental yield (gross 3.2%)","24.1% above DVF average","2 days on market","Energy class G — rental restrictions apply"]},"source":"dvf","url":"https://app.dvf.etalab.gouv.fr/"}