{"id":"dvf-2024-1209800","address":{"raw":"27 Rue De Bagnolet, 75020 Paris","normalized":"27 Rue de Bagnolet 75020 Paris","lat":48.856849,"lng":2.396312,"district":"75020"},"characteristics":{"surface_m2":34,"rooms":1,"floor":2},"pricing":{"current_price":254650,"price_per_m2":7490,"initial_price":254650},"timeline":{"first_seen":"2026-06-29","last_seen":"2026-07-02","days_on_market":3},"price_history":[{"date":"2026-06-29","price":254650,"source":"dvf"}],"status":"active","dvf":{"avg_price_m2_100m":9377,"avg_price_m2_500m":8875,"comparable_sales":[{"price":178000,"date":"2024-01-19","distance_m":38},{"price":219900,"date":"2024-07-16","distance_m":38},{"price":200530,"date":"2024-09-13","distance_m":38},{"price":229520,"date":"2024-12-16","distance_m":38},{"price":285000,"date":"2024-02-05","distance_m":40},{"price":364360,"date":"2024-01-31","distance_m":64},{"price":148750,"date":"2024-12-13","distance_m":66},{"price":290000,"date":"2024-01-15","distance_m":76}]},"risks":{"flood":0.03,"clay":0.09,"noise":0.63},"transport_score":84,"neighborhood":{"walk_score":92,"schools_500m":16,"income":25000,"velib_400m":5,"trees_150m":103,"amenities":{"food":17,"health":7,"green":2,"culture":5}},"rent":{"ref_m2":25.8,"max_m2":31,"min_m2":18.1,"quartier":"Père-Lachaise","monthly_est":1054},"investment":{"gross_yield":4.97,"net_yield":3.5,"ppm2_percentile":30,"negotiation_margin_pct":0.1,"dpe_risk_score":75,"value_add_flag":false},"pois":[{"type":"transport","lat":48.85622809125615,"lng":2.3946756547920462,"label":"Alexandre Dumas · METRO 2"},{"type":"transport","lat":48.85806226176241,"lng":2.3908609523236084,"label":"Philippe Auguste · METRO 2"},{"type":"transport","lat":48.85190531895693,"lng":2.3979973148307456,"label":"Avron · METRO 2"},{"type":"transport","lat":48.85197520932561,"lng":2.401927284511547,"label":"Buzenval · METRO 9"},{"type":"transport","lat":48.852168369650244,"lng":2.3896255399759547,"label":"Rue des Boulets · METRO 9"},{"type":"park","lat":48.85719618937227,"lng":2.395680445816472,"label":"JARDIN PARTAGE DE LA CITE AUBRY"},{"type":"park","lat":48.854902246147844,"lng":2.3945913869488313,"label":"JARDIN DAMIA"},{"type":"park","lat":48.85634530020279,"lng":2.3924182406278924,"label":"JARDIN PARTAGE DES HABITANTS DU 179 RUE DE CHARONNE"},{"type":"velib","lat":48.85656581187,"lng":2.3972699046135,"label":"Monte Cristo - Bagnolet"},{"type":"velib","lat":48.856077415056,"lng":2.3948693275452,"label":"Charonne - Alexandre Dumas"},{"type":"velib","lat":48.855907555969,"lng":2.3925706744194,"label":"Charonne - Robert et Sonia Delaunay"},{"type":"velib","lat":48.854176,"lng":2.396093,"label":"Charonne - Bureau"}],"dpe":{"energy_class":"D","ghg_class":"B"},"images":["https://images.unsplash.com/photo-1505691938895-1758d7feb511?w=1200&h=750&q=66&auto=format&fit=crop&crop=entropy","https://images.unsplash.com/photo-1567496898669-ee935f5f647a?w=1200&h=750&q=66&auto=format&fit=crop&crop=entropy","https://images.unsplash.com/photo-1493663284031-b7e3aefcae8e?w=1200&h=750&q=66&auto=format&fit=crop&crop=entropy","https://images.unsplash.com/photo-1502005097973-6a7082348e28?w=1200&h=750&q=66&auto=format&fit=crop&crop=entropy","https://images.unsplash.com/photo-1522708323590-d24dbb6b0267?w=1200&h=750&q=66&auto=format&fit=crop&crop=entropy"],"thumb":"https://images.unsplash.com/photo-1505691938895-1758d7feb511?w=480&h=300&q=55&auto=format&fit=crop&crop=entropy","score":{"opportunity_score":66,"value_score":96,"yield_score":100,"negotiation_score":1,"liquidity_score":77,"gentrification_score":45},"signals":{"price_drops":0,"total_drop_percent":0,"long_time_on_market":false,"explanations":["3.5% net rental yield (gross 5.0%)","18.4% below DVF average (9 176 €/m²)","Cheaper than 70% of the arrondissement","3 days on market"]},"source":"dvf","url":"https://app.dvf.etalab.gouv.fr/"}