{"id":"dvf-2024-1228827","address":{"raw":"5 Rue Pleyel, 75012 Paris","normalized":"5 Rue Pleyel 75012 Paris","lat":48.840124,"lng":2.39123,"district":"75012"},"characteristics":{"surface_m2":34,"rooms":3,"floor":4},"pricing":{"current_price":353850,"price_per_m2":10407,"initial_price":353850},"timeline":{"first_seen":"2026-06-29","last_seen":"2026-07-02","days_on_market":3},"price_history":[{"date":"2026-06-29","price":353850,"source":"dvf"}],"status":"active","dvf":{"avg_price_m2_100m":9299,"avg_price_m2_500m":8797,"comparable_sales":[{"price":320000,"date":"2024-12-20","distance_m":14},{"price":1005000,"date":"2024-07-04","distance_m":28},{"price":978935,"date":"2024-09-24","distance_m":28},{"price":240000,"date":"2024-03-11","distance_m":34},{"price":325000,"date":"2024-07-18","distance_m":39},{"price":296923,"date":"2024-11-18","distance_m":56},{"price":270450,"date":"2024-11-19","distance_m":60},{"price":220000,"date":"2024-07-02","distance_m":64}]},"risks":{"flood":0.37,"clay":0.37,"noise":0.33},"transport_score":91,"neighborhood":{"walk_score":52,"schools_500m":16,"income":31000,"velib_400m":5,"trees_150m":22,"amenities":{"food":6,"health":2,"green":3,"culture":0}},"rent":{"ref_m2":22.8,"max_m2":27.4,"min_m2":16,"quartier":"Picpus","monthly_est":932},"investment":{"gross_yield":3.16,"net_yield":1.82,"ppm2_percentile":80,"negotiation_margin_pct":0.1,"dpe_risk_score":30,"value_add_flag":false},"pois":[{"type":"transport","lat":48.83904114371398,"lng":2.389620014061439,"label":"Dugommier · METRO 6"},{"type":"transport","lat":48.83954964556868,"lng":2.3957032894363937,"label":"Daumesnil · METRO 6"},{"type":"transport","lat":48.83944542837951,"lng":2.3961828864526327,"label":"Daumesnil · METRO 8"},{"type":"transport","lat":48.84406559730793,"lng":2.390482133980388,"label":"Montgallet · METRO 8"},{"type":"transport","lat":48.83908128024196,"lng":2.383028081146452,"label":"Paris-Bercy · GL"},{"type":"park","lat":48.840563298014956,"lng":2.392447022499142,"label":"JARDIN PARTAGE DE LA MAISON DES ASSOCIATIONS DU 12EME"},{"type":"park","lat":48.84095976234427,"lng":2.3923463960618,"label":"JARDIN DE LA GARE DE REUILLY - JULIEN LAUPRETRE"},{"type":"park","lat":48.84161334174448,"lng":2.3906033986065798,"label":"COULEE VERTE RENE DUMONT - MAIL DE REUILLY - ALLEE VIVALDI"},{"type":"velib","lat":48.838811048815,"lng":2.3896577954292,"label":"Dugommier"},{"type":"velib","lat":48.841923663276546,"lng":2.389728979467376,"label":"Vivaldi - Antoine-Julien Hénard"},{"type":"velib","lat":48.84030274499962,"lng":2.394630398715453,"label":"Reuilly - Place Felix Eboue"},{"type":"velib","lat":48.840855311763,"lng":2.3875549435616,"label":"Mairie du 12ème"}],"dpe":{"energy_class":"F","ghg_class":"C"},"images":["https://images.unsplash.com/photo-1493663284031-b7e3aefcae8e?w=1200&h=750&q=66&auto=format&fit=crop&crop=entropy","https://images.unsplash.com/photo-1484154218962-a197022b5858?w=1200&h=750&q=66&auto=format&fit=crop&crop=entropy","https://images.unsplash.com/photo-1556912173-3bb406ef7e77?w=1200&h=750&q=66&auto=format&fit=crop&crop=entropy","https://images.unsplash.com/photo-1540518614846-7eded433c457?w=1200&h=750&q=66&auto=format&fit=crop&crop=entropy","https://images.unsplash.com/photo-1502005097973-6a7082348e28?w=1200&h=750&q=66&auto=format&fit=crop&crop=entropy"],"thumb":"https://images.unsplash.com/photo-1493663284031-b7e3aefcae8e?w=480&h=300&q=55&auto=format&fit=crop&crop=entropy","score":{"opportunity_score":19,"value_score":20,"yield_score":21,"negotiation_score":1,"liquidity_score":75,"gentrification_score":52},"signals":{"price_drops":0,"total_drop_percent":0,"long_time_on_market":false,"explanations":["1.8% net rental yield (gross 3.2%)","14.4% above DVF average","3 days on market","Energy class F — rental restrictions apply"]},"source":"dvf","url":"https://app.dvf.etalab.gouv.fr/"}