{"id":"dvf-2024-1228518","address":{"raw":"38 Rue De Vaugirard, 75006 Paris","normalized":"38 Rue de Vaugirard 75006 Paris","lat":48.849261,"lng":2.335227,"district":"75006"},"characteristics":{"surface_m2":9,"rooms":1,"floor":3},"pricing":{"current_price":90485,"price_per_m2":10054,"initial_price":90485},"timeline":{"first_seen":"2026-06-29","last_seen":"2026-07-01","days_on_market":2},"price_history":[{"date":"2026-06-29","price":90485,"source":"dvf"}],"status":"active","dvf":{"avg_price_m2_100m":13840,"avg_price_m2_500m":16595,"comparable_sales":[{"price":1365000,"date":"2024-03-08","distance_m":22},{"price":550000,"date":"2024-02-27","distance_m":61},{"price":1180000,"date":"2024-07-04","distance_m":61},{"price":320000,"date":"2024-01-30","distance_m":74},{"price":1800000,"date":"2024-06-28","distance_m":93},{"price":745000,"date":"2024-06-14","distance_m":96},{"price":1750000,"date":"2024-04-12","distance_m":106},{"price":1632100,"date":"2024-06-13","distance_m":116}]},"risks":{"flood":0.15,"clay":0.41,"noise":0.37},"transport_score":83,"neighborhood":{"walk_score":53,"schools_500m":14,"income":43000,"velib_400m":5,"trees_150m":10,"amenities":{"food":10,"health":2,"green":1,"culture":1}},"rent":{"ref_m2":34,"max_m2":40.8,"min_m2":23.8,"quartier":"Odeon","monthly_est":367},"investment":{"gross_yield":4.87,"net_yield":3.41,"ppm2_percentile":4,"negotiation_margin_pct":0.1,"dpe_risk_score":88,"value_add_flag":false},"pois":[{"type":"transport","lat":48.851071370372,"lng":2.3307007099542143,"label":"Saint-Sulpice · METRO 4"},{"type":"transport","lat":48.8530167679172,"lng":2.335502051727558,"label":"Mabillon · METRO 10"},{"type":"transport","lat":48.852300763094235,"lng":2.3397277815930964,"label":"Odéon · METRO 4"},{"type":"transport","lat":48.85193594203498,"lng":2.340613006406504,"label":"Odéon · METRO 10"},{"type":"transport","lat":48.853718934000206,"lng":2.3337761382184676,"label":"Saint-Germain-des-Prés · METRO 4"},{"type":"park","lat":48.84910616340914,"lng":2.3329472315102002,"label":"PROMENADE DE L'ALLEE DU SEMINAIRE - JEAN-JACQUES OLIER"},{"type":"park","lat":48.849520121107176,"lng":2.3376796364935615,"label":"SQUARE FRANCIS POULENC"},{"type":"park","lat":48.85059764121737,"lng":2.332181865665548,"label":"JARDINET DE LA MAIRIE DU VIEME"},{"type":"velib","lat":48.84954227788459,"lng":2.337939441204071,"label":"Sénat - Condé"},{"type":"velib","lat":48.85165625855281,"lng":2.335500307381153,"label":"Marché Saint-Germain"},{"type":"velib","lat":48.851751374458864,"lng":2.338161695134053,"label":"Quatre Vents - Carrefour de l'Odéon"},{"type":"velib","lat":48.8466127,"lng":2.3325478,"label":"Guynemer - Jardin du Luxembourg"}],"dpe":{"energy_class":"C","ghg_class":"A"},"images":["https://images.unsplash.com/photo-1554995207-c18c203602cb?w=1200&h=750&q=66&auto=format&fit=crop&crop=entropy","https://images.unsplash.com/photo-1484154218962-a197022b5858?w=1200&h=750&q=66&auto=format&fit=crop&crop=entropy","https://images.unsplash.com/photo-1522708323590-d24dbb6b0267?w=1200&h=750&q=66&auto=format&fit=crop&crop=entropy","https://images.unsplash.com/photo-1502672260266-1c1ef2d93688?w=1200&h=750&q=66&auto=format&fit=crop&crop=entropy","https://images.unsplash.com/photo-1502005097973-6a7082348e28?w=1200&h=750&q=66&auto=format&fit=crop&crop=entropy"],"thumb":"https://images.unsplash.com/photo-1554995207-c18c203602cb?w=480&h=300&q=55&auto=format&fit=crop&crop=entropy","score":{"opportunity_score":73,"value_score":100,"yield_score":97,"negotiation_score":0,"liquidity_score":89,"gentrification_score":48},"signals":{"price_drops":0,"total_drop_percent":0,"long_time_on_market":false,"explanations":["3.4% net rental yield (gross 4.9%)","32.7% below DVF average (14 942 €/m²)","Cheaper than 96% of the arrondissement","2 days on market"]},"source":"dvf","url":"https://app.dvf.etalab.gouv.fr/"}