{"id":"dvf-2024-1229183","address":{"raw":"5 Rue De Vouille, 75015 Paris","normalized":"5 Rue de Vouillé 75015 Paris","lat":48.835336,"lng":2.303397,"district":"75015"},"characteristics":{"surface_m2":52,"rooms":2,"floor":1},"pricing":{"current_price":478500,"price_per_m2":9202,"initial_price":478500},"timeline":{"first_seen":"2026-06-29","last_seen":"2026-07-01","days_on_market":2},"price_history":[{"date":"2026-06-29","price":478500,"source":"dvf"}],"status":"active","dvf":{"avg_price_m2_100m":9032,"avg_price_m2_500m":9219,"comparable_sales":[{"price":424000,"date":"2024-05-28","distance_m":20},{"price":214875,"date":"2024-12-11","distance_m":35},{"price":290000,"date":"2024-04-09","distance_m":41},{"price":170000,"date":"2024-06-11","distance_m":41},{"price":435000,"date":"2024-05-31","distance_m":41},{"price":82752,"date":"2024-05-30","distance_m":42},{"price":237248,"date":"2024-05-30","distance_m":42},{"price":505000,"date":"2024-04-04","distance_m":45}]},"risks":{"flood":0.06,"clay":0.29,"noise":0.34},"transport_score":52,"neighborhood":{"walk_score":81,"schools_500m":24,"income":33000,"velib_400m":6,"trees_150m":57,"amenities":{"food":19,"health":10,"green":1,"culture":3}},"rent":{"ref_m2":23.8,"max_m2":28.6,"min_m2":16.7,"quartier":"Saint-Lambert","monthly_est":1487},"investment":{"gross_yield":3.73,"net_yield":2.35,"ppm2_percentile":36,"negotiation_margin_pct":0.1,"dpe_risk_score":75,"value_add_flag":false},"pois":[{"type":"transport","lat":48.839516585402485,"lng":2.3011075162423964,"label":"Vaugirard · METRO 12"},{"type":"transport","lat":48.837099428223645,"lng":2.296231386803389,"label":"Convention · METRO 12"},{"type":"park","lat":48.83604747105989,"lng":2.3049795271502953,"label":"JARDIN DU 62 AU 68 RUE D'ALLERAY"},{"type":"park","lat":48.83724191464444,"lng":2.3043165090204756,"label":"JARDIN DE LA RUE LA QUINTINIE"},{"type":"park","lat":48.83585765903148,"lng":2.308430541659996,"label":"SQUARE ALLERAY - SAINT-AMAND"},{"type":"velib","lat":48.835523812041,"lng":2.3025986552238,"label":"Place Charles Vallin"},{"type":"velib","lat":48.83596927866069,"lng":2.302064039509349,"label":"Abbé Groult - Convention"},{"type":"velib","lat":48.836826091766,"lng":2.3071701095578,"label":"Dutot - Place Alleray"},{"type":"velib","lat":48.83227829269761,"lng":2.3022570088505745,"label":"Parc Georges Brassens - Brancion"}],"dpe":{"energy_class":"D","ghg_class":"D"},"images":["https://images.unsplash.com/photo-1560448204-e02f11c3d0e2?w=1200&h=750&q=66&auto=format&fit=crop&crop=entropy","https://images.unsplash.com/photo-1493809842364-78817add7ffb?w=1200&h=750&q=66&auto=format&fit=crop&crop=entropy","https://images.unsplash.com/photo-1493663284031-b7e3aefcae8e?w=1200&h=750&q=66&auto=format&fit=crop&crop=entropy","https://images.unsplash.com/photo-1522708323590-d24dbb6b0267?w=1200&h=750&q=66&auto=format&fit=crop&crop=entropy","https://images.unsplash.com/photo-1554995207-c18c203602cb?w=1200&h=750&q=66&auto=format&fit=crop&crop=entropy"],"thumb":"https://images.unsplash.com/photo-1560448204-e02f11c3d0e2?w=480&h=300&q=55&auto=format&fit=crop&crop=entropy","score":{"opportunity_score":43,"value_score":64,"yield_score":48,"negotiation_score":0,"liquidity_score":67,"gentrification_score":52},"signals":{"price_drops":0,"total_drop_percent":0,"long_time_on_market":false,"explanations":["2.4% net rental yield (gross 3.7%)","1% above DVF average","2 days on market"]},"source":"dvf","url":"https://app.dvf.etalab.gouv.fr/"}