{"id":"dvf-2024-1228862","address":{"raw":"110 Rue Raymond Losserand, 75014 Paris","normalized":"110 Rue Raymond Losserand 75014 Paris","lat":48.832398,"lng":2.31511,"district":"75014"},"characteristics":{"surface_m2":16,"rooms":1,"floor":0},"pricing":{"current_price":120000,"price_per_m2":7500,"initial_price":120000},"timeline":{"first_seen":"2026-06-29","last_seen":"2026-07-01","days_on_market":2},"price_history":[{"date":"2026-06-29","price":120000,"source":"dvf"}],"status":"active","dvf":{"avg_price_m2_100m":9390,"avg_price_m2_500m":9275,"comparable_sales":[{"price":490000,"date":"2024-03-28","distance_m":26},{"price":180000,"date":"2024-05-27","distance_m":50},{"price":530000,"date":"2024-01-16","distance_m":58},{"price":106714,"date":"2024-04-11","distance_m":58},{"price":199950,"date":"2024-06-24","distance_m":63},{"price":325000,"date":"2024-12-26","distance_m":63},{"price":201100,"date":"2024-09-26","distance_m":67},{"price":308200,"date":"2024-07-04","distance_m":75}]},"risks":{"flood":0.05,"clay":0.5,"noise":0.51},"transport_score":76,"neighborhood":{"walk_score":92,"schools_500m":22,"income":32000,"velib_400m":7,"trees_150m":99,"amenities":{"food":13,"health":14,"green":5,"culture":3}},"rent":{"ref_m2":31,"max_m2":37.2,"min_m2":21.7,"quartier":"Plaisance","monthly_est":595},"investment":{"gross_yield":5.95,"net_yield":4.42,"ppm2_percentile":8,"negotiation_margin_pct":0.1,"dpe_risk_score":55,"value_add_flag":false},"pois":[{"type":"transport","lat":48.83182565048563,"lng":2.3141223234590225,"label":"Plaisance · METRO 13"},{"type":"transport","lat":48.83422588267789,"lng":2.318616414425384,"label":"Pernety · METRO 13"},{"type":"transport","lat":48.82592054697146,"lng":2.3133800873660437,"label":"Didot · TRAM 3a"},{"type":"park","lat":48.833630482768434,"lng":2.3142386651541758,"label":"JARDIN PARTAGE DU SQUARE DU MOULIN DE LA VIERGE"},{"type":"park","lat":48.83356591230296,"lng":2.313641387844564,"label":"SQUARE CAROLE ROUSSOPOULOS"},{"type":"park","lat":48.830970015834914,"lng":2.3142180577939295,"label":"JARDIN MAUDY PIOT-JACOMET"},{"type":"velib","lat":48.832200060759,"lng":2.3139070151575,"label":"Decrès - Alésia"},{"type":"velib","lat":48.83329880233322,"lng":2.3173383995890617,"label":"Boyer-Barret - Raymond Losserand"},{"type":"velib","lat":48.834254627953,"lng":2.317609339387,"label":"Pernety - Raymond Losserand"},{"type":"velib","lat":48.83453413883994,"lng":2.313154547426182,"label":"Gergovie - Vercingétorix"}],"dpe":{"energy_class":"E","ghg_class":"E"},"images":["https://images.unsplash.com/photo-1560448204-e02f11c3d0e2?w=1200&h=750&q=66&auto=format&fit=crop&crop=entropy","https://images.unsplash.com/photo-1540518614846-7eded433c457?w=1200&h=750&q=66&auto=format&fit=crop&crop=entropy","https://images.unsplash.com/photo-1554995207-c18c203602cb?w=1200&h=750&q=66&auto=format&fit=crop&crop=entropy","https://images.unsplash.com/photo-1484154218962-a197022b5858?w=1200&h=750&q=66&auto=format&fit=crop&crop=entropy","https://images.unsplash.com/photo-1493663284031-b7e3aefcae8e?w=1200&h=750&q=66&auto=format&fit=crop&crop=entropy"],"thumb":"https://images.unsplash.com/photo-1560448204-e02f11c3d0e2?w=480&h=300&q=55&auto=format&fit=crop&crop=entropy","score":{"opportunity_score":59,"value_score":99,"yield_score":100,"negotiation_score":0,"liquidity_score":78,"gentrification_score":51},"signals":{"price_drops":0,"total_drop_percent":0,"long_time_on_market":false,"explanations":["4.4% net rental yield (gross 6.0%)","19.7% below DVF average (9 344 €/m²)","Cheaper than 92% of the arrondissement","2 days on market"]},"source":"dvf","url":"https://app.dvf.etalab.gouv.fr/"}