{"id":"dvf-2024-1228984","address":{"raw":"75 Rue De La Convention, 75015 Paris","normalized":"75 Rue de la Convention 75015 Paris","lat":48.84259,"lng":2.284896,"district":"75015"},"characteristics":{"surface_m2":18,"rooms":1,"floor":1},"pricing":{"current_price":173100,"price_per_m2":9617,"initial_price":173100},"timeline":{"first_seen":"2026-06-29","last_seen":"2026-07-02","days_on_market":3},"price_history":[{"date":"2026-06-29","price":173100,"source":"dvf"}],"status":"active","dvf":{"avg_price_m2_100m":9844,"avg_price_m2_500m":9442,"comparable_sales":[{"price":170000,"date":"2024-05-16","distance_m":23},{"price":480000,"date":"2024-07-25","distance_m":23},{"price":475000,"date":"2024-01-31","distance_m":46},{"price":351600,"date":"2024-02-15","distance_m":46},{"price":542550,"date":"2024-03-08","distance_m":46},{"price":649000,"date":"2024-02-12","distance_m":53},{"price":210000,"date":"2024-12-31","distance_m":68},{"price":587000,"date":"2024-04-29","distance_m":74}]},"risks":{"flood":0.31,"clay":0.48,"noise":0.31},"transport_score":83,"neighborhood":{"walk_score":78,"schools_500m":22,"income":33000,"velib_400m":5,"trees_150m":61,"amenities":{"food":11,"health":12,"green":2,"culture":3}},"rent":{"ref_m2":29.4,"max_m2":35.3,"min_m2":20.6,"quartier":"Javel 15Art","monthly_est":635},"investment":{"gross_yield":4.4,"net_yield":2.98,"ppm2_percentile":48,"negotiation_margin_pct":0.1,"dpe_risk_score":30,"value_add_flag":false},"pois":[{"type":"transport","lat":48.84109405724891,"lng":2.287945766487378,"label":"Boucicaut · METRO 8"},{"type":"transport","lat":48.8465346367312,"lng":2.2859992220590075,"label":"Charles Michels · METRO 10"},{"type":"transport","lat":48.83873485883676,"lng":2.2821433781708915,"label":"Lourmel · METRO 8"},{"type":"transport","lat":48.84274677979288,"lng":2.2919124133178745,"label":"Félix Faure · METRO 8"},{"type":"transport","lat":48.846157204832465,"lng":2.278400386366102,"label":"Javel - André Citroën · METRO 10"},{"type":"park","lat":48.84109843112034,"lng":2.285714860588908,"label":"JARDIN DURANTON"},{"type":"park","lat":48.84408209200621,"lng":2.280461458580797,"label":"SQUARE PAUL GILOT"},{"type":"park","lat":48.84399705170171,"lng":2.289729516934162,"label":"SQUARE VIOLET"},{"type":"velib","lat":48.842055041656,"lng":2.2859910875559,"label":"Convention - Lourmel"},{"type":"velib","lat":48.843156111116,"lng":2.2831090539694,"label":"Convention - Saint-Charles"},{"type":"velib","lat":48.84240765130395,"lng":2.281037718057633,"label":"Cevennes - Bergers"},{"type":"velib","lat":48.841249336041,"lng":2.2883866008495,"label":"Félix Faure - Convention"}],"dpe":{"energy_class":"F","ghg_class":"C"},"images":["https://images.unsplash.com/photo-1567496898669-ee935f5f647a?w=1200&h=750&q=66&auto=format&fit=crop&crop=entropy","https://images.unsplash.com/photo-1560448204-e02f11c3d0e2?w=1200&h=750&q=66&auto=format&fit=crop&crop=entropy","https://images.unsplash.com/photo-1493663284031-b7e3aefcae8e?w=1200&h=750&q=66&auto=format&fit=crop&crop=entropy","https://images.unsplash.com/photo-1502005097973-6a7082348e28?w=1200&h=750&q=66&auto=format&fit=crop&crop=entropy","https://images.unsplash.com/photo-1540518614846-7eded433c457?w=1200&h=750&q=66&auto=format&fit=crop&crop=entropy"],"thumb":"https://images.unsplash.com/photo-1567496898669-ee935f5f647a?w=480&h=300&q=55&auto=format&fit=crop&crop=entropy","score":{"opportunity_score":37,"value_score":52,"yield_score":80,"negotiation_score":1,"liquidity_score":78,"gentrification_score":52},"signals":{"price_drops":0,"total_drop_percent":0,"long_time_on_market":false,"explanations":["3.0% net rental yield (gross 4.4%)","3 days on market","Energy class F — rental restrictions apply"]},"source":"dvf","url":"https://app.dvf.etalab.gouv.fr/"}