{"id":"dvf-2024-1209649","address":{"raw":"8 Pas Cottin, 75018 Paris","normalized":"8 Passage Cottin 75018 Paris","lat":48.887834,"lng":2.346189,"district":"75018"},"characteristics":{"surface_m2":26,"rooms":1,"floor":2},"pricing":{"current_price":184500,"price_per_m2":7096,"initial_price":184500},"timeline":{"first_seen":"2026-06-29","last_seen":"2026-07-02","days_on_market":3},"price_history":[{"date":"2026-06-29","price":184500,"source":"dvf"}],"status":"active","dvf":{"avg_price_m2_100m":9325,"avg_price_m2_500m":9311,"comparable_sales":[{"price":165000,"date":"2024-09-23","distance_m":9},{"price":202000,"date":"2024-07-10","distance_m":9},{"price":165000,"date":"2024-11-14","distance_m":16},{"price":224000,"date":"2024-12-11","distance_m":16},{"price":325000,"date":"2024-04-29","distance_m":20},{"price":450000,"date":"2024-06-27","distance_m":20},{"price":450000,"date":"2024-10-10","distance_m":20},{"price":245840,"date":"2024-07-03","distance_m":30}]},"risks":{"flood":0.1,"clay":0.19,"noise":0.44},"transport_score":91,"neighborhood":{"walk_score":86,"schools_500m":16,"income":26000,"velib_400m":7,"trees_150m":130,"amenities":{"food":23,"health":3,"green":2,"culture":7}},"rent":{"ref_m2":28,"max_m2":33.6,"min_m2":19.6,"quartier":"Clignancourt","monthly_est":874},"investment":{"gross_yield":5.68,"net_yield":4.17,"ppm2_percentile":14,"negotiation_margin_pct":0.1,"dpe_risk_score":75,"value_add_flag":false},"pois":[{"type":"transport","lat":48.88671096804134,"lng":2.349559430194618,"label":"Château Rouge · METRO 4"},{"type":"transport","lat":48.885661112701506,"lng":2.3425496532584886,"label":"Funiculaire Montmartre Station Haute · FUNICULAIRE MONTMARTRE"},{"type":"transport","lat":48.884680973727825,"lng":2.342660037336352,"label":"Funiculaire Montmartre Station Basse · FUNICULAIRE MONTMARTRE"},{"type":"transport","lat":48.89143955488239,"lng":2.349627158227453,"label":"Marcadet-Poissonniers · METRO 4"},{"type":"transport","lat":48.89146500033268,"lng":2.3498154532183615,"label":"Marcadet-Poissonniers · METRO 12"},{"type":"park","lat":48.88780908893412,"lng":2.3437300208846246,"label":"PARC MARCEL BLEUNSTEIN-BLANCHET DIT PARC DE LA TURLURE"},{"type":"park","lat":48.887505723723464,"lng":2.3418002069429624,"label":"SQUARE CLAUDE CHARPENTIER"},{"type":"park","lat":48.885395633655946,"lng":2.343638652502033,"label":"SQUARE LOUISE MICHEL"},{"type":"velib","lat":48.888735896947,"lng":2.3469526693225,"label":"Custine - Ramey"},{"type":"velib","lat":48.88511992309783,"lng":2.34719488842051,"label":"Clignancourt - Sofia"},{"type":"velib","lat":48.890875,"lng":2.3449019,"label":"Marcadet - Ramey"},{"type":"velib","lat":48.890451120965,"lng":2.3490573929687,"label":"Marcadet - Barbès"}],"dpe":{"energy_class":"D","ghg_class":"D"},"images":["https://images.unsplash.com/photo-1505691938895-1758d7feb511?w=1200&h=750&q=66&auto=format&fit=crop&crop=entropy","https://images.unsplash.com/photo-1556912173-3bb406ef7e77?w=1200&h=750&q=66&auto=format&fit=crop&crop=entropy","https://images.unsplash.com/photo-1567496898669-ee935f5f647a?w=1200&h=750&q=66&auto=format&fit=crop&crop=entropy","https://images.unsplash.com/photo-1554995207-c18c203602cb?w=1200&h=750&q=66&auto=format&fit=crop&crop=entropy","https://images.unsplash.com/photo-1560448204-e02f11c3d0e2?w=1200&h=750&q=66&auto=format&fit=crop&crop=entropy"],"thumb":"https://images.unsplash.com/photo-1505691938895-1758d7feb511?w=480&h=300&q=55&auto=format&fit=crop&crop=entropy","score":{"opportunity_score":67,"value_score":100,"yield_score":100,"negotiation_score":1,"liquidity_score":79,"gentrification_score":44},"signals":{"price_drops":0,"total_drop_percent":0,"long_time_on_market":false,"explanations":["4.2% net rental yield (gross 5.7%)","23.9% below DVF average (9 319 €/m²)","Cheaper than 86% of the arrondissement","3 days on market"]},"source":"dvf","url":"https://app.dvf.etalab.gouv.fr/"}