{"id":"dvf-2024-1228520","address":{"raw":"4 Vla Frederic Mistral, 75015 Paris","normalized":"4 Villa Frédéric Mistral 75015 Paris","lat":48.838625,"lng":2.285693,"district":"75015"},"characteristics":{"surface_m2":69,"rooms":3,"floor":3},"pricing":{"current_price":660000,"price_per_m2":9565,"initial_price":660000},"timeline":{"first_seen":"2026-06-29","last_seen":"2026-07-01","days_on_market":2},"price_history":[{"date":"2026-06-29","price":660000,"source":"dvf"}],"status":"active","dvf":{"avg_price_m2_100m":9412,"avg_price_m2_500m":9274,"comparable_sales":[{"price":850000,"date":"2024-03-20","distance_m":19},{"price":1001910,"date":"2024-04-22","distance_m":56},{"price":835850,"date":"2024-06-21","distance_m":56},{"price":296550,"date":"2024-12-20","distance_m":74},{"price":1190000,"date":"2024-03-27","distance_m":76},{"price":360000,"date":"2024-09-04","distance_m":76},{"price":280000,"date":"2024-06-07","distance_m":83},{"price":449232,"date":"2024-07-29","distance_m":83}]},"risks":{"flood":0.14,"clay":0.42,"noise":0.4},"transport_score":84,"neighborhood":{"walk_score":85,"schools_500m":19,"income":33000,"velib_400m":6,"trees_150m":115,"amenities":{"food":19,"health":7,"green":0,"culture":5}},"rent":{"ref_m2":24.6,"max_m2":29.5,"min_m2":17.2,"quartier":"Javel 15Art","monthly_est":2036},"investment":{"gross_yield":3.7,"net_yield":2.33,"ppm2_percentile":46,"negotiation_margin_pct":0.1,"dpe_risk_score":75,"value_add_flag":false},"pois":[{"type":"transport","lat":48.83873485883676,"lng":2.2821433781708915,"label":"Lourmel · METRO 8"},{"type":"transport","lat":48.84109405724891,"lng":2.287945766487378,"label":"Boucicaut · METRO 8"},{"type":"transport","lat":48.83435816545286,"lng":2.2840072433034186,"label":"Desnouettes · TRAM 3a"},{"type":"transport","lat":48.83629530154249,"lng":2.278330259866024,"label":"Balard · METRO 8"},{"type":"transport","lat":48.83612298019267,"lng":2.2781191783109924,"label":"Balard · TRAM 3a"},{"type":"park","lat":48.83836035493192,"lng":2.2846419428489573,"label":"CIMETIERE DE VAUGIRARD"},{"type":"park","lat":48.839212662827066,"lng":2.2827837300039775,"label":"JARDIN ROSALIND FRANKLIN"},{"type":"park","lat":48.84109843112034,"lng":2.285714860588908,"label":"JARDIN DURANTON"},{"type":"velib","lat":48.83796366147599,"lng":2.2877392172813416,"label":"Lecourbe - Jean Maridor"},{"type":"velib","lat":48.83671783466264,"lng":2.283664085650799,"label":"Vasco de Gama"},{"type":"velib","lat":48.83868901709515,"lng":2.2818081825971603,"label":"Félix Faure - Lourmel"},{"type":"velib","lat":48.841249336041,"lng":2.2883866008495,"label":"Félix Faure - Convention"}],"dpe":{"energy_class":"D","ghg_class":"D"},"images":["https://images.unsplash.com/photo-1522708323590-d24dbb6b0267?w=1200&h=750&q=66&auto=format&fit=crop&crop=entropy","https://images.unsplash.com/photo-1540518614846-7eded433c457?w=1200&h=750&q=66&auto=format&fit=crop&crop=entropy","https://images.unsplash.com/photo-1567496898669-ee935f5f647a?w=1200&h=750&q=66&auto=format&fit=crop&crop=entropy","https://images.unsplash.com/photo-1505691938895-1758d7feb511?w=1200&h=750&q=66&auto=format&fit=crop&crop=entropy","https://images.unsplash.com/photo-1560448204-e02f11c3d0e2?w=1200&h=750&q=66&auto=format&fit=crop&crop=entropy"],"thumb":"https://images.unsplash.com/photo-1522708323590-d24dbb6b0267?w=480&h=300&q=55&auto=format&fit=crop&crop=entropy","score":{"opportunity_score":41,"value_score":54,"yield_score":47,"negotiation_score":0,"liquidity_score":75,"gentrification_score":52},"signals":{"price_drops":0,"total_drop_percent":0,"long_time_on_market":false,"explanations":["2.3% net rental yield (gross 3.7%)","2.2% above DVF average","2 days on market"]},"source":"dvf","url":"https://app.dvf.etalab.gouv.fr/"}