{"id":"dvf-2024-1229271","address":{"raw":"73 Rue Saint Charles, 75015 Paris","normalized":"73 Rue Saint-Charles 75015 Paris","lat":48.847814,"lng":2.286665,"district":"75015"},"characteristics":{"surface_m2":25,"rooms":1,"floor":3},"pricing":{"current_price":214000,"price_per_m2":8560,"initial_price":214000},"timeline":{"first_seen":"2026-06-29","last_seen":"2026-07-01","days_on_market":2},"price_history":[{"date":"2026-06-29","price":214000,"source":"dvf"}],"status":"active","dvf":{"avg_price_m2_100m":10792,"avg_price_m2_500m":9787,"comparable_sales":[{"price":2506000,"date":"2024-03-15","distance_m":25},{"price":715000,"date":"2024-02-08","distance_m":59},{"price":315000,"date":"2024-04-26","distance_m":59},{"price":970000,"date":"2024-06-11","distance_m":59},{"price":935000,"date":"2024-07-13","distance_m":59},{"price":232500,"date":"2024-03-21","distance_m":68},{"price":295000,"date":"2024-10-14","distance_m":70},{"price":238000,"date":"2024-01-24","distance_m":74}]},"risks":{"flood":0.61,"clay":0.29,"noise":0.34},"transport_score":76,"neighborhood":{"walk_score":94,"schools_500m":25,"income":33000,"velib_400m":7,"trees_150m":60,"amenities":{"food":26,"health":6,"green":4,"culture":5}},"rent":{"ref_m2":29.4,"max_m2":35.3,"min_m2":20.6,"quartier":"Grenelle","monthly_est":882},"investment":{"gross_yield":4.95,"net_yield":3.49,"ppm2_percentile":26,"negotiation_margin_pct":0.1,"dpe_risk_score":10,"value_add_flag":false},"pois":[{"type":"transport","lat":48.8465346367312,"lng":2.2859992220590075,"label":"Charles Michels · METRO 10"},{"type":"transport","lat":48.85043454901342,"lng":2.2936124371878033,"label":"Dupleix · METRO 6"},{"type":"transport","lat":48.84699703133652,"lng":2.2950191304763616,"label":"Avenue Émile Zola · METRO 10"},{"type":"transport","lat":48.84479476371181,"lng":2.293951963648718,"label":"Commerce · METRO 8"},{"type":"transport","lat":48.846157204832465,"lng":2.278400386366102,"label":"Javel - André Citroën · METRO 10"},{"type":"park","lat":48.84933996284967,"lng":2.2846053342787487,"label":"ESPACE VERT DU TEP RENE ET ANDRE MOURLON"},{"type":"park","lat":48.847608150163836,"lng":2.2835381197366322,"label":"JARDIN PARTAGE DE BEAUGRENELLE"},{"type":"park","lat":48.85086786201947,"lng":2.283986324896567,"label":"PROMENADE DU QUAI DE GRENELLE"},{"type":"velib","lat":48.84791249714942,"lng":2.2843059897422795,"label":"Emeriau - Beaugrenelle"},{"type":"velib","lat":48.846401,"lng":2.28502,"label":"Place Charles Michels"},{"type":"velib","lat":48.8482070397636,"lng":2.2898658737540245,"label":"Théâtre - Lourmel"},{"type":"velib","lat":48.844974,"lng":2.287283,"label":"Lourmel - Marie Skobtsov"}],"dpe":{"energy_class":"G","ghg_class":"C"},"images":["https://images.unsplash.com/photo-1484154218962-a197022b5858?w=1200&h=750&q=66&auto=format&fit=crop&crop=entropy","https://images.unsplash.com/photo-1522708323590-d24dbb6b0267?w=1200&h=750&q=66&auto=format&fit=crop&crop=entropy","https://images.unsplash.com/photo-1493809842364-78817add7ffb?w=1200&h=750&q=66&auto=format&fit=crop&crop=entropy","https://images.unsplash.com/photo-1502005097973-6a7082348e28?w=1200&h=750&q=66&auto=format&fit=crop&crop=entropy","https://images.unsplash.com/photo-1556912173-3bb406ef7e77?w=1200&h=750&q=66&auto=format&fit=crop&crop=entropy"],"thumb":"https://images.unsplash.com/photo-1484154218962-a197022b5858?w=480&h=300&q=55&auto=format&fit=crop&crop=entropy","score":{"opportunity_score":41,"value_score":94,"yield_score":100,"negotiation_score":0,"liquidity_score":79,"gentrification_score":52},"signals":{"price_drops":0,"total_drop_percent":0,"long_time_on_market":false,"explanations":["3.5% net rental yield (gross 5.0%)","17.6% below DVF average (10 390 €/m²)","Cheaper than 74% of the arrondissement","2 days on market","Energy class G — rental restrictions apply"]},"source":"dvf","url":"https://app.dvf.etalab.gouv.fr/"}