{"id":"dvf-2024-1209558","address":{"raw":"7 Rue Du Capitaine Ferber, 75020 Paris","normalized":"7 Rue du Capitaine Ferber 75020 Paris","lat":48.865426,"lng":2.405197,"district":"75020"},"characteristics":{"surface_m2":40,"rooms":2,"floor":2},"pricing":{"current_price":295000,"price_per_m2":7375,"initial_price":295000},"timeline":{"first_seen":"2026-06-29","last_seen":"2026-07-01","days_on_market":2},"price_history":[{"date":"2026-06-29","price":295000,"source":"dvf"}],"status":"active","dvf":{"avg_price_m2_100m":9150,"avg_price_m2_500m":8473,"comparable_sales":[{"price":140000,"date":"2024-12-26","distance_m":10},{"price":598000,"date":"2024-06-10","distance_m":13},{"price":299500,"date":"2024-09-13","distance_m":18},{"price":195000,"date":"2024-07-15","distance_m":37},{"price":380000,"date":"2024-10-30","distance_m":38},{"price":645400,"date":"2024-11-29","distance_m":38},{"price":270000,"date":"2024-11-20","distance_m":40},{"price":223500,"date":"2024-02-23","distance_m":66}]},"risks":{"flood":0.09,"clay":0.29,"noise":0.34},"transport_score":95,"neighborhood":{"walk_score":84,"schools_500m":14,"income":25000,"velib_400m":4,"trees_150m":108,"amenities":{"food":24,"health":5,"green":2,"culture":3}},"rent":{"ref_m2":23.4,"max_m2":28.1,"min_m2":16.4,"quartier":"Saint-Fargeau","monthly_est":1124},"investment":{"gross_yield":4.57,"net_yield":3.14,"ppm2_percentile":26,"negotiation_margin_pct":0.1,"dpe_risk_score":88,"value_add_flag":false},"pois":[{"type":"transport","lat":48.86460037337562,"lng":2.408031037075815,"label":"Porte de Bagnolet · METRO 3"},{"type":"transport","lat":48.86343374196473,"lng":2.4088324651439725,"label":"Porte de Bagnolet · TRAM 3b"},{"type":"transport","lat":48.867521357214756,"lng":2.4089789397445087,"label":"Séverine · TRAM 3b"},{"type":"transport","lat":48.86844016327547,"lng":2.401561712742542,"label":"Pelleport · METRO 3bis"},{"type":"transport","lat":48.86516343488149,"lng":2.3987465934425916,"label":"Gambetta · METRO 3bis"},{"type":"park","lat":48.86808211974704,"lng":2.4025345062742822,"label":"JARDINIERES RAE RUE SURMELIN"},{"type":"park","lat":48.865659072684494,"lng":2.4101503039278134,"label":"SQUARE SEVERINE"},{"type":"park","lat":48.86552531021967,"lng":2.400215809614939,"label":"SQUARE EDOUARD VAILLANT"},{"type":"velib","lat":48.865000818477,"lng":2.4039808363775,"label":"Pelleport - Belgrand"},{"type":"velib","lat":48.86746195408435,"lng":2.405970990657807,"label":"Lieutenant Chauré - Etienne Marey"},{"type":"velib","lat":48.864707139122984,"lng":2.408344637349607,"label":"Porte de Bagnolet"},{"type":"velib","lat":48.86254398506782,"lng":2.403290458023548,"label":"Indre - Prairies"}],"dpe":{"energy_class":"C","ghg_class":"C"},"images":["https://images.unsplash.com/photo-1502672260266-1c1ef2d93688?w=1200&h=750&q=66&auto=format&fit=crop&crop=entropy","https://images.unsplash.com/photo-1484154218962-a197022b5858?w=1200&h=750&q=66&auto=format&fit=crop&crop=entropy","https://images.unsplash.com/photo-1493663284031-b7e3aefcae8e?w=1200&h=750&q=66&auto=format&fit=crop&crop=entropy","https://images.unsplash.com/photo-1493809842364-78817add7ffb?w=1200&h=750&q=66&auto=format&fit=crop&crop=entropy","https://images.unsplash.com/photo-1556912173-3bb406ef7e77?w=1200&h=750&q=66&auto=format&fit=crop&crop=entropy"],"thumb":"https://images.unsplash.com/photo-1502672260266-1c1ef2d93688?w=480&h=300&q=55&auto=format&fit=crop&crop=entropy","score":{"opportunity_score":65,"value_score":92,"yield_score":87,"negotiation_score":0,"liquidity_score":74,"gentrification_score":45},"signals":{"price_drops":0,"total_drop_percent":0,"long_time_on_market":false,"explanations":["3.1% net rental yield (gross 4.6%)","16.9% below DVF average (8 879 €/m²)","Cheaper than 74% of the arrondissement","2 days on market"]},"source":"dvf","url":"https://app.dvf.etalab.gouv.fr/"}