{"id":"dvf-2024-1229041","address":{"raw":"4 Av Rapp, 75007 Paris","normalized":"4 Avenue Rapp 75007 Paris","lat":48.860772,"lng":2.300872,"district":"75007"},"characteristics":{"surface_m2":95,"rooms":4,"floor":1},"pricing":{"current_price":1754897,"price_per_m2":18473,"initial_price":1754897},"timeline":{"first_seen":"2026-06-29","last_seen":"2026-07-02","days_on_market":3},"price_history":[{"date":"2026-06-29","price":1754897,"source":"dvf"}],"status":"active","dvf":{"avg_price_m2_100m":13347,"avg_price_m2_500m":14412,"comparable_sales":[{"price":1202279,"date":"2024-07-30","distance_m":16},{"price":1031000,"date":"2024-09-24","distance_m":21},{"price":900000,"date":"2024-12-20","distance_m":53},{"price":627000,"date":"2024-07-04","distance_m":60},{"price":1250000,"date":"2024-03-22","distance_m":69},{"price":1290000,"date":"2024-04-08","distance_m":78},{"price":571240,"date":"2024-08-23","distance_m":81},{"price":1519100,"date":"2024-09-19","distance_m":81}]},"risks":{"flood":0.11,"clay":0.38,"noise":0.36},"transport_score":72,"neighborhood":{"walk_score":85,"schools_500m":17,"income":47000,"velib_400m":3,"trees_150m":52,"amenities":{"food":16,"health":4,"green":5,"culture":4}},"rent":{"ref_m2":29.4,"max_m2":35.3,"min_m2":20.6,"quartier":"Gros-Caillou","monthly_est":3353},"investment":{"gross_yield":2.29,"net_yield":1.02,"ppm2_percentile":86,"negotiation_margin_pct":0.1,"dpe_risk_score":55,"value_add_flag":false},"pois":[{"type":"transport","lat":48.86266245169435,"lng":2.300989969386769,"label":"Pont de l'Alma · RER C"},{"type":"transport","lat":48.86476684497177,"lng":2.3009910034955845,"label":"Alma-Marceau · METRO 9"},{"type":"transport","lat":48.8647940649002,"lng":2.2941620153942797,"label":"Iéna · METRO 9"},{"type":"park","lat":48.863111408605626,"lng":2.304656082944712,"label":"ARCHIPEL DES BERGES DE LA SEINE - NIKI DE SAINT-PHALLE"},{"type":"park","lat":48.862698460381544,"lng":2.3054138989868385,"label":"ESPLANADE HABIB BOURGUIBA"},{"type":"park","lat":48.86050683508293,"lng":2.295274962656048,"label":"PROMENADE D'AUSTRALIE 7E"},{"type":"velib","lat":48.858102885107,"lng":2.3004072904587,"label":"Rapp - Place du Général Gouraud"},{"type":"velib","lat":48.858651709526,"lng":2.3037165802346,"label":"Bosquet - Saint-Dominique"},{"type":"velib","lat":48.860897797941,"lng":2.295599598447,"label":"Bourdonnais - Tour Eiffel"}],"dpe":{"energy_class":"E","ghg_class":"E"},"images":["https://images.unsplash.com/photo-1522708323590-d24dbb6b0267?w=1200&h=750&q=66&auto=format&fit=crop&crop=entropy","https://images.unsplash.com/photo-1502672260266-1c1ef2d93688?w=1200&h=750&q=66&auto=format&fit=crop&crop=entropy","https://images.unsplash.com/photo-1505691938895-1758d7feb511?w=1200&h=750&q=66&auto=format&fit=crop&crop=entropy","https://images.unsplash.com/photo-1560448204-e02f11c3d0e2?w=1200&h=750&q=66&auto=format&fit=crop&crop=entropy","https://images.unsplash.com/photo-1502005097973-6a7082348e28?w=1200&h=750&q=66&auto=format&fit=crop&crop=entropy"],"thumb":"https://images.unsplash.com/photo-1522708323590-d24dbb6b0267?w=480&h=300&q=55&auto=format&fit=crop&crop=entropy","score":{"opportunity_score":17,"value_score":14,"yield_score":0,"negotiation_score":1,"liquidity_score":79,"gentrification_score":56},"signals":{"price_drops":0,"total_drop_percent":0,"long_time_on_market":false,"explanations":["1.0% net rental yield (gross 2.3%)","34.1% above DVF average","3 days on market"]},"source":"dvf","url":"https://app.dvf.etalab.gouv.fr/"}