{"id":"dvf-2024-1210294","address":{"raw":"18 Rue Saint-Sauveur, 75002 Paris","normalized":"18 Rue Saint-Sauveur 75002 Paris","lat":48.866127,"lng":2.348382,"district":"75002"},"characteristics":{"surface_m2":80,"rooms":3,"floor":0},"pricing":{"current_price":735000,"price_per_m2":9188,"initial_price":735000},"timeline":{"first_seen":"2026-06-29","last_seen":"2026-07-02","days_on_market":3},"price_history":[{"date":"2026-06-29","price":735000,"source":"dvf"}],"status":"active","dvf":{"avg_price_m2_100m":10978,"avg_price_m2_500m":11634,"comparable_sales":[{"price":187000,"date":"2024-05-14","distance_m":19},{"price":626000,"date":"2024-05-15","distance_m":25},{"price":100000,"date":"2024-02-05","distance_m":32},{"price":349200,"date":"2024-10-07","distance_m":32},{"price":320000,"date":"2024-06-12","distance_m":40},{"price":560000,"date":"2024-04-12","distance_m":57},{"price":561900,"date":"2024-02-14","distance_m":58},{"price":347500,"date":"2024-06-04","distance_m":63}]},"risks":{"flood":0.19,"clay":0.4,"noise":0.33},"transport_score":96,"neighborhood":{"walk_score":83,"schools_500m":13,"income":34000,"velib_400m":14,"trees_150m":67,"amenities":{"food":18,"health":3,"green":4,"culture":2}},"rent":{"ref_m2":26.2,"max_m2":31.4,"min_m2":18.3,"quartier":"Bonne-Nouvelle","monthly_est":2512},"investment":{"gross_yield":4.1,"net_yield":2.7,"ppm2_percentile":16,"negotiation_margin_pct":0.1,"dpe_risk_score":10,"value_add_flag":false},"pois":[{"type":"transport","lat":48.86751302499845,"lng":2.346552336353212,"label":"Sentier · METRO 3"},{"type":"transport","lat":48.8664963437902,"lng":2.3513589155329915,"label":"Réaumur Sébastopol · METRO 3"},{"type":"transport","lat":48.863972478817246,"lng":2.3496175641598405,"label":"Étienne Marcel · METRO 4"},{"type":"transport","lat":48.86673355595668,"lng":2.352829461254394,"label":"Réaumur Sébastopol · METRO 4"},{"type":"transport","lat":48.86251523497548,"lng":2.345785860039181,"label":"Les Halles · METRO 4"},{"type":"park","lat":48.867071896548595,"lng":2.348286168102479,"label":"JARDINET LAZAREFF"},{"type":"park","lat":48.86673388844411,"lng":2.3498762921994794,"label":"JARDINET REAUMUR"},{"type":"park","lat":48.86638773075733,"lng":2.3466418776593287,"label":"JARDIN PARTAGE LE JARDIN DE BONNE"},{"type":"velib","lat":48.867141720746,"lng":2.3483933508396,"label":"Square Pierre Lazareff"},{"type":"velib","lat":48.8661116315789,"lng":2.3507790675507594,"label":"Saint-Denis - Réaumur"},{"type":"velib","lat":48.86785342111862,"lng":2.349364310503006,"label":"Caire - Dussoubs"},{"type":"velib","lat":48.864053304653766,"lng":2.347587011754513,"label":"Française - Etienne Marcel"}],"dpe":{"energy_class":"G","ghg_class":"C"},"images":["https://images.unsplash.com/photo-1560448204-e02f11c3d0e2?w=1200&h=750&q=66&auto=format&fit=crop&crop=entropy","https://images.unsplash.com/photo-1567496898669-ee935f5f647a?w=1200&h=750&q=66&auto=format&fit=crop&crop=entropy","https://images.unsplash.com/photo-1522708323590-d24dbb6b0267?w=1200&h=750&q=66&auto=format&fit=crop&crop=entropy","https://images.unsplash.com/photo-1556912173-3bb406ef7e77?w=1200&h=750&q=66&auto=format&fit=crop&crop=entropy","https://images.unsplash.com/photo-1505691938895-1758d7feb511?w=1200&h=750&q=66&auto=format&fit=crop&crop=entropy"],"thumb":"https://images.unsplash.com/photo-1560448204-e02f11c3d0e2?w=480&h=300&q=55&auto=format&fit=crop&crop=entropy","score":{"opportunity_score":36,"value_score":96,"yield_score":66,"negotiation_score":1,"liquidity_score":77,"gentrification_score":47},"signals":{"price_drops":0,"total_drop_percent":0,"long_time_on_market":false,"explanations":["2.7% net rental yield (gross 4.1%)","18.3% below DVF average (11 240 €/m²)","Cheaper than 84% of the arrondissement","3 days on market","Energy class G — rental restrictions apply"]},"source":"dvf","url":"https://app.dvf.etalab.gouv.fr/"}