{"id":"dvf-2024-1210073","address":{"raw":"89 Rue Saint Fargeau, 75020 Paris","normalized":"89 Rue Saint-Fargeau 75020 Paris","lat":48.872704,"lng":2.407598,"district":"75020"},"characteristics":{"surface_m2":53,"rooms":2,"floor":1},"pricing":{"current_price":345000,"price_per_m2":6509,"initial_price":345000},"timeline":{"first_seen":"2026-06-29","last_seen":"2026-07-02","days_on_market":3},"price_history":[{"date":"2026-06-29","price":345000,"source":"dvf"}],"status":"active","dvf":{"avg_price_m2_100m":7641,"avg_price_m2_500m":7995,"comparable_sales":[{"price":250000,"date":"2024-01-09","distance_m":50},{"price":351000,"date":"2024-03-27","distance_m":67},{"price":246250,"date":"2024-03-26","distance_m":86},{"price":607097,"date":"2024-02-08","distance_m":108},{"price":250000,"date":"2024-06-14","distance_m":108},{"price":539000,"date":"2024-06-26","distance_m":108},{"price":485900,"date":"2024-08-05","distance_m":108},{"price":480000,"date":"2024-08-02","distance_m":108}]},"risks":{"flood":0.09,"clay":0.31,"noise":0.35},"transport_score":100,"neighborhood":{"walk_score":86,"schools_500m":11,"income":25000,"velib_400m":4,"trees_150m":100,"amenities":{"food":29,"health":6,"green":3,"culture":2}},"rent":{"ref_m2":23.4,"max_m2":28.1,"min_m2":16.4,"quartier":"Saint-Fargeau","monthly_est":1489},"investment":{"gross_yield":5.18,"net_yield":3.7,"ppm2_percentile":4,"negotiation_margin_pct":0.1,"dpe_risk_score":88,"value_add_flag":false},"pois":[{"type":"transport","lat":48.872097029931695,"lng":2.40862005517699,"label":"Adrienne Bolland · TRAM 3b"},{"type":"transport","lat":48.87210144213156,"lng":2.4045149423791043,"label":"Saint-Fargeau · METRO 3bis"},{"type":"transport","lat":48.87663081498978,"lng":2.406999582693831,"label":"Porte des Lilas · TRAM 3b"},{"type":"transport","lat":48.87711051176337,"lng":2.40672924554309,"label":"Porte des Lilas · METRO 3bis"},{"type":"transport","lat":48.87717481930548,"lng":2.406480156998486,"label":"Porte des Lilas · METRO 11"},{"type":"park","lat":48.87183204009824,"lng":2.4057848381729183,"label":"JARDIN PAULE MINCK"},{"type":"park","lat":48.872926095046175,"lng":2.411891834714824,"label":"SQUARE DE LA RUE LEON FRAPIE"},{"type":"park","lat":48.87087537702194,"lng":2.411365605240908,"label":"JARDIN PARTAGE DES BOULISTES DE MENILMONTANT"},{"type":"velib","lat":48.87266656122256,"lng":2.407912909984589,"label":"Saint-Fargeau - Mortier"},{"type":"velib","lat":48.870493041975,"lng":2.404957212224,"label":"Haxo - Darcy"},{"type":"velib","lat":48.871244610447015,"lng":2.4039056897163396,"label":"Gambetta - Saint Fargeau"},{"type":"velib","lat":48.875337902264,"lng":2.4059921130538,"label":"Gambetta - Tourelles"}],"dpe":{"energy_class":"C","ghg_class":"A"},"images":["https://images.unsplash.com/photo-1493809842364-78817add7ffb?w=1200&h=750&q=66&auto=format&fit=crop&crop=entropy","https://images.unsplash.com/photo-1493663284031-b7e3aefcae8e?w=1200&h=750&q=66&auto=format&fit=crop&crop=entropy","https://images.unsplash.com/photo-1502672260266-1c1ef2d93688?w=1200&h=750&q=66&auto=format&fit=crop&crop=entropy","https://images.unsplash.com/photo-1522708323590-d24dbb6b0267?w=1200&h=750&q=66&auto=format&fit=crop&crop=entropy","https://images.unsplash.com/photo-1484154218962-a197022b5858?w=1200&h=750&q=66&auto=format&fit=crop&crop=entropy"],"thumb":"https://images.unsplash.com/photo-1493809842364-78817add7ffb?w=480&h=300&q=55&auto=format&fit=crop&crop=entropy","score":{"opportunity_score":70,"value_score":96,"yield_score":100,"negotiation_score":1,"liquidity_score":75,"gentrification_score":45},"signals":{"price_drops":0,"total_drop_percent":0,"long_time_on_market":false,"explanations":["3.7% net rental yield (gross 5.2%)","16.4% below DVF average (7 783 €/m²)","Cheaper than 96% of the arrondissement","3 days on market"]},"source":"dvf","url":"https://app.dvf.etalab.gouv.fr/"}