{"id":"dvf-2024-1209761","address":{"raw":"50 Rue Notre-Dame De Nazareth, 75003 Paris","normalized":"50 Rue Notre-Dame de Nazareth 75003 Paris","lat":48.867577,"lng":2.357839,"district":"75003"},"characteristics":{"surface_m2":9,"rooms":1,"floor":1},"pricing":{"current_price":135000,"price_per_m2":15000,"initial_price":135000},"timeline":{"first_seen":"2026-06-29","last_seen":"2026-07-02","days_on_market":3},"price_history":[{"date":"2026-06-29","price":135000,"source":"dvf"}],"status":"active","dvf":{"avg_price_m2_100m":11031,"avg_price_m2_500m":11026,"comparable_sales":[{"price":640000,"date":"2024-05-07","distance_m":21},{"price":240000,"date":"2024-07-24","distance_m":45},{"price":327300,"date":"2024-09-11","distance_m":46},{"price":197980,"date":"2024-01-08","distance_m":47},{"price":257562,"date":"2024-01-29","distance_m":47},{"price":250000,"date":"2024-01-26","distance_m":47},{"price":250000,"date":"2024-06-24","distance_m":47},{"price":262500,"date":"2024-07-17","distance_m":47}]},"risks":{"flood":0.08,"clay":0.12,"noise":0.5},"transport_score":94,"neighborhood":{"walk_score":84,"schools_500m":13,"income":35000,"velib_400m":8,"trees_150m":71,"amenities":{"food":14,"health":6,"green":2,"culture":4}},"rent":{"ref_m2":32.9,"max_m2":39.5,"min_m2":23,"quartier":"Arts-et-Metiers","monthly_est":356},"investment":{"gross_yield":3.16,"net_yield":1.82,"ppm2_percentile":84,"negotiation_margin_pct":0.1,"dpe_risk_score":75,"value_add_flag":false},"pois":[{"type":"transport","lat":48.86558647849898,"lng":2.356736756794993,"label":"Arts et Métiers · METRO 3"},{"type":"transport","lat":48.866514461743,"lng":2.3608035032752688,"label":"Temple · METRO 3"},{"type":"transport","lat":48.86532271167806,"lng":2.356729869173701,"label":"Arts et Métiers · METRO 11"},{"type":"transport","lat":48.869628863778516,"lng":2.354468813108209,"label":"Strasbourg-Saint-Denis · METRO 4"},{"type":"transport","lat":48.86940219665552,"lng":2.3538187935928794,"label":"Strasbourg-Saint-Denis · METRO 9"},{"type":"park","lat":48.867169401176135,"lng":2.356601346270735,"label":"JARDIN PARTAGE DU CONSERVATOIRE DES ARTS ET METIERS"},{"type":"park","lat":48.86716495485072,"lng":2.35381777722813,"label":"SQUARE EMILE CHAUTEMPS"},{"type":"park","lat":48.86445796617997,"lng":2.3607552645262286,"label":"SQUARE DU TEMPLE - ELIE WIESEL"},{"type":"velib","lat":48.86860172112996,"lng":2.35570102930069,"label":"Porte Saint-Martin"},{"type":"velib","lat":48.868769331741,"lng":2.3598745346052,"label":"René Boulanger - Lancry"},{"type":"velib","lat":48.86610337431,"lng":2.3596492409706,"label":"Sainte-Elisabeth - Turbigo"},{"type":"velib","lat":48.865574047531,"lng":2.3564198613167,"label":"Turbigo - Réaumur"}],"dpe":{"energy_class":"D","ghg_class":"B"},"images":["https://images.unsplash.com/photo-1567496898669-ee935f5f647a?w=1200&h=750&q=66&auto=format&fit=crop&crop=entropy","https://images.unsplash.com/photo-1540518614846-7eded433c457?w=1200&h=750&q=66&auto=format&fit=crop&crop=entropy","https://images.unsplash.com/photo-1554995207-c18c203602cb?w=1200&h=750&q=66&auto=format&fit=crop&crop=entropy","https://images.unsplash.com/photo-1484154218962-a197022b5858?w=1200&h=750&q=66&auto=format&fit=crop&crop=entropy","https://images.unsplash.com/photo-1505691938895-1758d7feb511?w=1200&h=750&q=66&auto=format&fit=crop&crop=entropy"],"thumb":"https://images.unsplash.com/photo-1567496898669-ee935f5f647a?w=480&h=300&q=55&auto=format&fit=crop&crop=entropy","score":{"opportunity_score":26,"value_score":16,"yield_score":21,"negotiation_score":1,"liquidity_score":89,"gentrification_score":46},"signals":{"price_drops":0,"total_drop_percent":0,"long_time_on_market":false,"explanations":["1.8% net rental yield (gross 3.2%)","36% above DVF average","3 days on market"]},"source":"dvf","url":"https://app.dvf.etalab.gouv.fr/"}