{"id":"dvf-2024-1228815","address":{"raw":"189 Bd Saint Germain, 75007 Paris","normalized":"189 Boulevard Saint-Germain 75007 Paris","lat":48.854807,"lng":2.328696,"district":"75007"},"characteristics":{"surface_m2":133,"rooms":3,"floor":1},"pricing":{"current_price":2828000,"price_per_m2":21263,"initial_price":2828000},"timeline":{"first_seen":"2026-06-29","last_seen":"2026-07-01","days_on_market":2},"price_history":[{"date":"2026-06-29","price":2828000,"source":"dvf"}],"status":"active","dvf":{"avg_price_m2_100m":16611,"avg_price_m2_500m":17563,"comparable_sales":[{"price":540000,"date":"2024-12-13","distance_m":49},{"price":4309000,"date":"2024-05-15","distance_m":65},{"price":3524000,"date":"2024-09-20","distance_m":91},{"price":855345,"date":"2024-11-29","distance_m":91},{"price":1600000,"date":"2024-04-30","distance_m":96},{"price":1135000,"date":"2024-09-25","distance_m":96},{"price":3280000,"date":"2024-10-17","distance_m":116},{"price":297700,"date":"2024-06-18","distance_m":124}]},"risks":{"flood":0.34,"clay":0.36,"noise":0.39},"transport_score":95,"neighborhood":{"walk_score":66,"schools_500m":9,"income":47000,"velib_400m":7,"trees_150m":61,"amenities":{"food":10,"health":1,"green":2,"culture":3}},"rent":{"ref_m2":28,"max_m2":33.6,"min_m2":19.6,"quartier":"Saint-Thomas-d'Aquin","monthly_est":4469},"investment":{"gross_yield":1.9,"net_yield":0.65,"ppm2_percentile":90,"negotiation_margin_pct":0.1,"dpe_risk_score":75,"value_add_flag":false},"pois":[{"type":"transport","lat":48.85519632481491,"lng":2.325815566511529,"label":"Rue du Bac · METRO 12"},{"type":"transport","lat":48.85176205249548,"lng":2.326822568897497,"label":"Sèvres-Babylone · METRO 12"},{"type":"transport","lat":48.853718934000206,"lng":2.3337761382184676,"label":"Saint-Germain-des-Prés · METRO 4"},{"type":"transport","lat":48.851071370372,"lng":2.3307007099542143,"label":"Saint-Sulpice · METRO 4"},{"type":"transport","lat":48.851031751239304,"lng":2.3261023128241907,"label":"Sèvres-Babylone · METRO 10"},{"type":"park","lat":48.854597182449275,"lng":2.330849197730943,"label":"SQUARE TARAS CHEVTCHENKO"},{"type":"park","lat":48.852767431563166,"lng":2.3280139556593817,"label":"SQUARE ROGER STEPHANE"},{"type":"park","lat":48.853872804912584,"lng":2.3336969565688905,"label":"JARDINET DU BOULEVARD SAINT-GERMAIN"},{"type":"velib","lat":48.853729675265,"lng":2.3300181032703,"label":"Saint Pères - Saint Germain"},{"type":"velib","lat":48.855628721101,"lng":2.3256602883339,"label":"Raspail - Bac"},{"type":"velib","lat":48.853147816545,"lng":2.3263905197382,"label":"Raspail - Varenne"},{"type":"velib","lat":48.852233164303,"lng":2.3266580700874,"label":"Raspail - Chomel"}],"dpe":{"energy_class":"D","ghg_class":"B"},"images":["https://images.unsplash.com/photo-1540518614846-7eded433c457?w=1200&h=750&q=66&auto=format&fit=crop&crop=entropy","https://images.unsplash.com/photo-1493663284031-b7e3aefcae8e?w=1200&h=750&q=66&auto=format&fit=crop&crop=entropy","https://images.unsplash.com/photo-1554995207-c18c203602cb?w=1200&h=750&q=66&auto=format&fit=crop&crop=entropy","https://images.unsplash.com/photo-1522708323590-d24dbb6b0267?w=1200&h=750&q=66&auto=format&fit=crop&crop=entropy","https://images.unsplash.com/photo-1484154218962-a197022b5858?w=1200&h=750&q=66&auto=format&fit=crop&crop=entropy"],"thumb":"https://images.unsplash.com/photo-1540518614846-7eded433c457?w=480&h=300&q=55&auto=format&fit=crop&crop=entropy","score":{"opportunity_score":18,"value_score":10,"yield_score":0,"negotiation_score":0,"liquidity_score":78,"gentrification_score":56},"signals":{"price_drops":0,"total_drop_percent":0,"long_time_on_market":false,"explanations":["0.7% net rental yield (gross 1.9%)","25.1% above DVF average","2 days on market"]},"source":"dvf","url":"https://app.dvf.etalab.gouv.fr/"}