{"id":"dvf-2024-1209523","address":{"raw":"56 Rue Ordener, 75018 Paris","normalized":"56 Rue Ordener 75018 Paris","lat":48.891994,"lng":2.347796,"district":"75018"},"characteristics":{"surface_m2":11,"rooms":1,"floor":1},"pricing":{"current_price":120000,"price_per_m2":10909,"initial_price":120000},"timeline":{"first_seen":"2026-06-29","last_seen":"2026-07-01","days_on_market":2},"price_history":[{"date":"2026-06-29","price":120000,"source":"dvf"}],"status":"active","dvf":{"avg_price_m2_100m":8946,"avg_price_m2_500m":8996,"comparable_sales":[{"price":474010,"date":"2024-03-27","distance_m":21},{"price":165000,"date":"2024-04-18","distance_m":21},{"price":340000,"date":"2024-05-13","distance_m":32},{"price":182000,"date":"2024-11-14","distance_m":32},{"price":250000,"date":"2024-06-12","distance_m":38},{"price":620800,"date":"2024-06-13","distance_m":38},{"price":159000,"date":"2024-10-23","distance_m":39},{"price":287000,"date":"2024-02-07","distance_m":41}]},"risks":{"flood":0.09,"clay":0.59,"noise":0.47},"transport_score":92,"neighborhood":{"walk_score":80,"schools_500m":22,"income":26000,"velib_400m":8,"trees_150m":102,"amenities":{"food":19,"health":0,"green":3,"culture":3}},"rent":{"ref_m2":28,"max_m2":33.6,"min_m2":19.6,"quartier":"Clignancourt","monthly_est":370},"investment":{"gross_yield":3.7,"net_yield":2.32,"ppm2_percentile":78,"negotiation_margin_pct":0.1,"dpe_risk_score":75,"value_add_flag":false},"pois":[{"type":"transport","lat":48.89143955488239,"lng":2.349627158227453,"label":"Marcadet-Poissonniers · METRO 4"},{"type":"transport","lat":48.89146500033268,"lng":2.3498154532183615,"label":"Marcadet-Poissonniers · METRO 12"},{"type":"transport","lat":48.892418922945716,"lng":2.3447646117383565,"label":"Jules Joffrin · METRO 12"},{"type":"transport","lat":48.894343848842425,"lng":2.347430779960205,"label":"Simplon · METRO 4"},{"type":"transport","lat":48.88671096804134,"lng":2.349559430194618,"label":"Château Rouge · METRO 4"},{"type":"park","lat":48.89303593945463,"lng":2.3465053663854976,"label":"SQUARE MAURICE KRIEGEL-VALRIMONT DIT SQUARE DE CLIGNANCOURT"},{"type":"park","lat":48.893061524696044,"lng":2.344994389355386,"label":"JARDINET DE L'EGLISE NOTRE DAME DE CLIGNANCOURT"},{"type":"park","lat":48.89271787651025,"lng":2.3447325560202446,"label":"JARDINET DE LA MAIRIE DU XVIIIEME"},{"type":"velib","lat":48.891457726153774,"lng":2.348636478060487,"label":"Clignancourt - Ordener"},{"type":"velib","lat":48.890451120965,"lng":2.3490573929687,"label":"Marcadet - Barbès"},{"type":"velib","lat":48.89374453351521,"lng":2.3476678133010864,"label":"Joseph Dijon - Ornano"},{"type":"velib","lat":48.890875,"lng":2.3449019,"label":"Marcadet - Ramey"}],"dpe":{"energy_class":"D","ghg_class":"B"},"images":["https://images.unsplash.com/photo-1540518614846-7eded433c457?w=1200&h=750&q=66&auto=format&fit=crop&crop=entropy","https://images.unsplash.com/photo-1484154218962-a197022b5858?w=1200&h=750&q=66&auto=format&fit=crop&crop=entropy","https://images.unsplash.com/photo-1522708323590-d24dbb6b0267?w=1200&h=750&q=66&auto=format&fit=crop&crop=entropy","https://images.unsplash.com/photo-1554995207-c18c203602cb?w=1200&h=750&q=66&auto=format&fit=crop&crop=entropy","https://images.unsplash.com/photo-1493663284031-b7e3aefcae8e?w=1200&h=750&q=66&auto=format&fit=crop&crop=entropy"],"thumb":"https://images.unsplash.com/photo-1540518614846-7eded433c457?w=480&h=300&q=55&auto=format&fit=crop&crop=entropy","score":{"opportunity_score":32,"value_score":22,"yield_score":47,"negotiation_score":0,"liquidity_score":78,"gentrification_score":44},"signals":{"price_drops":0,"total_drop_percent":0,"long_time_on_market":false,"explanations":["2.3% net rental yield (gross 3.7%)","21.7% above DVF average","2 days on market"]},"source":"dvf","url":"https://app.dvf.etalab.gouv.fr/"}