{"id":"dvf-2024-1228581","address":{"raw":"10 Rue Deparcieux, 75014 Paris","normalized":"10 Rue Deparcieux 75014 Paris","lat":48.836043,"lng":2.326221,"district":"75014"},"characteristics":{"surface_m2":110,"rooms":4,"floor":2},"pricing":{"current_price":1068000,"price_per_m2":9709,"initial_price":1068000},"timeline":{"first_seen":"2026-06-29","last_seen":"2026-07-02","days_on_market":3},"price_history":[{"date":"2026-06-29","price":1068000,"source":"dvf"}],"status":"active","dvf":{"avg_price_m2_100m":9077,"avg_price_m2_500m":10204,"comparable_sales":[{"price":200000,"date":"2024-11-29","distance_m":39},{"price":167000,"date":"2024-02-01","distance_m":43},{"price":124000,"date":"2024-02-26","distance_m":43},{"price":157492,"date":"2024-05-24","distance_m":58},{"price":320000,"date":"2024-09-12","distance_m":58},{"price":246000,"date":"2024-09-05","distance_m":58},{"price":210000,"date":"2024-01-31","distance_m":79},{"price":330000,"date":"2024-07-09","distance_m":79}]},"risks":{"flood":0.08,"clay":0.35,"noise":0.45},"transport_score":83,"neighborhood":{"walk_score":72,"schools_500m":18,"income":32000,"velib_400m":6,"trees_150m":130,"amenities":{"food":24,"health":0,"green":0,"culture":4}},"rent":{"ref_m2":21.2,"max_m2":25.4,"min_m2":14.8,"quartier":"Montparnasse","monthly_est":2794},"investment":{"gross_yield":3.14,"net_yield":1.8,"ppm2_percentile":50,"negotiation_margin_pct":0.1,"dpe_risk_score":30,"value_add_flag":false},"pois":[{"type":"transport","lat":48.838631646237154,"lng":2.322491748462238,"label":"Gaîté · METRO 13"},{"type":"transport","lat":48.83896428071056,"lng":2.3307541920862156,"label":"Raspail · METRO 6"},{"type":"transport","lat":48.83896428071056,"lng":2.3307541920862156,"label":"Raspail · METRO 4"},{"type":"transport","lat":48.83345085821352,"lng":2.331740130985349,"label":"Denfert-Rochereau · METRO 4"},{"type":"transport","lat":48.84066322929957,"lng":2.3263846107928465,"label":"Edgar Quinet · METRO 6"},{"type":"park","lat":48.83802734825188,"lng":2.327287003580539,"label":"CIMETIERE DU SUD DIT DU MONTPARNASSE"},{"type":"park","lat":48.83667372973764,"lng":2.3223654513451706,"label":"JARDIN DU MOULIN DES TROIS CORNETS"},{"type":"park","lat":48.834750049745466,"lng":2.3306074740152187,"label":"SQUARE GEORGES LAMARQUE"},{"type":"velib","lat":48.835064363954,"lng":2.323731449974,"label":"Maine - Liancourt"},{"type":"velib","lat":48.835147319625,"lng":2.3294411972165,"label":"Froidevaux - Boulard"},{"type":"velib","lat":48.83446472680611,"lng":2.3293386027216907,"label":"Boulard - Daguerre"},{"type":"velib","lat":48.837925263898,"lng":2.3225428909063,"label":"Maine - Jean Zay"}],"dpe":{"energy_class":"F","ghg_class":"F"},"images":["https://images.unsplash.com/photo-1493663284031-b7e3aefcae8e?w=1200&h=750&q=66&auto=format&fit=crop&crop=entropy","https://images.unsplash.com/photo-1560448204-e02f11c3d0e2?w=1200&h=750&q=66&auto=format&fit=crop&crop=entropy","https://images.unsplash.com/photo-1567496898669-ee935f5f647a?w=1200&h=750&q=66&auto=format&fit=crop&crop=entropy","https://images.unsplash.com/photo-1484154218962-a197022b5858?w=1200&h=750&q=66&auto=format&fit=crop&crop=entropy","https://images.unsplash.com/photo-1556912173-3bb406ef7e77?w=1200&h=750&q=66&auto=format&fit=crop&crop=entropy"],"thumb":"https://images.unsplash.com/photo-1493663284031-b7e3aefcae8e?w=480&h=300&q=55&auto=format&fit=crop&crop=entropy","score":{"opportunity_score":24,"value_score":50,"yield_score":20,"negotiation_score":1,"liquidity_score":67,"gentrification_score":51},"signals":{"price_drops":0,"total_drop_percent":0,"long_time_on_market":false,"explanations":["1.8% net rental yield (gross 3.1%)","1.9% above DVF average","3 days on market","Energy class F — rental restrictions apply"]},"source":"dvf","url":"https://app.dvf.etalab.gouv.fr/"}