{"id":"dvf-2024-1210186","address":{"raw":"157 Rue De Rome, 75017 Paris","normalized":"157 Rue de Rome 75017 Paris","lat":48.886812,"lng":2.315083,"district":"75017"},"characteristics":{"surface_m2":36,"rooms":2,"floor":4},"pricing":{"current_price":435000,"price_per_m2":12083,"initial_price":435000},"timeline":{"first_seen":"2026-06-29","last_seen":"2026-07-02","days_on_market":3},"price_history":[{"date":"2026-06-29","price":435000,"source":"dvf"}],"status":"active","dvf":{"avg_price_m2_100m":10052,"avg_price_m2_500m":10738,"comparable_sales":[{"price":171000,"date":"2024-04-30","distance_m":14},{"price":305000,"date":"2024-03-21","distance_m":21},{"price":410000,"date":"2024-01-29","distance_m":26},{"price":360000,"date":"2024-02-05","distance_m":26},{"price":390256,"date":"2024-03-19","distance_m":26},{"price":360000,"date":"2024-04-02","distance_m":26},{"price":360000,"date":"2024-08-28","distance_m":39},{"price":156000,"date":"2024-10-07","distance_m":49}]},"risks":{"flood":0.02,"clay":0.08,"noise":0.21},"transport_score":82,"neighborhood":{"walk_score":84,"schools_500m":16,"income":35000,"velib_400m":8,"trees_150m":51,"amenities":{"food":26,"health":7,"green":1,"culture":5}},"rent":{"ref_m2":26.3,"max_m2":31.6,"min_m2":18.4,"quartier":"Batignolles","monthly_est":1138},"investment":{"gross_yield":3.14,"net_yield":1.8,"ppm2_percentile":78,"negotiation_margin_pct":0.1,"dpe_risk_score":10,"value_add_flag":false},"pois":[{"type":"transport","lat":48.888220162764625,"lng":2.3137324515202713,"label":"Pont-Cardinet · TRAIN L"},{"type":"transport","lat":48.88956082831538,"lng":2.3151768973047844,"label":"Pont Cardinet · METRO 14"},{"type":"transport","lat":48.89058718661181,"lng":2.320174757151551,"label":"Brochant · METRO 13"},{"type":"transport","lat":48.88289191745414,"lng":2.309052264550479,"label":"Malesherbes · METRO 3"},{"type":"transport","lat":48.881094427166275,"lng":2.3147210047461946,"label":"Villiers · METRO 3"},{"type":"park","lat":48.887473606377604,"lng":2.3162853590971895,"label":"SQUARE DES BATIGNOLLES"},{"type":"velib","lat":48.88713901475306,"lng":2.314494143994255,"label":"Gare de Pont-Cardinet"},{"type":"velib","lat":48.885325169402904,"lng":2.316423766314984,"label":"Legendre - Dulong"},{"type":"velib","lat":48.88818698581,"lng":2.3168611431512,"label":"Brochant - Square des Batignolles"},{"type":"velib","lat":48.88863669349711,"lng":2.3111706599593163,"label":"Marie-Georges Picquart - Pereire"}],"dpe":{"energy_class":"G","ghg_class":"G"},"images":["https://images.unsplash.com/photo-1484154218962-a197022b5858?w=1200&h=750&q=66&auto=format&fit=crop&crop=entropy","https://images.unsplash.com/photo-1493809842364-78817add7ffb?w=1200&h=750&q=66&auto=format&fit=crop&crop=entropy","https://images.unsplash.com/photo-1556912173-3bb406ef7e77?w=1200&h=750&q=66&auto=format&fit=crop&crop=entropy","https://images.unsplash.com/photo-1560448204-e02f11c3d0e2?w=1200&h=750&q=66&auto=format&fit=crop&crop=entropy","https://images.unsplash.com/photo-1493663284031-b7e3aefcae8e?w=1200&h=750&q=66&auto=format&fit=crop&crop=entropy"],"thumb":"https://images.unsplash.com/photo-1484154218962-a197022b5858?w=480&h=300&q=55&auto=format&fit=crop&crop=entropy","score":{"opportunity_score":16,"value_score":22,"yield_score":20,"negotiation_score":1,"liquidity_score":76,"gentrification_score":55},"signals":{"price_drops":0,"total_drop_percent":0,"long_time_on_market":false,"explanations":["1.8% net rental yield (gross 3.1%)","17% above DVF average","3 days on market","Energy class G — rental restrictions apply"]},"source":"dvf","url":"https://app.dvf.etalab.gouv.fr/"}