{"id":"dvf-2024-1209978","address":{"raw":"35 B Rue Jouffroy D'Abbans, 75017 Paris","normalized":"35b Rue Jouffroy d'Abbans 75017 Paris","lat":48.885603,"lng":2.308755,"district":"75017"},"characteristics":{"surface_m2":68,"rooms":3,"floor":2},"pricing":{"current_price":565000,"price_per_m2":8309,"initial_price":565000},"timeline":{"first_seen":"2026-06-29","last_seen":"2026-07-02","days_on_market":3},"price_history":[{"date":"2026-06-29","price":565000,"source":"dvf"}],"status":"active","dvf":{"avg_price_m2_100m":11432,"avg_price_m2_500m":10826,"comparable_sales":[{"price":400000,"date":"2024-05-23","distance_m":22},{"price":435000,"date":"2024-10-01","distance_m":22},{"price":1165000,"date":"2024-02-19","distance_m":33},{"price":1153500,"date":"2024-05-28","distance_m":33},{"price":370765,"date":"2024-07-24","distance_m":42},{"price":1516800,"date":"2024-05-22","distance_m":57},{"price":218000,"date":"2024-12-06","distance_m":57},{"price":1400000,"date":"2024-04-18","distance_m":74}]},"risks":{"flood":0.07,"clay":0.25,"noise":0.25},"transport_score":81,"neighborhood":{"walk_score":88,"schools_500m":23,"income":35000,"velib_400m":8,"trees_150m":109,"amenities":{"food":15,"health":2,"green":3,"culture":6}},"rent":{"ref_m2":26,"max_m2":31.2,"min_m2":18.2,"quartier":"Plaine de Monceaux","monthly_est":2122},"investment":{"gross_yield":4.51,"net_yield":3.08,"ppm2_percentile":14,"negotiation_margin_pct":0.1,"dpe_risk_score":75,"value_add_flag":false},"pois":[{"type":"transport","lat":48.88289191745414,"lng":2.309052264550479,"label":"Malesherbes · METRO 3"},{"type":"transport","lat":48.88380920123339,"lng":2.304674440528396,"label":"Wagram · METRO 3"},{"type":"transport","lat":48.888220162764625,"lng":2.3137324515202713,"label":"Pont-Cardinet · TRAIN L"},{"type":"transport","lat":48.88032518647405,"lng":2.308773835955807,"label":"Monceau · METRO 2"},{"type":"transport","lat":48.88973995110524,"lng":2.3032760496929354,"label":"Porte d'Asnières · TRAM 3b"},{"type":"park","lat":48.88667494113323,"lng":2.306668951363357,"label":"SQUARE ALEXIS CLEREL DE TOCQUEVILLE"},{"type":"park","lat":48.88299112005179,"lng":2.309568081685045,"label":"PELOUSE PLACE DU GENERAL CATROUX-OUEST (ALEXANDRE DUMAS PERE)"},{"type":"park","lat":48.887487096789755,"lng":2.305885502509888,"label":"PROMENADE PC 17 TRANCHEE PEREIRE"},{"type":"velib","lat":48.8850134,"lng":2.3070717,"label":"Jouffroy d'Abbans - Malesherbes"},{"type":"velib","lat":48.88490187110713,"lng":2.3109393194317818,"label":"Toqueville - Cardinet"},{"type":"velib","lat":48.884215547037,"lng":2.3056533560157,"label":"Jouffroy d'Abbans - Villiers"},{"type":"velib","lat":48.888229075478,"lng":2.3101296275854,"label":"Pereire - Saussure"}],"dpe":{"energy_class":"D","ghg_class":"D"},"images":["https://images.unsplash.com/photo-1505691938895-1758d7feb511?w=1200&h=750&q=66&auto=format&fit=crop&crop=entropy","https://images.unsplash.com/photo-1556912173-3bb406ef7e77?w=1200&h=750&q=66&auto=format&fit=crop&crop=entropy","https://images.unsplash.com/photo-1522708323590-d24dbb6b0267?w=1200&h=750&q=66&auto=format&fit=crop&crop=entropy","https://images.unsplash.com/photo-1567496898669-ee935f5f647a?w=1200&h=750&q=66&auto=format&fit=crop&crop=entropy","https://images.unsplash.com/photo-1484154218962-a197022b5858?w=1200&h=750&q=66&auto=format&fit=crop&crop=entropy"],"thumb":"https://images.unsplash.com/photo-1505691938895-1758d7feb511?w=480&h=300&q=55&auto=format&fit=crop&crop=entropy","score":{"opportunity_score":63,"value_score":100,"yield_score":85,"negotiation_score":1,"liquidity_score":76,"gentrification_score":55},"signals":{"price_drops":0,"total_drop_percent":0,"long_time_on_market":false,"explanations":["3.1% net rental yield (gross 4.5%)","25.7% below DVF average (11 190 €/m²)","Cheaper than 86% of the arrondissement","3 days on market"]},"source":"dvf","url":"https://app.dvf.etalab.gouv.fr/"}