{"id":"dvf-2024-1209555","address":{"raw":"64 Rue De Rome, 75008 Paris","normalized":"64 Rue de Rome 75008 Paris","lat":48.88024,"lng":2.321613,"district":"75008"},"characteristics":{"surface_m2":32,"rooms":1,"floor":0},"pricing":{"current_price":463400,"price_per_m2":14481,"initial_price":463400},"timeline":{"first_seen":"2026-06-29","last_seen":"2026-07-02","days_on_market":3},"price_history":[{"date":"2026-06-29","price":463400,"source":"dvf"}],"status":"active","dvf":{"avg_price_m2_100m":10268,"avg_price_m2_500m":11376,"comparable_sales":[{"price":420000,"date":"2024-06-10","distance_m":17},{"price":245300,"date":"2024-10-07","distance_m":17},{"price":170420,"date":"2024-11-12","distance_m":31},{"price":1188000,"date":"2024-04-30","distance_m":50},{"price":650000,"date":"2024-05-31","distance_m":54},{"price":697150,"date":"2024-11-19","distance_m":54},{"price":602900,"date":"2024-09-30","distance_m":63},{"price":1245000,"date":"2024-09-25","distance_m":70}]},"risks":{"flood":0.09,"clay":0.23,"noise":0.38},"transport_score":99,"neighborhood":{"walk_score":46,"schools_500m":21,"income":45000,"velib_400m":10,"trees_150m":10,"amenities":{"food":1,"health":8,"green":0,"culture":2}},"rent":{"ref_m2":29.5,"max_m2":35.4,"min_m2":20.6,"quartier":"Europe","monthly_est":1133},"investment":{"gross_yield":2.93,"net_yield":1.61,"ppm2_percentile":62,"negotiation_margin_pct":0.1,"dpe_risk_score":30,"value_add_flag":false},"pois":[{"type":"transport","lat":48.878770367587585,"lng":2.3222652131305974,"label":"Europe · METRO 3"},{"type":"transport","lat":48.88233342370702,"lng":2.3218017310631685,"label":"Rome · METRO 2"},{"type":"transport","lat":48.87963476065682,"lng":2.3270222008895027,"label":"Liège · METRO 13"},{"type":"transport","lat":48.87683695396951,"lng":2.3247380468366337,"label":"Saint-Lazare · TRAIN L"},{"type":"transport","lat":48.87683695396951,"lng":2.3247380468366337,"label":"Saint-Lazare · TRAIN J"},{"type":"park","lat":48.877613223644985,"lng":2.3179233218542294,"label":"JARDIN DE LA MAIRIE DU VIIIEME"},{"type":"park","lat":48.87594892297221,"lng":2.320387806991248,"label":"SQUARE MARCEL PAGNOL"},{"type":"park","lat":48.88470193439761,"lng":2.3222064827218154,"label":"JARDINET DE LA MAIRIE DU XVIIEME"},{"type":"velib","lat":48.879960700846226,"lng":2.321358695626259,"label":"Naples - Rome"},{"type":"velib","lat":48.881823370567,"lng":2.3202589899302,"label":"Batignolles - Rome"},{"type":"velib","lat":48.88078819514121,"lng":2.324815057218075,"label":"Clapeyron - Moscou"},{"type":"velib","lat":48.882164014664,"lng":2.3198529705405,"label":"Batignolles - Beudant"}],"dpe":{"energy_class":"F","ghg_class":"C"},"images":["https://images.unsplash.com/photo-1567496898669-ee935f5f647a?w=1200&h=750&q=66&auto=format&fit=crop&crop=entropy","https://images.unsplash.com/photo-1493663284031-b7e3aefcae8e?w=1200&h=750&q=66&auto=format&fit=crop&crop=entropy","https://images.unsplash.com/photo-1540518614846-7eded433c457?w=1200&h=750&q=66&auto=format&fit=crop&crop=entropy","https://images.unsplash.com/photo-1502005097973-6a7082348e28?w=1200&h=750&q=66&auto=format&fit=crop&crop=entropy","https://images.unsplash.com/photo-1560448204-e02f11c3d0e2?w=1200&h=750&q=66&auto=format&fit=crop&crop=entropy"],"thumb":"https://images.unsplash.com/photo-1567496898669-ee935f5f647a?w=480&h=300&q=55&auto=format&fit=crop&crop=entropy","score":{"opportunity_score":22,"value_score":38,"yield_score":10,"negotiation_score":1,"liquidity_score":83,"gentrification_score":61},"signals":{"price_drops":0,"total_drop_percent":0,"long_time_on_market":false,"explanations":["1.6% net rental yield (gross 2.9%)","35.2% above DVF average","3 days on market","Energy class F — rental restrictions apply"]},"source":"dvf","url":"https://app.dvf.etalab.gouv.fr/"}