{"id":"dvf-2024-1228525","address":{"raw":"48 Rue Du Cherche-Midi, 75006 Paris","normalized":"48 Rue du Cherche-Midi 75006 Paris","lat":48.849363,"lng":2.325944,"district":"75006"},"characteristics":{"surface_m2":64,"rooms":3,"floor":2},"pricing":{"current_price":1489000,"price_per_m2":23266,"initial_price":1489000},"timeline":{"first_seen":"2026-06-29","last_seen":"2026-07-02","days_on_market":3},"price_history":[{"date":"2026-06-29","price":1489000,"source":"dvf"}],"status":"active","dvf":{"avg_price_m2_100m":15310,"avg_price_m2_500m":16215,"comparable_sales":[{"price":1287000,"date":"2024-06-07","distance_m":36},{"price":505000,"date":"2024-06-11","distance_m":36},{"price":595000,"date":"2024-12-13","distance_m":36},{"price":1050000,"date":"2024-07-31","distance_m":57},{"price":376000,"date":"2024-02-23","distance_m":69},{"price":487000,"date":"2024-04-25","distance_m":69},{"price":2250000,"date":"2024-07-15","distance_m":76},{"price":1300000,"date":"2024-10-14","distance_m":76}]},"risks":{"flood":0.18,"clay":0.47,"noise":0.49},"transport_score":99,"neighborhood":{"walk_score":76,"schools_500m":19,"income":43000,"velib_400m":9,"trees_150m":79,"amenities":{"food":15,"health":7,"green":0,"culture":2}},"rent":{"ref_m2":28,"max_m2":33.6,"min_m2":19.6,"quartier":"Notre-Dame-des-Champs","monthly_est":2150},"investment":{"gross_yield":1.73,"net_yield":0.5,"ppm2_percentile":94,"negotiation_margin_pct":0.1,"dpe_risk_score":75,"value_add_flag":false},"pois":[{"type":"transport","lat":48.84845784944872,"lng":2.3277821284985807,"label":"Rennes · METRO 12"},{"type":"transport","lat":48.851031751239304,"lng":2.3261023128241907,"label":"Sèvres-Babylone · METRO 10"},{"type":"transport","lat":48.85176205249548,"lng":2.326822568897497,"label":"Sèvres-Babylone · METRO 12"},{"type":"transport","lat":48.84687823885142,"lng":2.3267927850276813,"label":"Saint-Placide · METRO 4"},{"type":"transport","lat":48.848816373369594,"lng":2.3212578628937472,"label":"Vaneau · METRO 10"},{"type":"park","lat":48.85136901553345,"lng":2.3257624160189767,"label":"SQUARE BOUCICAUT"},{"type":"park","lat":48.84779534321633,"lng":2.322149154962363,"label":"JARDIN DU PERE ARMAND DAVID"},{"type":"park","lat":48.85242603863049,"lng":2.324444498571614,"label":"SQUARE DES MISSIONS ETRANGERES"},{"type":"velib","lat":48.8490535919234,"lng":2.325317971408367,"label":"Saint-Placide - Cherche Midi"},{"type":"velib","lat":48.850188262662,"lng":2.3275961726904,"label":"Place Alphonse Deville"},{"type":"velib","lat":48.8492084999386,"lng":2.32851454623001,"label":"Assas - Rennes"},{"type":"velib","lat":48.851296433665276,"lng":2.325061820447445,"label":"Square Boucicaut"}],"dpe":{"energy_class":"D","ghg_class":"B"},"images":["https://images.unsplash.com/photo-1567496898669-ee935f5f647a?w=1200&h=750&q=66&auto=format&fit=crop&crop=entropy","https://images.unsplash.com/photo-1556912173-3bb406ef7e77?w=1200&h=750&q=66&auto=format&fit=crop&crop=entropy","https://images.unsplash.com/photo-1505691938895-1758d7feb511?w=1200&h=750&q=66&auto=format&fit=crop&crop=entropy","https://images.unsplash.com/photo-1502672260266-1c1ef2d93688?w=1200&h=750&q=66&auto=format&fit=crop&crop=entropy","https://images.unsplash.com/photo-1484154218962-a197022b5858?w=1200&h=750&q=66&auto=format&fit=crop&crop=entropy"],"thumb":"https://images.unsplash.com/photo-1567496898669-ee935f5f647a?w=480&h=300&q=55&auto=format&fit=crop&crop=entropy","score":{"opportunity_score":18,"value_score":6,"yield_score":0,"negotiation_score":1,"liquidity_score":91,"gentrification_score":48},"signals":{"price_drops":0,"total_drop_percent":0,"long_time_on_market":false,"explanations":["0.5% net rental yield (gross 1.7%)","48.5% above DVF average","3 days on market"]},"source":"dvf","url":"https://app.dvf.etalab.gouv.fr/"}