{"id":"dvf-2024-1209642","address":{"raw":"118 Av Jean Jaures, 75019 Paris","normalized":"118 Avenue Jean Jaurès 75019 Paris","lat":48.88608,"lng":2.383398,"district":"75019"},"characteristics":{"surface_m2":74,"rooms":3,"floor":5},"pricing":{"current_price":495000,"price_per_m2":6689,"initial_price":495000},"timeline":{"first_seen":"2026-06-29","last_seen":"2026-07-02","days_on_market":3},"price_history":[{"date":"2026-06-29","price":495000,"source":"dvf"}],"status":"active","dvf":{"avg_price_m2_100m":7503,"avg_price_m2_500m":8279,"comparable_sales":[{"price":261300,"date":"2024-06-07","distance_m":42},{"price":320000,"date":"2024-10-10","distance_m":42},{"price":319000,"date":"2024-08-19","distance_m":63},{"price":154000,"date":"2024-11-08","distance_m":63},{"price":239370,"date":"2024-01-31","distance_m":64},{"price":645450,"date":"2024-01-16","distance_m":72},{"price":250000,"date":"2024-01-17","distance_m":72},{"price":565000,"date":"2024-02-08","distance_m":72}]},"risks":{"flood":0.07,"clay":0.32,"noise":0.62},"transport_score":72,"neighborhood":{"walk_score":89,"schools_500m":36,"income":23000,"velib_400m":5,"trees_150m":13,"amenities":{"food":17,"health":8,"green":4,"culture":4}},"rent":{"ref_m2":21.1,"max_m2":25.3,"min_m2":14.8,"quartier":"Amérique","monthly_est":1872},"investment":{"gross_yield":4.54,"net_yield":3.11,"ppm2_percentile":10,"negotiation_margin_pct":0.1,"dpe_risk_score":75,"value_add_flag":false},"pois":[{"type":"transport","lat":48.886856931501875,"lng":2.3859131742732758,"label":"Ourcq · METRO 5"},{"type":"transport","lat":48.884970562766206,"lng":2.3787169232246455,"label":"Laumière · METRO 5"},{"type":"transport","lat":48.88841747876783,"lng":2.3917844509634323,"label":"Porte de Pantin · METRO 5"},{"type":"transport","lat":48.890906449558166,"lng":2.377090439088876,"label":"Crimée · METRO 7"},{"type":"park","lat":48.885013013475636,"lng":2.382630183034706,"label":"JARDIN PARTAGE JARDINS DES PETITS PASSAGES"},{"type":"park","lat":48.88801997788487,"lng":2.384634734485179,"label":"JARDIN PARTAGE 6-8 RUE DE L'OURCQ"},{"type":"park","lat":48.88387215954052,"lng":2.3853892566994017,"label":"PROMENADE PC 19 - BUTTES CHAUMONT - JEAN JAURES"},{"type":"velib","lat":48.8863865,"lng":2.3825772,"label":"Lorraine - Jean Jaurès"},{"type":"velib","lat":48.886393679436,"lng":2.3865414544355,"label":"Hautpoul - Jean Jaurès"},{"type":"velib","lat":48.88467368538326,"lng":2.380039058625698,"label":"Laumière - Petit"},{"type":"velib","lat":48.88917613743794,"lng":2.3833653330802917,"label":"Thionville - Ourcq"}],"dpe":{"energy_class":"D","ghg_class":"A"},"images":["https://images.unsplash.com/photo-1567496898669-ee935f5f647a?w=1200&h=750&q=66&auto=format&fit=crop&crop=entropy","https://images.unsplash.com/photo-1505691938895-1758d7feb511?w=1200&h=750&q=66&auto=format&fit=crop&crop=entropy","https://images.unsplash.com/photo-1540518614846-7eded433c457?w=1200&h=750&q=66&auto=format&fit=crop&crop=entropy","https://images.unsplash.com/photo-1493809842364-78817add7ffb?w=1200&h=750&q=66&auto=format&fit=crop&crop=entropy","https://images.unsplash.com/photo-1493663284031-b7e3aefcae8e?w=1200&h=750&q=66&auto=format&fit=crop&crop=entropy"],"thumb":"https://images.unsplash.com/photo-1567496898669-ee935f5f647a?w=480&h=300&q=55&auto=format&fit=crop&crop=entropy","score":{"opportunity_score":58,"value_score":90,"yield_score":86,"negotiation_score":1,"liquidity_score":62,"gentrification_score":45},"signals":{"price_drops":0,"total_drop_percent":0,"long_time_on_market":false,"explanations":["3.1% net rental yield (gross 4.5%)","14.4% below DVF average (7 813 €/m²)","Cheaper than 90% of the arrondissement","3 days on market"]},"source":"dvf","url":"https://app.dvf.etalab.gouv.fr/"}