{"id":"dvf-2024-1210196","address":{"raw":"10 Rue Alibert, 75010 Paris","normalized":"10 Rue Alibert 75010 Paris","lat":48.871291,"lng":2.366858,"district":"75010"},"characteristics":{"surface_m2":39,"rooms":1,"floor":0},"pricing":{"current_price":325000,"price_per_m2":8333,"initial_price":325000},"timeline":{"first_seen":"2026-06-29","last_seen":"2026-07-02","days_on_market":3},"price_history":[{"date":"2026-06-29","price":325000,"source":"dvf"}],"status":"active","dvf":{"avg_price_m2_100m":9893,"avg_price_m2_500m":10070,"comparable_sales":[{"price":460000,"date":"2024-07-04","distance_m":29},{"price":386000,"date":"2024-08-09","distance_m":29},{"price":187000,"date":"2024-11-21","distance_m":36},{"price":200000,"date":"2024-11-18","distance_m":38},{"price":120000,"date":"2024-04-19","distance_m":47},{"price":280000,"date":"2024-04-15","distance_m":47},{"price":130400,"date":"2024-07-30","distance_m":47},{"price":190000,"date":"2024-04-03","distance_m":55}]},"risks":{"flood":0.09,"clay":0.33,"noise":0.38},"transport_score":86,"neighborhood":{"walk_score":76,"schools_500m":6,"income":29000,"velib_400m":7,"trees_150m":60,"amenities":{"food":20,"health":9,"green":0,"culture":4}},"rent":{"ref_m2":29.6,"max_m2":35.5,"min_m2":20.7,"quartier":"Porte-Saint-Martin","monthly_est":1385},"investment":{"gross_yield":5.11,"net_yield":3.64,"ppm2_percentile":24,"negotiation_margin_pct":0.1,"dpe_risk_score":30,"value_add_flag":false},"pois":[{"type":"transport","lat":48.86995751270301,"lng":2.3710948397312004,"label":"Goncourt · METRO 11"},{"type":"transport","lat":48.86799910892294,"lng":2.3650748610827645,"label":"République · METRO 11"},{"type":"transport","lat":48.87039638922484,"lng":2.3614002104327776,"label":"Jacques Bonsergent · METRO 5"},{"type":"transport","lat":48.86782709972698,"lng":2.3637404371950392,"label":"République · METRO 5"},{"type":"transport","lat":48.86778030055016,"lng":2.3629287001561123,"label":"République · METRO 9"},{"type":"park","lat":48.86927407136047,"lng":2.366917000791045,"label":"SQUARE FREDERICK LEMAITRE"},{"type":"park","lat":48.873298238633666,"lng":2.3675491589148683,"label":"JARDIN DE L'HOPITAL SAINT-LOUIS"},{"type":"park","lat":48.87355156595055,"lng":2.363603194832792,"label":"SQUARE DES RECOLLETS"},{"type":"velib","lat":48.871044051984,"lng":2.3661044619878,"label":"Alibert - Jemmapes"},{"type":"velib","lat":48.871624306962985,"lng":2.3639265082738348,"label":"Marseille - Beaurepaire"},{"type":"velib","lat":48.871379874257,"lng":2.3698963836667,"label":"Parmentier - Hôpital Saint-Louis"},{"type":"velib","lat":48.872859139003,"lng":2.3700717069851,"label":"Claude Vellefaux - Hôpital Saint-Louis"}],"dpe":{"energy_class":"F","ghg_class":"F"},"images":["https://images.unsplash.com/photo-1502005097973-6a7082348e28?w=1200&h=750&q=66&auto=format&fit=crop&crop=entropy","https://images.unsplash.com/photo-1505691938895-1758d7feb511?w=1200&h=750&q=66&auto=format&fit=crop&crop=entropy","https://images.unsplash.com/photo-1502672260266-1c1ef2d93688?w=1200&h=750&q=66&auto=format&fit=crop&crop=entropy","https://images.unsplash.com/photo-1560448204-e02f11c3d0e2?w=1200&h=750&q=66&auto=format&fit=crop&crop=entropy","https://images.unsplash.com/photo-1493809842364-78817add7ffb?w=1200&h=750&q=66&auto=format&fit=crop&crop=entropy"],"thumb":"https://images.unsplash.com/photo-1502005097973-6a7082348e28?w=480&h=300&q=55&auto=format&fit=crop&crop=entropy","score":{"opportunity_score":48,"value_score":91,"yield_score":100,"negotiation_score":1,"liquidity_score":74,"gentrification_score":46},"signals":{"price_drops":0,"total_drop_percent":0,"long_time_on_market":false,"explanations":["3.6% net rental yield (gross 5.1%)","16.4% below DVF average (9 964 €/m²)","Cheaper than 76% of the arrondissement","3 days on market","Energy class F — rental restrictions apply"]},"source":"dvf","url":"https://app.dvf.etalab.gouv.fr/"}