{"id":"dvf-2024-1209702","address":{"raw":"25 Rue Ruhmkorff, 75017 Paris","normalized":"25 Rue Ruhmkorff 75017 Paris","lat":48.881109,"lng":2.285778,"district":"75017"},"characteristics":{"surface_m2":40,"rooms":2,"floor":0},"pricing":{"current_price":372870,"price_per_m2":9322,"initial_price":372870},"timeline":{"first_seen":"2026-06-29","last_seen":"2026-07-02","days_on_market":3},"price_history":[{"date":"2026-06-29","price":372870,"source":"dvf"}],"status":"active","dvf":{"avg_price_m2_100m":10645,"avg_price_m2_500m":10407,"comparable_sales":[{"price":590000,"date":"2024-12-05","distance_m":15},{"price":617500,"date":"2024-07-23","distance_m":36},{"price":530000,"date":"2024-07-05","distance_m":37},{"price":415000,"date":"2024-12-20","distance_m":37},{"price":1785000,"date":"2024-02-15","distance_m":58},{"price":600000,"date":"2024-11-05","distance_m":61},{"price":1374460,"date":"2024-12-19","distance_m":61},{"price":600000,"date":"2024-09-10","distance_m":65}]},"risks":{"flood":0.1,"clay":0.21,"noise":0.26},"transport_score":100,"neighborhood":{"walk_score":96,"schools_500m":7,"income":35000,"velib_400m":7,"trees_150m":90,"amenities":{"food":32,"health":11,"green":4,"culture":4}},"rent":{"ref_m2":27.3,"max_m2":32.8,"min_m2":19.1,"quartier":"Ternes","monthly_est":1312},"investment":{"gross_yield":4.22,"net_yield":2.81,"ppm2_percentile":38,"negotiation_margin_pct":0.1,"dpe_risk_score":10,"value_add_flag":false},"pois":[{"type":"transport","lat":48.88115461321984,"lng":2.2855056217327667,"label":"Anny Flore · TRAM 3b"},{"type":"transport","lat":48.88342328560661,"lng":2.2880331154619915,"label":"Thérèse Pierre · TRAM 3b"},{"type":"transport","lat":48.87790843816008,"lng":2.284431219916768,"label":"Neuilly Porte Maillot · RER C"},{"type":"transport","lat":48.87793813782425,"lng":2.283913993903496,"label":"Porte Maillot · TRAM 3b"},{"type":"transport","lat":48.87793268655634,"lng":2.282976188020842,"label":"Porte Maillot · RER E"},{"type":"park","lat":48.88192992427622,"lng":2.2839324474849687,"label":"JARDIN MARGUERITE LONG"},{"type":"park","lat":48.87937263695184,"lng":2.286883598526095,"label":"PROMENADE PEREIRE - TERNES / MAILLOT"},{"type":"park","lat":48.88054619418405,"lng":2.289053526389053,"label":"PROMENADE PEREIRE - GUERSANT / TERNES"},{"type":"velib","lat":48.88022154052015,"lng":2.2854680567979813,"label":"Belidor - Gouvion-Saint-Cyr"},{"type":"velib","lat":48.8816985773914,"lng":2.2836575657129288,"label":"Jardin Marguerite Long"},{"type":"velib","lat":48.87973954830735,"lng":2.288012132048607,"label":"Pereire - Ternes"},{"type":"velib","lat":48.88287775178599,"lng":2.287667370814871,"label":"Guersant - Gouvion-Saint-Cyr"}],"dpe":{"energy_class":"G","ghg_class":"C"},"images":["https://images.unsplash.com/photo-1522708323590-d24dbb6b0267?w=1200&h=750&q=66&auto=format&fit=crop&crop=entropy","https://images.unsplash.com/photo-1554995207-c18c203602cb?w=1200&h=750&q=66&auto=format&fit=crop&crop=entropy","https://images.unsplash.com/photo-1493809842364-78817add7ffb?w=1200&h=750&q=66&auto=format&fit=crop&crop=entropy","https://images.unsplash.com/photo-1502672260266-1c1ef2d93688?w=1200&h=750&q=66&auto=format&fit=crop&crop=entropy","https://images.unsplash.com/photo-1484154218962-a197022b5858?w=1200&h=750&q=66&auto=format&fit=crop&crop=entropy"],"thumb":"https://images.unsplash.com/photo-1522708323590-d24dbb6b0267?w=480&h=300&q=55&auto=format&fit=crop&crop=entropy","score":{"opportunity_score":35,"value_score":79,"yield_score":72,"negotiation_score":1,"liquidity_score":82,"gentrification_score":55},"signals":{"price_drops":0,"total_drop_percent":0,"long_time_on_market":false,"explanations":["2.8% net rental yield (gross 4.2%)","11.6% below DVF average (10 550 €/m²)","3 days on market","Energy class G — rental restrictions apply"]},"source":"dvf","url":"https://app.dvf.etalab.gouv.fr/"}