{"id":"dvf-2024-1228159","address":{"raw":"16 Rue Dagorno, 75012 Paris","normalized":"16 Rue Dagorno 75012 Paris","lat":48.842392,"lng":2.399325,"district":"75012"},"characteristics":{"surface_m2":36,"rooms":1,"floor":1},"pricing":{"current_price":288000,"price_per_m2":8000,"initial_price":288000},"timeline":{"first_seen":"2026-06-29","last_seen":"2026-07-01","days_on_market":2},"price_history":[{"date":"2026-06-29","price":288000,"source":"dvf"}],"status":"active","dvf":{"avg_price_m2_100m":9694,"avg_price_m2_500m":9043,"comparable_sales":[{"price":600000,"date":"2024-02-29","distance_m":28},{"price":438300,"date":"2024-09-30","distance_m":28},{"price":545000,"date":"2024-12-03","distance_m":28},{"price":152900,"date":"2024-11-06","distance_m":36},{"price":499320,"date":"2024-06-20","distance_m":43},{"price":966000,"date":"2024-08-29","distance_m":43},{"price":349000,"date":"2024-11-07","distance_m":52},{"price":470000,"date":"2024-12-20","distance_m":52}]},"risks":{"flood":0.15,"clay":0.31,"noise":0.43},"transport_score":91,"neighborhood":{"walk_score":78,"schools_500m":12,"income":31000,"velib_400m":5,"trees_150m":72,"amenities":{"food":18,"health":1,"green":2,"culture":4}},"rent":{"ref_m2":28,"max_m2":33.6,"min_m2":19.6,"quartier":"Picpus","monthly_est":1210},"investment":{"gross_yield":5.04,"net_yield":3.57,"ppm2_percentile":20,"negotiation_margin_pct":0.1,"dpe_risk_score":75,"value_add_flag":false},"pois":[{"type":"transport","lat":48.84133824913213,"lng":2.4009185367798027,"label":"Bel-Air · METRO 6"},{"type":"transport","lat":48.84506157994489,"lng":2.4012890198273484,"label":"Picpus · METRO 6"},{"type":"transport","lat":48.83944542837951,"lng":2.3961828864526327,"label":"Daumesnil · METRO 8"},{"type":"transport","lat":48.83954964556868,"lng":2.3957032894363937,"label":"Daumesnil · METRO 6"},{"type":"transport","lat":48.84737487872935,"lng":2.3954619948327402,"label":"Nation · METRO 6"},{"type":"park","lat":48.84115773439908,"lng":2.397627483592232,"label":"COULEE VERTE RENE DUMONT - PROMENADE DES RUES DE PICPUS ET DE REUILLY"},{"type":"park","lat":48.84453012748777,"lng":2.402091800112529,"label":"SQUARE COURTELINE"},{"type":"park","lat":48.84599464779065,"lng":2.400920260869386,"label":"JARDIN MARY CASSAT"},{"type":"velib","lat":48.84267354116789,"lng":2.3972943797707558,"label":"Gare de Reuilly - Picpus"},{"type":"velib","lat":48.839988788912,"lng":2.4005256685521,"label":"Picpus - Louis Braille"},{"type":"velib","lat":48.845127728278,"lng":2.4015686296482,"label":"Saint-Mande - Picpus"},{"type":"velib","lat":48.8395385,"lng":2.3972516,"label":"Reuilly - Daumesnil"}],"dpe":{"energy_class":"D","ghg_class":"D"},"images":["https://images.unsplash.com/photo-1484154218962-a197022b5858?w=1200&h=750&q=66&auto=format&fit=crop&crop=entropy","https://images.unsplash.com/photo-1502672260266-1c1ef2d93688?w=1200&h=750&q=66&auto=format&fit=crop&crop=entropy","https://images.unsplash.com/photo-1522708323590-d24dbb6b0267?w=1200&h=750&q=66&auto=format&fit=crop&crop=entropy","https://images.unsplash.com/photo-1493809842364-78817add7ffb?w=1200&h=750&q=66&auto=format&fit=crop&crop=entropy","https://images.unsplash.com/photo-1505691938895-1758d7feb511?w=1200&h=750&q=66&auto=format&fit=crop&crop=entropy"],"thumb":"https://images.unsplash.com/photo-1484154218962-a197022b5858?w=480&h=300&q=55&auto=format&fit=crop&crop=entropy","score":{"opportunity_score":64,"value_score":88,"yield_score":100,"negotiation_score":0,"liquidity_score":74,"gentrification_score":52},"signals":{"price_drops":0,"total_drop_percent":0,"long_time_on_market":false,"explanations":["3.6% net rental yield (gross 5.0%)","15.2% below DVF average (9 434 €/m²)","Cheaper than 80% of the arrondissement","2 days on market"]},"source":"dvf","url":"https://app.dvf.etalab.gouv.fr/"}