{"id":"dvf-2024-1229262","address":{"raw":"11 Sq Jasmin, 75016 Paris","normalized":"11 Square Jasmin 75016 Paris","lat":48.852612,"lng":2.26657,"district":"75016"},"characteristics":{"surface_m2":118,"rooms":5,"floor":4},"pricing":{"current_price":1254110,"price_per_m2":10628,"initial_price":1254110},"timeline":{"first_seen":"2026-06-29","last_seen":"2026-07-01","days_on_market":2},"price_history":[{"date":"2026-06-29","price":1254110,"source":"dvf"}],"status":"active","dvf":{"avg_price_m2_100m":12165,"avg_price_m2_500m":11199,"comparable_sales":[{"price":8165750,"date":"2024-05-03","distance_m":20},{"price":1010000,"date":"2024-07-22","distance_m":29},{"price":361000,"date":"2024-12-05","distance_m":41},{"price":301000,"date":"2024-06-19","distance_m":43},{"price":238000,"date":"2024-03-05","distance_m":44},{"price":922000,"date":"2024-06-06","distance_m":44},{"price":776600,"date":"2024-10-11","distance_m":47},{"price":190000,"date":"2024-02-26","distance_m":51}]},"risks":{"flood":0.14,"clay":0.42,"noise":0.48},"transport_score":92,"neighborhood":{"walk_score":58,"schools_500m":5,"income":44000,"velib_400m":3,"trees_150m":41,"amenities":{"food":15,"health":3,"green":1,"culture":1}},"rent":{"ref_m2":24,"max_m2":28.8,"min_m2":16.8,"quartier":"Auteuil","monthly_est":3398},"investment":{"gross_yield":3.25,"net_yield":1.91,"ppm2_percentile":60,"negotiation_margin_pct":0.1,"dpe_risk_score":10,"value_add_flag":false},"pois":[{"type":"transport","lat":48.85250409151217,"lng":2.2681767494233314,"label":"Jasmin · METRO 9"},{"type":"transport","lat":48.855485050404425,"lng":2.2701091389418937,"label":"Ranelagh · METRO 9"},{"type":"transport","lat":48.84793480789207,"lng":2.2642187756877292,"label":"Michel Ange-Auteuil · METRO 10"},{"type":"transport","lat":48.84789565020843,"lng":2.2640820307462217,"label":"Michel Ange-Auteuil · METRO 9"},{"type":"transport","lat":48.84715005481051,"lng":2.26913587274288,"label":"Église d'Auteuil · METRO 10"},{"type":"park","lat":48.854222940828166,"lng":2.263985419295439,"label":"PROMENADE PC 16  (PETITE CEINTURE)"},{"type":"park","lat":48.85302712415285,"lng":2.27053989881131,"label":"JARDIN CHRISTIANE DESROCHES NOBLECOURT"},{"type":"park","lat":48.85158867051692,"lng":2.27156007379821,"label":"JARDIN DE LA FONDATION D'AUTEUIL"},{"type":"velib","lat":48.85286124871689,"lng":2.268483570651513,"label":"Mozart - Jasmin"},{"type":"velib","lat":48.85258670812,"lng":2.2629252456151954,"label":"Raffet - Montmorency"},{"type":"velib","lat":48.84986918764119,"lng":2.268257387525699,"label":"George Sand - Jean de La Fontaine"}],"dpe":{"energy_class":"G","ghg_class":"G"},"images":["https://images.unsplash.com/photo-1484154218962-a197022b5858?w=1200&h=750&q=66&auto=format&fit=crop&crop=entropy","https://images.unsplash.com/photo-1502005097973-6a7082348e28?w=1200&h=750&q=66&auto=format&fit=crop&crop=entropy","https://images.unsplash.com/photo-1505691938895-1758d7feb511?w=1200&h=750&q=66&auto=format&fit=crop&crop=entropy","https://images.unsplash.com/photo-1493809842364-78817add7ffb?w=1200&h=750&q=66&auto=format&fit=crop&crop=entropy","https://images.unsplash.com/photo-1522708323590-d24dbb6b0267?w=1200&h=750&q=66&auto=format&fit=crop&crop=entropy"],"thumb":"https://images.unsplash.com/photo-1484154218962-a197022b5858?w=480&h=300&q=55&auto=format&fit=crop&crop=entropy","score":{"opportunity_score":25,"value_score":74,"yield_score":26,"negotiation_score":0,"liquidity_score":66,"gentrification_score":64},"signals":{"price_drops":0,"total_drop_percent":0,"long_time_on_market":false,"explanations":["1.9% net rental yield (gross 3.3%)","9.8% below DVF average (11 779 €/m²)","2 days on market","Energy class G — rental restrictions apply"]},"source":"dvf","url":"https://app.dvf.etalab.gouv.fr/"}