{"id":"dvf-2024-1229053","address":{"raw":"93 Av Du General Leclerc, 75014 Paris","normalized":"93 Avenue du Général Leclerc 75014 Paris","lat":48.826483,"lng":2.326765,"district":"75014"},"characteristics":{"surface_m2":25,"rooms":1,"floor":3},"pricing":{"current_price":208500,"price_per_m2":8340,"initial_price":208500},"timeline":{"first_seen":"2026-06-29","last_seen":"2026-07-02","days_on_market":3},"price_history":[{"date":"2026-06-29","price":208500,"source":"dvf"}],"status":"active","dvf":{"avg_price_m2_100m":9882,"avg_price_m2_500m":9555,"comparable_sales":[{"price":270000,"date":"2024-01-31","distance_m":50},{"price":1150000,"date":"2024-03-19","distance_m":50},{"price":794500,"date":"2024-04-26","distance_m":50},{"price":310000,"date":"2024-05-07","distance_m":50},{"price":210000,"date":"2024-09-11","distance_m":62},{"price":400000,"date":"2024-06-07","distance_m":64},{"price":398115,"date":"2024-06-14","distance_m":64},{"price":178000,"date":"2024-10-24","distance_m":67}]},"risks":{"flood":0.07,"clay":0.41,"noise":0.61},"transport_score":89,"neighborhood":{"walk_score":80,"schools_500m":19,"income":32000,"velib_400m":4,"trees_150m":30,"amenities":{"food":10,"health":8,"green":4,"culture":3}},"rent":{"ref_m2":30.2,"max_m2":36.2,"min_m2":21.1,"quartier":"Petit-Montrouge","monthly_est":905},"investment":{"gross_yield":5.21,"net_yield":3.73,"ppm2_percentile":18,"negotiation_margin_pct":0.1,"dpe_risk_score":55,"value_add_flag":false},"pois":[{"type":"transport","lat":48.82818847631351,"lng":2.3271646496078247,"label":"Alésia · METRO 4"},{"type":"transport","lat":48.82341162898739,"lng":2.3255756362122453,"label":"Porte d'Orléans · METRO 4"},{"type":"transport","lat":48.823151633128084,"lng":2.325509577822384,"label":"Porte d'Orléans · TRAM 3a"},{"type":"transport","lat":48.83111266037533,"lng":2.3297050126201846,"label":"Mouton-Duvernet · METRO 4"},{"type":"transport","lat":48.82471101880376,"lng":2.318829692620226,"label":"Jean Moulin · TRAM 3a"},{"type":"park","lat":48.825222741048876,"lng":2.322933873675472,"label":"PROMENADE PC 14 - CORENTIN - AVENUE DU GENERAL LECLERC"},{"type":"park","lat":48.82793193542799,"lng":2.322842120700878,"label":"JARDIN LIONEL ASSOUAD"},{"type":"park","lat":48.82518889772283,"lng":2.3225878201854564,"label":"JARDIN PARTAGE VERT-TIGE"},{"type":"velib","lat":48.82764910241,"lng":2.3261967301369,"label":"Jean Moulin - Place Victor et Hélène Basch"},{"type":"velib","lat":48.825030852925,"lng":2.3264128693982,"label":"Sarrette - Général Leclerc"},{"type":"velib","lat":48.82884804502439,"lng":2.3285973072052,"label":"Bézout - Général Leclerc"},{"type":"velib","lat":48.8274804,"lng":2.3319217,"label":"Place des Droits de l'Enfant"}],"dpe":{"energy_class":"E","ghg_class":"D"},"images":["https://images.unsplash.com/photo-1556912173-3bb406ef7e77?w=1200&h=750&q=66&auto=format&fit=crop&crop=entropy","https://images.unsplash.com/photo-1493663284031-b7e3aefcae8e?w=1200&h=750&q=66&auto=format&fit=crop&crop=entropy","https://images.unsplash.com/photo-1493809842364-78817add7ffb?w=1200&h=750&q=66&auto=format&fit=crop&crop=entropy","https://images.unsplash.com/photo-1484154218962-a197022b5858?w=1200&h=750&q=66&auto=format&fit=crop&crop=entropy","https://images.unsplash.com/photo-1522708323590-d24dbb6b0267?w=1200&h=750&q=66&auto=format&fit=crop&crop=entropy"],"thumb":"https://images.unsplash.com/photo-1556912173-3bb406ef7e77?w=480&h=300&q=55&auto=format&fit=crop&crop=entropy","score":{"opportunity_score":57,"value_score":86,"yield_score":100,"negotiation_score":1,"liquidity_score":80,"gentrification_score":51},"signals":{"price_drops":0,"total_drop_percent":0,"long_time_on_market":false,"explanations":["3.7% net rental yield (gross 5.2%)","14.5% below DVF average (9 751 €/m²)","Cheaper than 82% of the arrondissement","3 days on market"]},"source":"dvf","url":"https://app.dvf.etalab.gouv.fr/"}