{"id":"dvf-2024-1228663","address":{"raw":"5 Pl Charles Michels, 75015 Paris","normalized":"5 Place Charles Michels 75015 Paris","lat":48.847137,"lng":2.285704,"district":"75015"},"characteristics":{"surface_m2":18,"rooms":1,"floor":0},"pricing":{"current_price":185000,"price_per_m2":10278,"initial_price":185000},"timeline":{"first_seen":"2026-06-29","last_seen":"2026-07-02","days_on_market":3},"price_history":[{"date":"2026-06-29","price":185000,"source":"dvf"}],"status":"active","dvf":{"avg_price_m2_100m":10406,"avg_price_m2_500m":9663,"comparable_sales":[{"price":95000,"date":"2024-05-22","distance_m":7},{"price":530000,"date":"2024-07-09","distance_m":7},{"price":285000,"date":"2024-06-17","distance_m":18},{"price":325000,"date":"2024-07-01","distance_m":49},{"price":810000,"date":"2024-07-19","distance_m":52},{"price":833080,"date":"2024-12-03","distance_m":52},{"price":260000,"date":"2024-02-06","distance_m":56},{"price":240000,"date":"2024-05-14","distance_m":56}]},"risks":{"flood":0.35,"clay":0.47,"noise":0.34},"transport_score":84,"neighborhood":{"walk_score":79,"schools_500m":23,"income":33000,"velib_400m":5,"trees_150m":126,"amenities":{"food":18,"health":6,"green":1,"culture":2}},"rent":{"ref_m2":29.4,"max_m2":35.3,"min_m2":20.6,"quartier":"Grenelle","monthly_est":635},"investment":{"gross_yield":4.12,"net_yield":2.72,"ppm2_percentile":64,"negotiation_margin_pct":0.1,"dpe_risk_score":30,"value_add_flag":false},"pois":[{"type":"transport","lat":48.8465346367312,"lng":2.2859992220590075,"label":"Charles Michels · METRO 10"},{"type":"transport","lat":48.846157204832465,"lng":2.278400386366102,"label":"Javel - André Citroën · METRO 10"},{"type":"transport","lat":48.84715690155799,"lng":2.278036281995908,"label":"Javel · RER C"},{"type":"transport","lat":48.84479476371181,"lng":2.293951963648718,"label":"Commerce · METRO 8"},{"type":"transport","lat":48.84274677979288,"lng":2.2919124133178745,"label":"Félix Faure · METRO 8"},{"type":"park","lat":48.847608150163836,"lng":2.2835381197366322,"label":"JARDIN PARTAGE DE BEAUGRENELLE"},{"type":"park","lat":48.84933996284967,"lng":2.2846053342787487,"label":"ESPACE VERT DU TEP RENE ET ANDRE MOURLON"},{"type":"park","lat":48.846452545622675,"lng":2.281439909340535,"label":"JARDINETS DE L'AVENUE EMILE ZOLA"},{"type":"velib","lat":48.846401,"lng":2.28502,"label":"Place Charles Michels"},{"type":"velib","lat":48.84791249714942,"lng":2.2843059897422795,"label":"Emeriau - Beaugrenelle"},{"type":"velib","lat":48.844974,"lng":2.287283,"label":"Lourmel - Marie Skobtsov"},{"type":"velib","lat":48.8482070397636,"lng":2.2898658737540245,"label":"Théâtre - Lourmel"}],"dpe":{"energy_class":"F","ghg_class":"F"},"images":["https://images.unsplash.com/photo-1502005097973-6a7082348e28?w=1200&h=750&q=66&auto=format&fit=crop&crop=entropy","https://images.unsplash.com/photo-1554995207-c18c203602cb?w=1200&h=750&q=66&auto=format&fit=crop&crop=entropy","https://images.unsplash.com/photo-1560448204-e02f11c3d0e2?w=1200&h=750&q=66&auto=format&fit=crop&crop=entropy","https://images.unsplash.com/photo-1493809842364-78817add7ffb?w=1200&h=750&q=66&auto=format&fit=crop&crop=entropy","https://images.unsplash.com/photo-1502672260266-1c1ef2d93688?w=1200&h=750&q=66&auto=format&fit=crop&crop=entropy"],"thumb":"https://images.unsplash.com/photo-1502005097973-6a7082348e28?w=480&h=300&q=55&auto=format&fit=crop&crop=entropy","score":{"opportunity_score":33,"value_score":46,"yield_score":67,"negotiation_score":1,"liquidity_score":79,"gentrification_score":52},"signals":{"price_drops":0,"total_drop_percent":0,"long_time_on_market":false,"explanations":["2.7% net rental yield (gross 4.1%)","1.7% above DVF average","3 days on market","Energy class F — rental restrictions apply"]},"source":"dvf","url":"https://app.dvf.etalab.gouv.fr/"}