{"id":"dvf-2024-1209860","address":{"raw":"27 Rue Beauregard, 75002 Paris","normalized":"27 Rue Beauregard 75002 Paris","lat":48.869535,"lng":2.350704,"district":"75002"},"characteristics":{"surface_m2":31,"rooms":3,"floor":2},"pricing":{"current_price":323010,"price_per_m2":10420,"initial_price":323010},"timeline":{"first_seen":"2026-06-29","last_seen":"2026-07-02","days_on_market":3},"price_history":[{"date":"2026-06-29","price":323010,"source":"dvf"}],"status":"active","dvf":{"avg_price_m2_100m":11346,"avg_price_m2_500m":10613,"comparable_sales":[{"price":415000,"date":"2024-10-04","distance_m":8},{"price":1030470,"date":"2024-05-17","distance_m":35},{"price":960000,"date":"2024-04-30","distance_m":36},{"price":216600,"date":"2024-01-24","distance_m":37},{"price":588600,"date":"2024-12-18","distance_m":37},{"price":190000,"date":"2024-12-12","distance_m":44},{"price":726900,"date":"2024-02-16","distance_m":58},{"price":227000,"date":"2024-06-07","distance_m":74}]},"risks":{"flood":0.01,"clay":0.15,"noise":0.27},"transport_score":96,"neighborhood":{"walk_score":56,"schools_500m":9,"income":34000,"velib_400m":13,"trees_150m":89,"amenities":{"food":9,"health":3,"green":0,"culture":0}},"rent":{"ref_m2":26.2,"max_m2":31.4,"min_m2":18.3,"quartier":"Bonne-Nouvelle","monthly_est":973},"investment":{"gross_yield":3.62,"net_yield":2.25,"ppm2_percentile":42,"negotiation_margin_pct":0.1,"dpe_risk_score":75,"value_add_flag":false},"pois":[{"type":"transport","lat":48.870590478011124,"lng":2.3484911310789895,"label":"Bonne Nouvelle · METRO 8"},{"type":"transport","lat":48.870590478011124,"lng":2.3484911310789895,"label":"Bonne Nouvelle · METRO 9"},{"type":"transport","lat":48.86940219665552,"lng":2.3538187935928794,"label":"Strasbourg-Saint-Denis · METRO 9"},{"type":"transport","lat":48.86940219665552,"lng":2.3538187935928794,"label":"Strasbourg-Saint-Denis · METRO 8"},{"type":"transport","lat":48.869628863778516,"lng":2.354468813108209,"label":"Strasbourg-Saint-Denis · METRO 4"},{"type":"park","lat":48.86984822793833,"lng":2.3501256247952056,"label":"JARDIN PARTAGE DU SQUARE JACQUES BIDAUT"},{"type":"park","lat":48.869867328723295,"lng":2.349960640148994,"label":"SQUARE JACQUES BIDAUT"},{"type":"park","lat":48.8710779551507,"lng":2.3504575605902147,"label":"SQUARE YILMAZ GUNEY"},{"type":"velib","lat":48.870047123655,"lng":2.3511248454452,"label":"Mazagran - Bonne Nouvelle"},{"type":"velib","lat":48.86868344444473,"lng":2.3502043269474897,"label":"Aboukir - Alexandrie"},{"type":"velib","lat":48.87077436024,"lng":2.3496496368327,"label":"Hauteville - Bonne Nouvelle"},{"type":"velib","lat":48.86785342111862,"lng":2.349364310503006,"label":"Caire - Dussoubs"}],"dpe":{"energy_class":"D","ghg_class":"B"},"images":["https://images.unsplash.com/photo-1560448204-e02f11c3d0e2?w=1200&h=750&q=66&auto=format&fit=crop&crop=entropy","https://images.unsplash.com/photo-1493809842364-78817add7ffb?w=1200&h=750&q=66&auto=format&fit=crop&crop=entropy","https://images.unsplash.com/photo-1540518614846-7eded433c457?w=1200&h=750&q=66&auto=format&fit=crop&crop=entropy","https://images.unsplash.com/photo-1493663284031-b7e3aefcae8e?w=1200&h=750&q=66&auto=format&fit=crop&crop=entropy","https://images.unsplash.com/photo-1567496898669-ee935f5f647a?w=1200&h=750&q=66&auto=format&fit=crop&crop=entropy"],"thumb":"https://images.unsplash.com/photo-1560448204-e02f11c3d0e2?w=480&h=300&q=55&auto=format&fit=crop&crop=entropy","score":{"opportunity_score":43,"value_score":64,"yield_score":43,"negotiation_score":1,"liquidity_score":82,"gentrification_score":47},"signals":{"price_drops":0,"total_drop_percent":0,"long_time_on_market":false,"explanations":["2.3% net rental yield (gross 3.6%)","5.7% below DVF average (11 053 €/m²)","3 days on market"]},"source":"dvf","url":"https://app.dvf.etalab.gouv.fr/"}