{"id":"dvf-2024-1209550","address":{"raw":"46 Rue D Artois, 75008 Paris","normalized":"46 Rue d'Artois 75008 Paris","lat":48.874497,"lng":2.305343,"district":"75008"},"characteristics":{"surface_m2":36,"rooms":2,"floor":2},"pricing":{"current_price":395000,"price_per_m2":10972,"initial_price":395000},"timeline":{"first_seen":"2026-06-29","last_seen":"2026-07-01","days_on_market":2},"price_history":[{"date":"2026-06-29","price":395000,"source":"dvf"}],"status":"active","dvf":{"avg_price_m2_100m":13167,"avg_price_m2_500m":13237,"comparable_sales":[{"price":2800000,"date":"2024-10-09","distance_m":51},{"price":1690000,"date":"2024-01-29","distance_m":59},{"price":1665000,"date":"2024-09-19","distance_m":111},{"price":235000,"date":"2024-04-19","distance_m":129},{"price":180000,"date":"2024-11-13","distance_m":129},{"price":843440,"date":"2024-10-11","distance_m":134},{"price":503000,"date":"2024-12-17","distance_m":141},{"price":620000,"date":"2024-08-05","distance_m":147}]},"risks":{"flood":0,"clay":0.39,"noise":0.24},"transport_score":64,"neighborhood":{"walk_score":58,"schools_500m":7,"income":45000,"velib_400m":7,"trees_150m":114,"amenities":{"food":6,"health":3,"green":2,"culture":1}},"rent":{"ref_m2":29.7,"max_m2":35.6,"min_m2":20.8,"quartier":"Faubourg-du-Roule","monthly_est":1282},"investment":{"gross_yield":3.89,"net_yield":2.51,"ppm2_percentile":30,"negotiation_margin_pct":0.1,"dpe_risk_score":30,"value_add_flag":false},"pois":[{"type":"transport","lat":48.87204586272729,"lng":2.3100189324082736,"label":"Saint-Philippe du Roule · METRO 9"},{"type":"transport","lat":48.872023810399725,"lng":2.3005604512367213,"label":"George V · METRO 1"},{"type":"transport","lat":48.87932978868225,"lng":2.3040703912187603,"label":"Courcelles · METRO 2"},{"type":"transport","lat":48.869438881659114,"lng":2.3086074935262557,"label":"Franklin D. Roosevelt · METRO 1"},{"type":"transport","lat":48.87797270141956,"lng":2.2983103737615287,"label":"Ternes · METRO 2"},{"type":"park","lat":48.875819872453114,"lng":2.305359982709283,"label":"JARDIN TERESKA TORRES-LEVIN"},{"type":"park","lat":48.87340913605789,"lng":2.310276108276371,"label":"JARDINET DU CHEVET SAINT PHILIPPE DU ROULE"},{"type":"velib","lat":48.873935212408,"lng":2.306425832212,"label":"Artois - Berri"},{"type":"velib","lat":48.873529900265,"lng":2.303444892168,"label":"Lamennais - Washington"},{"type":"velib","lat":48.874746047357135,"lng":2.3082953318953514,"label":"Berri - Haussmann"},{"type":"velib","lat":48.874750203957,"lng":2.301771435326,"label":"Place Georges Guillaumin"}],"dpe":{"energy_class":"F","ghg_class":"F"},"images":["https://images.unsplash.com/photo-1560448204-e02f11c3d0e2?w=1200&h=750&q=66&auto=format&fit=crop&crop=entropy","https://images.unsplash.com/photo-1502005097973-6a7082348e28?w=1200&h=750&q=66&auto=format&fit=crop&crop=entropy","https://images.unsplash.com/photo-1484154218962-a197022b5858?w=1200&h=750&q=66&auto=format&fit=crop&crop=entropy","https://images.unsplash.com/photo-1505691938895-1758d7feb511?w=1200&h=750&q=66&auto=format&fit=crop&crop=entropy","https://images.unsplash.com/photo-1554995207-c18c203602cb?w=1200&h=750&q=66&auto=format&fit=crop&crop=entropy"],"thumb":"https://images.unsplash.com/photo-1560448204-e02f11c3d0e2?w=480&h=300&q=55&auto=format&fit=crop&crop=entropy","score":{"opportunity_score":40,"value_score":92,"yield_score":56,"negotiation_score":0,"liquidity_score":71,"gentrification_score":61},"signals":{"price_drops":0,"total_drop_percent":0,"long_time_on_market":false,"explanations":["2.5% net rental yield (gross 3.9%)","16.8% below DVF average (13 195 €/m²)","Cheaper than 70% of the arrondissement","2 days on market","Energy class F — rental restrictions apply"]},"source":"dvf","url":"https://app.dvf.etalab.gouv.fr/"}