{"id":"dvf-2024-1207217","address":{"raw":"228 Rue Saint-Denis, 75002 Paris","normalized":"228 Rue Saint-Denis 75002 Paris","lat":48.868638,"lng":2.352164,"district":"75002"},"characteristics":{"surface_m2":73,"rooms":4,"floor":6},"pricing":{"current_price":784000,"price_per_m2":10740,"initial_price":784000},"timeline":{"first_seen":"2026-06-29","last_seen":"2026-07-01","days_on_market":2},"price_history":[{"date":"2026-06-29","price":784000,"source":"dvf"}],"status":"active","dvf":{"avg_price_m2_100m":10178,"avg_price_m2_500m":10766,"comparable_sales":[{"price":153000,"date":"2024-04-03","distance_m":26},{"price":114000,"date":"2024-11-06","distance_m":39},{"price":189000,"date":"2024-02-06","distance_m":48},{"price":204000,"date":"2024-05-31","distance_m":49},{"price":172973,"date":"2024-06-14","distance_m":49},{"price":236000,"date":"2024-07-22","distance_m":53},{"price":300600,"date":"2024-06-28","distance_m":58},{"price":661280,"date":"2024-07-11","distance_m":60}]},"risks":{"flood":0.07,"clay":0.32,"noise":0.36},"transport_score":100,"neighborhood":{"walk_score":66,"schools_500m":12,"income":34000,"velib_400m":12,"trees_150m":10,"amenities":{"food":12,"health":9,"green":1,"culture":1}},"rent":{"ref_m2":26.4,"max_m2":31.7,"min_m2":18.5,"quartier":"Bonne-Nouvelle","monthly_est":2314},"investment":{"gross_yield":3.54,"net_yield":2.18,"ppm2_percentile":46,"negotiation_margin_pct":0.1,"dpe_risk_score":10,"value_add_flag":false},"pois":[{"type":"transport","lat":48.86940219665552,"lng":2.3538187935928794,"label":"Strasbourg-Saint-Denis · METRO 9"},{"type":"transport","lat":48.86940219665552,"lng":2.3538187935928794,"label":"Strasbourg-Saint-Denis · METRO 8"},{"type":"transport","lat":48.869628863778516,"lng":2.354468813108209,"label":"Strasbourg-Saint-Denis · METRO 4"},{"type":"transport","lat":48.86673355595668,"lng":2.352829461254394,"label":"Réaumur Sébastopol · METRO 4"},{"type":"transport","lat":48.8664963437902,"lng":2.3513589155329915,"label":"Réaumur Sébastopol · METRO 3"},{"type":"park","lat":48.86984822793833,"lng":2.3501256247952056,"label":"JARDIN PARTAGE DU SQUARE JACQUES BIDAUT"},{"type":"park","lat":48.86716495485072,"lng":2.35381777722813,"label":"SQUARE EMILE CHAUTEMPS"},{"type":"park","lat":48.869867328723295,"lng":2.349960640148994,"label":"SQUARE JACQUES BIDAUT"},{"type":"velib","lat":48.86868344444473,"lng":2.3502043269474897,"label":"Aboukir - Alexandrie"},{"type":"velib","lat":48.867433724231,"lng":2.3536357283592,"label":"Square Emile - Chautemps"},{"type":"velib","lat":48.870047123655,"lng":2.3511248454452,"label":"Mazagran - Bonne Nouvelle"},{"type":"velib","lat":48.869601642433,"lng":2.3542908579111,"label":"Strasbourg - Saint-Denis"}],"dpe":{"energy_class":"G","ghg_class":"F"},"images":["https://images.unsplash.com/photo-1502672260266-1c1ef2d93688?w=1200&h=750&q=66&auto=format&fit=crop&crop=entropy","https://images.unsplash.com/photo-1560448204-e02f11c3d0e2?w=1200&h=750&q=66&auto=format&fit=crop&crop=entropy","https://images.unsplash.com/photo-1505691938895-1758d7feb511?w=1200&h=750&q=66&auto=format&fit=crop&crop=entropy","https://images.unsplash.com/photo-1556912173-3bb406ef7e77?w=1200&h=750&q=66&auto=format&fit=crop&crop=entropy","https://images.unsplash.com/photo-1522708323590-d24dbb6b0267?w=1200&h=750&q=66&auto=format&fit=crop&crop=entropy"],"thumb":"https://images.unsplash.com/photo-1502672260266-1c1ef2d93688?w=480&h=300&q=55&auto=format&fit=crop&crop=entropy","score":{"opportunity_score":24,"value_score":54,"yield_score":39,"negotiation_score":0,"liquidity_score":75,"gentrification_score":47},"signals":{"price_drops":0,"total_drop_percent":0,"long_time_on_market":false,"explanations":["2.2% net rental yield (gross 3.5%)","3.1% above DVF average","2 days on market","Energy class G — rental restrictions apply"]},"source":"dvf","url":"https://app.dvf.etalab.gouv.fr/"}