{"id":"dvf-2024-1228541","address":{"raw":"8 Bd Saint Marcel, 75005 Paris","normalized":"8 Boulevard Saint-Marcel 75005 Paris","lat":48.839888,"lng":2.360927,"district":"75005"},"characteristics":{"surface_m2":43,"rooms":3,"floor":1},"pricing":{"current_price":410650,"price_per_m2":9550,"initial_price":410650},"timeline":{"first_seen":"2026-06-29","last_seen":"2026-07-01","days_on_market":2},"price_history":[{"date":"2026-06-29","price":410650,"source":"dvf"}],"status":"active","dvf":{"avg_price_m2_100m":11517,"avg_price_m2_500m":10653,"comparable_sales":[{"price":401000,"date":"2024-08-08","distance_m":19},{"price":385000,"date":"2024-09-04","distance_m":28},{"price":950000,"date":"2024-02-07","distance_m":39},{"price":419527,"date":"2024-06-20","distance_m":39},{"price":677880,"date":"2024-09-26","distance_m":44},{"price":480000,"date":"2024-06-14","distance_m":45},{"price":300000,"date":"2024-01-05","distance_m":50},{"price":699000,"date":"2024-01-05","distance_m":50}]},"risks":{"flood":0.11,"clay":0.37,"noise":0.3},"transport_score":99,"neighborhood":{"walk_score":75,"schools_500m":9,"income":37000,"velib_400m":5,"trees_150m":43,"amenities":{"food":27,"health":2,"green":1,"culture":8}},"rent":{"ref_m2":25,"max_m2":30,"min_m2":17.5,"quartier":"Jardin-des-Plantes","monthly_est":1290},"investment":{"gross_yield":3.77,"net_yield":2.39,"ppm2_percentile":6,"negotiation_margin_pct":0.1,"dpe_risk_score":30,"value_add_flag":false},"pois":[{"type":"transport","lat":48.83842729696758,"lng":2.360967167698855,"label":"Saint-Marcel · METRO 5"},{"type":"transport","lat":48.842436797924776,"lng":2.365184811993381,"label":"Gare d'Austerlitz · METRO 10"},{"type":"transport","lat":48.84236008246694,"lng":2.3655817027477433,"label":"Gare d'Austerlitz · METRO 5"},{"type":"transport","lat":48.842528027683585,"lng":2.3654333833527597,"label":"Paris Austerlitz · RER C"},{"type":"transport","lat":48.835152535740804,"lng":2.3585662563494667,"label":"Campo Formio · METRO 5"},{"type":"park","lat":48.840735793145086,"lng":2.3631637124832836,"label":"SQUARE MARIE CURIE"},{"type":"park","lat":48.84264800121286,"lng":2.361898283125086,"label":"JARDINETS DE LA RUE BUFFON"},{"type":"park","lat":48.83615372496458,"lng":2.359892493989504,"label":"JARDIN FEDERICA MONTSENY"},{"type":"velib","lat":48.839504424583,"lng":2.3609894170229,"label":"Saint-Marcel - Hôpital"},{"type":"velib","lat":48.8377016,"lng":2.3604946,"label":"Hôpital Pitié Salpêtrière"},{"type":"velib","lat":48.83907826424974,"lng":2.356877340669728,"label":"Geoffroy-Saint-Hilaire - Saint-Marcel"},{"type":"velib","lat":48.842668466104875,"lng":2.3618587106466293,"label":"Buffon - Jardin des Plantes"}],"dpe":{"energy_class":"F","ghg_class":"C"},"images":["https://images.unsplash.com/photo-1540518614846-7eded433c457?w=1200&h=750&q=66&auto=format&fit=crop&crop=entropy","https://images.unsplash.com/photo-1554995207-c18c203602cb?w=1200&h=750&q=66&auto=format&fit=crop&crop=entropy","https://images.unsplash.com/photo-1493809842364-78817add7ffb?w=1200&h=750&q=66&auto=format&fit=crop&crop=entropy","https://images.unsplash.com/photo-1505691938895-1758d7feb511?w=1200&h=750&q=66&auto=format&fit=crop&crop=entropy","https://images.unsplash.com/photo-1522708323590-d24dbb6b0267?w=1200&h=750&q=66&auto=format&fit=crop&crop=entropy"],"thumb":"https://images.unsplash.com/photo-1540518614846-7eded433c457?w=480&h=300&q=55&auto=format&fit=crop&crop=entropy","score":{"opportunity_score":40,"value_score":94,"yield_score":50,"negotiation_score":0,"liquidity_score":85,"gentrification_score":50},"signals":{"price_drops":0,"total_drop_percent":0,"long_time_on_market":false,"explanations":["2.4% net rental yield (gross 3.8%)","14.5% below DVF average (11 171 €/m²)","Cheaper than 94% of the arrondissement","2 days on market","Energy class F — rental restrictions apply"]},"source":"dvf","url":"https://app.dvf.etalab.gouv.fr/"}