{"id":"dvf-2024-1228130","address":{"raw":"176 Rue Du Chateau, 75014 Paris","normalized":"176 Rue du Château 75014 Paris","lat":48.8333,"lng":2.323853,"district":"75014"},"characteristics":{"surface_m2":24,"rooms":1,"floor":0},"pricing":{"current_price":216300,"price_per_m2":9013,"initial_price":216300},"timeline":{"first_seen":"2026-06-29","last_seen":"2026-07-02","days_on_market":3},"price_history":[{"date":"2026-06-29","price":216300,"source":"dvf"}],"status":"active","dvf":{"avg_price_m2_100m":10151,"avg_price_m2_500m":9915,"comparable_sales":[{"price":233000,"date":"2024-08-30","distance_m":6},{"price":210000,"date":"2024-11-07","distance_m":6},{"price":201890,"date":"2024-10-15","distance_m":28},{"price":240000,"date":"2024-09-06","distance_m":40},{"price":425400,"date":"2024-09-20","distance_m":40},{"price":355590,"date":"2024-06-14","distance_m":44},{"price":130000,"date":"2024-12-20","distance_m":47},{"price":285715,"date":"2024-09-02","distance_m":49}]},"risks":{"flood":0.02,"clay":0.29,"noise":0.34},"transport_score":67,"neighborhood":{"walk_score":72,"schools_500m":22,"income":32000,"velib_400m":4,"trees_150m":92,"amenities":{"food":11,"health":4,"green":3,"culture":0}},"rent":{"ref_m2":31,"max_m2":37.2,"min_m2":21.7,"quartier":"Plaisance","monthly_est":893},"investment":{"gross_yield":4.95,"net_yield":3.49,"ppm2_percentile":28,"negotiation_margin_pct":0.1,"dpe_risk_score":10,"value_add_flag":false},"pois":[{"type":"transport","lat":48.83422588267789,"lng":2.318616414425384,"label":"Pernety · METRO 13"},{"type":"transport","lat":48.83111266037533,"lng":2.3297050126201846,"label":"Mouton-Duvernet · METRO 4"},{"type":"transport","lat":48.83345085821352,"lng":2.331740130985349,"label":"Denfert-Rochereau · METRO 4"},{"type":"transport","lat":48.838631646237154,"lng":2.322491748462238,"label":"Gaîté · METRO 13"},{"type":"transport","lat":48.82818847631351,"lng":2.3271646496078247,"label":"Alésia · METRO 4"},{"type":"park","lat":48.83255495001078,"lng":2.325664668145917,"label":"JARDINET DE LA MAIRIE ANNEXE DU XIVEME"},{"type":"park","lat":48.83221009677969,"lng":2.325532419777658,"label":"JARDIN DE LA PLACE GILBERT PERROY"},{"type":"park","lat":48.83255081623875,"lng":2.326586958050588,"label":"SQUARE FERDINAND BRUNOT"},{"type":"velib","lat":48.83254578123,"lng":2.3254923149943,"label":"Mairie du 14ème"},{"type":"velib","lat":48.8337,"lng":2.3215,"label":"Didot - Place de Moro-Giafferi"},{"type":"velib","lat":48.835064363954,"lng":2.323731449974,"label":"Maine - Liancourt"},{"type":"velib","lat":48.83005755305626,"lng":2.3232302069664006,"label":"Plantes - Moulin Vert"}],"dpe":{"energy_class":"G","ghg_class":"G"},"images":["https://images.unsplash.com/photo-1502005097973-6a7082348e28?w=1200&h=750&q=66&auto=format&fit=crop&crop=entropy","https://images.unsplash.com/photo-1493663284031-b7e3aefcae8e?w=1200&h=750&q=66&auto=format&fit=crop&crop=entropy","https://images.unsplash.com/photo-1502672260266-1c1ef2d93688?w=1200&h=750&q=66&auto=format&fit=crop&crop=entropy","https://images.unsplash.com/photo-1560448204-e02f11c3d0e2?w=1200&h=750&q=66&auto=format&fit=crop&crop=entropy","https://images.unsplash.com/photo-1554995207-c18c203602cb?w=1200&h=750&q=66&auto=format&fit=crop&crop=entropy"],"thumb":"https://images.unsplash.com/photo-1502005097973-6a7082348e28?w=480&h=300&q=55&auto=format&fit=crop&crop=entropy","score":{"opportunity_score":38,"value_score":76,"yield_score":100,"negotiation_score":1,"liquidity_score":73,"gentrification_score":51},"signals":{"price_drops":0,"total_drop_percent":0,"long_time_on_market":false,"explanations":["3.5% net rental yield (gross 5.0%)","10.4% below DVF average (10 057 €/m²)","Cheaper than 72% of the arrondissement","3 days on market","Energy class G — rental restrictions apply"]},"source":"dvf","url":"https://app.dvf.etalab.gouv.fr/"}