{"id":"dvf-2024-1209409","address":{"raw":"189 Rue Du Fg Poissonniere, 75009 Paris","normalized":"189 Rue du Faubourg Poissonnière 75009 Paris","lat":48.882972,"lng":2.349534,"district":"75009"},"characteristics":{"surface_m2":45,"rooms":2,"floor":3},"pricing":{"current_price":362610,"price_per_m2":8058,"initial_price":362610},"timeline":{"first_seen":"2026-06-29","last_seen":"2026-07-01","days_on_market":2},"price_history":[{"date":"2026-06-29","price":362610,"source":"dvf"}],"status":"active","dvf":{"avg_price_m2_100m":9022,"avg_price_m2_500m":9790,"comparable_sales":[{"price":1070000,"date":"2024-03-27","distance_m":37},{"price":335000,"date":"2024-06-26","distance_m":38},{"price":331094,"date":"2024-02-23","distance_m":41},{"price":252000,"date":"2024-01-09","distance_m":49},{"price":660000,"date":"2024-07-05","distance_m":49},{"price":245000,"date":"2024-10-21","distance_m":49},{"price":692000,"date":"2024-03-06","distance_m":50},{"price":650000,"date":"2024-10-29","distance_m":50}]},"risks":{"flood":0.07,"clay":0.2,"noise":0.76},"transport_score":100,"neighborhood":{"walk_score":93,"schools_500m":14,"income":34000,"velib_400m":12,"trees_150m":124,"amenities":{"food":20,"health":9,"green":2,"culture":7}},"rent":{"ref_m2":26.7,"max_m2":32,"min_m2":18.7,"quartier":"Rochechouart","monthly_est":1440},"investment":{"gross_yield":4.77,"net_yield":3.32,"ppm2_percentile":10,"negotiation_margin_pct":0.1,"dpe_risk_score":75,"value_add_flag":false},"pois":[{"type":"transport","lat":48.8834180885266,"lng":2.349674832582202,"label":"Barbès-Rochechouart · METRO 4"},{"type":"transport","lat":48.88380394240113,"lng":2.3506129993253224,"label":"Barbès-Rochechouart · METRO 2"},{"type":"transport","lat":48.882972767827276,"lng":2.3446670737483,"label":"Anvers · METRO 2"},{"type":"transport","lat":48.88671096804134,"lng":2.349559430194618,"label":"Château Rouge · METRO 4"},{"type":"transport","lat":48.884680973727825,"lng":2.342660037336352,"label":"Funiculaire Montmartre Station Basse · FUNICULAIRE MONTMARTRE"},{"type":"park","lat":48.885678177377486,"lng":2.351899739332651,"label":"JARDIN PARTAGE DE LA RUE POLONCEAU"},{"type":"park","lat":48.88615897836839,"lng":2.3508632074983677,"label":"JARDIN PARTAGE DE LA RUE RICHOMME"},{"type":"park","lat":48.88217494781604,"lng":2.3443762611147774,"label":"SQUARE D'ANVERS-JEAN-CLAUDE CARRIERE"},{"type":"velib","lat":48.882555807626765,"lng":2.3497482016682625,"label":"Faubourg Poissonniere - Delta"},{"type":"velib","lat":48.88294340845,"lng":2.3464846238494,"label":"Gérando - Rochechouart"},{"type":"velib","lat":48.880883445404436,"lng":2.349934279918671,"label":"Faubourg Poissonnière - Dunkerque"},{"type":"velib","lat":48.881949,"lng":2.352339,"label":"Gare du Nord - Hôpital Lariboisière"}],"dpe":{"energy_class":"D","ghg_class":"B"},"images":["https://images.unsplash.com/photo-1493663284031-b7e3aefcae8e?w=1200&h=750&q=66&auto=format&fit=crop&crop=entropy","https://images.unsplash.com/photo-1522708323590-d24dbb6b0267?w=1200&h=750&q=66&auto=format&fit=crop&crop=entropy","https://images.unsplash.com/photo-1560448204-e02f11c3d0e2?w=1200&h=750&q=66&auto=format&fit=crop&crop=entropy","https://images.unsplash.com/photo-1554995207-c18c203602cb?w=1200&h=750&q=66&auto=format&fit=crop&crop=entropy","https://images.unsplash.com/photo-1502005097973-6a7082348e28?w=1200&h=750&q=66&auto=format&fit=crop&crop=entropy"],"thumb":"https://images.unsplash.com/photo-1493663284031-b7e3aefcae8e?w=480&h=300&q=55&auto=format&fit=crop&crop=entropy","score":{"opportunity_score":63,"value_score":90,"yield_score":94,"negotiation_score":0,"liquidity_score":83,"gentrification_score":48},"signals":{"price_drops":0,"total_drop_percent":0,"long_time_on_market":false,"explanations":["3.3% net rental yield (gross 4.8%)","13.6% below DVF average (9 329 €/m²)","Cheaper than 90% of the arrondissement","2 days on market"]},"source":"dvf","url":"https://app.dvf.etalab.gouv.fr/"}