{"id":"dvf-2024-1228475","address":{"raw":"11 Rue Malebranche, 75005 Paris","normalized":"11 Rue Malebranche 75005 Paris","lat":48.846367,"lng":2.342373,"district":"75005"},"characteristics":{"surface_m2":24,"rooms":1,"floor":3},"pricing":{"current_price":320000,"price_per_m2":13333,"initial_price":320000},"timeline":{"first_seen":"2026-06-29","last_seen":"2026-07-02","days_on_market":3},"price_history":[{"date":"2026-06-29","price":320000,"source":"dvf"}],"status":"active","dvf":{"avg_price_m2_100m":14715,"avg_price_m2_500m":13918,"comparable_sales":[{"price":1842400,"date":"2024-01-12","distance_m":25},{"price":128000,"date":"2024-09-30","distance_m":25},{"price":1220000,"date":"2024-10-10","distance_m":25},{"price":3542500,"date":"2024-10-25","distance_m":29},{"price":526000,"date":"2024-05-23","distance_m":32},{"price":700000,"date":"2024-03-19","distance_m":35},{"price":1012500,"date":"2024-03-08","distance_m":45},{"price":266000,"date":"2024-09-06","distance_m":50}]},"risks":{"flood":0.15,"clay":0.37,"noise":0.31},"transport_score":79,"neighborhood":{"walk_score":65,"schools_500m":17,"income":37000,"velib_400m":9,"trees_150m":146,"amenities":{"food":8,"health":10,"green":1,"culture":0}},"rent":{"ref_m2":32.9,"max_m2":39.5,"min_m2":23,"quartier":"Val-de-Grace","monthly_est":948},"investment":{"gross_yield":3.56,"net_yield":2.19,"ppm2_percentile":70,"negotiation_margin_pct":0.1,"dpe_risk_score":10,"value_add_flag":false},"pois":[{"type":"transport","lat":48.84543415048044,"lng":2.339762849560476,"label":"Luxembourg · RER B"},{"type":"transport","lat":48.851050282314304,"lng":2.3442733454213514,"label":"Cluny-La Sorbonne · METRO 10"},{"type":"transport","lat":48.85008987805251,"lng":2.3482087741854687,"label":"Maubert-Mutualité · METRO 10"},{"type":"transport","lat":48.85193594203498,"lng":2.340613006406504,"label":"Odéon · METRO 10"},{"type":"transport","lat":48.85211888263096,"lng":2.34402115205528,"label":"Saint-Michel · RER B"},{"type":"park","lat":48.845941138763315,"lng":2.344357921934614,"label":"JARDINET DE LA MAIRIE DU VEME"},{"type":"park","lat":48.84933757903446,"lng":2.3452284588050074,"label":"SQUARE MICHEL FOUCAULT"},{"type":"park","lat":48.84914698347264,"lng":2.34595089034893,"label":"SQUARE FRANCOIS-AUGUSTE MARIETTE"},{"type":"velib","lat":48.846280383395,"lng":2.3430785379567,"label":"Saint-Jacques - Soufflot"},{"type":"velib","lat":48.846102400979,"lng":2.3412207886577,"label":"Le Goff - Gay-Lussac"},{"type":"velib","lat":48.847909849567,"lng":2.3424898070094,"label":"Victor Cousin - Cujas"},{"type":"velib","lat":48.844730256132,"lng":2.3419239448664,"label":"Gay Lussac - Saint-Jacques"}],"dpe":{"energy_class":"G","ghg_class":"C"},"images":["https://images.unsplash.com/photo-1554995207-c18c203602cb?w=1200&h=750&q=66&auto=format&fit=crop&crop=entropy","https://images.unsplash.com/photo-1560448204-e02f11c3d0e2?w=1200&h=750&q=66&auto=format&fit=crop&crop=entropy","https://images.unsplash.com/photo-1556912173-3bb406ef7e77?w=1200&h=750&q=66&auto=format&fit=crop&crop=entropy","https://images.unsplash.com/photo-1502672260266-1c1ef2d93688?w=1200&h=750&q=66&auto=format&fit=crop&crop=entropy","https://images.unsplash.com/photo-1567496898669-ee935f5f647a?w=1200&h=750&q=66&auto=format&fit=crop&crop=entropy"],"thumb":"https://images.unsplash.com/photo-1554995207-c18c203602cb?w=480&h=300&q=55&auto=format&fit=crop&crop=entropy","score":{"opportunity_score":27,"value_score":68,"yield_score":40,"negotiation_score":1,"liquidity_score":82,"gentrification_score":50},"signals":{"price_drops":0,"total_drop_percent":0,"long_time_on_market":false,"explanations":["2.2% net rental yield (gross 3.6%)","7.4% below DVF average (14 396 €/m²)","3 days on market","Energy class G — rental restrictions apply"]},"source":"dvf","url":"https://app.dvf.etalab.gouv.fr/"}