{"id":"dvf-2024-1209936","address":{"raw":"7 Rue Curial, 75019 Paris","normalized":"7 Rue Curial 75019 Paris","lat":48.890431,"lng":2.371659,"district":"75019"},"characteristics":{"surface_m2":87,"rooms":4,"floor":3},"pricing":{"current_price":480000,"price_per_m2":5517,"initial_price":480000},"timeline":{"first_seen":"2026-06-29","last_seen":"2026-07-02","days_on_market":3},"price_history":[{"date":"2026-06-29","price":480000,"source":"dvf"}],"status":"active","dvf":{"avg_price_m2_100m":6773,"avg_price_m2_500m":7316,"comparable_sales":[{"price":1076285,"date":"2024-09-18","distance_m":42},{"price":347000,"date":"2024-02-16","distance_m":90},{"price":475250,"date":"2024-06-27","distance_m":90},{"price":560000,"date":"2024-07-17","distance_m":90},{"price":365250,"date":"2024-07-24","distance_m":90},{"price":424000,"date":"2024-09-02","distance_m":90},{"price":417500,"date":"2024-09-20","distance_m":90},{"price":443000,"date":"2024-10-14","distance_m":90}]},"risks":{"flood":0.03,"clay":0.29,"noise":0.34},"transport_score":65,"neighborhood":{"walk_score":72,"schools_500m":21,"income":23000,"velib_400m":3,"trees_150m":115,"amenities":{"food":15,"health":1,"green":3,"culture":0}},"rent":{"ref_m2":20.5,"max_m2":24.6,"min_m2":14.3,"quartier":"Villette","monthly_est":2140},"investment":{"gross_yield":5.35,"net_yield":3.86,"ppm2_percentile":0,"negotiation_margin_pct":0.1,"dpe_risk_score":30,"value_add_flag":true},"pois":[{"type":"transport","lat":48.88796756174982,"lng":2.3734568878525493,"label":"Riquet · METRO 7"},{"type":"transport","lat":48.890906449558166,"lng":2.377090439088876,"label":"Crimée · METRO 7"},{"type":"transport","lat":48.88479825198408,"lng":2.36958085557783,"label":"Stalingrad · METRO 7"},{"type":"transport","lat":48.89658112861537,"lng":2.373819005403212,"label":"Rosa Parks · RER E"},{"type":"transport","lat":48.88432566304799,"lng":2.3673720385654686,"label":"Stalingrad · METRO 5"},{"type":"park","lat":48.889597655428396,"lng":2.373410580983131,"label":"JARDIN DE L'ILOT RIQUET"},{"type":"park","lat":48.88785144221172,"lng":2.372503098730311,"label":"JARDIN PARTAGE LA SERRE AUX LEGUMES"},{"type":"park","lat":48.887019654678866,"lng":2.3711190397435944,"label":"JARDIN PARTAGE ESPACE COULEURS ET SENTEURS"},{"type":"velib","lat":48.889333538455,"lng":2.3707854375243,"label":"Centquatre"},{"type":"velib","lat":48.89088305227546,"lng":2.3688579350709915,"label":"Aubervilliers - Curial"},{"type":"velib","lat":48.888013281448,"lng":2.3737595955229,"label":"Flandre - Riquet"}],"dpe":{"energy_class":"F","ghg_class":"F"},"images":["https://images.unsplash.com/photo-1522708323590-d24dbb6b0267?w=1200&h=750&q=66&auto=format&fit=crop&crop=entropy","https://images.unsplash.com/photo-1484154218962-a197022b5858?w=1200&h=750&q=66&auto=format&fit=crop&crop=entropy","https://images.unsplash.com/photo-1560448204-e02f11c3d0e2?w=1200&h=750&q=66&auto=format&fit=crop&crop=entropy","https://images.unsplash.com/photo-1567496898669-ee935f5f647a?w=1200&h=750&q=66&auto=format&fit=crop&crop=entropy","https://images.unsplash.com/photo-1493809842364-78817add7ffb?w=1200&h=750&q=66&auto=format&fit=crop&crop=entropy"],"thumb":"https://images.unsplash.com/photo-1522708323590-d24dbb6b0267?w=480&h=300&q=55&auto=format&fit=crop&crop=entropy","score":{"opportunity_score":73,"value_score":100,"yield_score":100,"negotiation_score":1,"liquidity_score":58,"gentrification_score":45},"signals":{"price_drops":0,"total_drop_percent":0,"long_time_on_market":false,"explanations":["3.9% net rental yield (gross 5.3%)","21.1% below DVF average (6 990 €/m²)","Cheaper than 100% of the arrondissement","3 days on market","Value-add: discount exceeds renovation cost (F/G arbitrage)"]},"source":"dvf","url":"https://app.dvf.etalab.gouv.fr/"}