{"id":"dvf-2024-1229142","address":{"raw":"27 Rue De La Gare De Reuilly, 75012 Paris","normalized":"27 Rue de la Gare de Reuilly 75012 Paris","lat":48.841604,"lng":2.395085,"district":"75012"},"characteristics":{"surface_m2":87,"rooms":4,"floor":4},"pricing":{"current_price":740385,"price_per_m2":8510,"initial_price":740385},"timeline":{"first_seen":"2026-06-29","last_seen":"2026-07-01","days_on_market":2},"price_history":[{"date":"2026-06-29","price":740385,"source":"dvf"}],"status":"active","dvf":{"avg_price_m2_100m":8993,"avg_price_m2_500m":8993,"comparable_sales":[{"price":288680,"date":"2024-02-28","distance_m":23},{"price":348000,"date":"2024-03-21","distance_m":23},{"price":660000,"date":"2024-06-10","distance_m":23},{"price":385110,"date":"2024-07-04","distance_m":23},{"price":761400,"date":"2024-07-11","distance_m":23},{"price":425000,"date":"2024-08-06","distance_m":23},{"price":760000,"date":"2024-09-06","distance_m":23},{"price":200000,"date":"2024-12-17","distance_m":34}]},"risks":{"flood":0.15,"clay":0.38,"noise":0.51},"transport_score":94,"neighborhood":{"walk_score":59,"schools_500m":19,"income":31000,"velib_400m":4,"trees_150m":70,"amenities":{"food":6,"health":11,"green":0,"culture":1}},"rent":{"ref_m2":22.7,"max_m2":27.2,"min_m2":15.9,"quartier":"Picpus","monthly_est":2366},"investment":{"gross_yield":3.84,"net_yield":2.45,"ppm2_percentile":32,"negotiation_margin_pct":0.1,"dpe_risk_score":55,"value_add_flag":false},"pois":[{"type":"transport","lat":48.83954964556868,"lng":2.3957032894363937,"label":"Daumesnil · METRO 6"},{"type":"transport","lat":48.83944542837951,"lng":2.3961828864526327,"label":"Daumesnil · METRO 8"},{"type":"transport","lat":48.84133824913213,"lng":2.4009185367798027,"label":"Bel-Air · METRO 6"},{"type":"transport","lat":48.84406559730793,"lng":2.390482133980388,"label":"Montgallet · METRO 8"},{"type":"transport","lat":48.83904114371398,"lng":2.389620014061439,"label":"Dugommier · METRO 6"},{"type":"park","lat":48.8426028146133,"lng":2.393298007832653,"label":"JARDIN PARTAGE DU 107 RUE DE REUILLY"},{"type":"park","lat":48.84115773439908,"lng":2.397627483592232,"label":"COULEE VERTE RENE DUMONT - PROMENADE DES RUES DE PICPUS ET DE REUILLY"},{"type":"park","lat":48.84095976234427,"lng":2.3923463960618,"label":"JARDIN DE LA GARE DE REUILLY - JULIEN LAUPRETRE"},{"type":"velib","lat":48.84030274499962,"lng":2.394630398715453,"label":"Reuilly - Place Felix Eboue"},{"type":"velib","lat":48.84267354116789,"lng":2.3972943797707558,"label":"Gare de Reuilly - Picpus"},{"type":"velib","lat":48.8395385,"lng":2.3972516,"label":"Reuilly - Daumesnil"},{"type":"velib","lat":48.841923663276546,"lng":2.389728979467376,"label":"Vivaldi - Antoine-Julien Hénard"}],"dpe":{"energy_class":"E","ghg_class":"D"},"images":["https://images.unsplash.com/photo-1502005097973-6a7082348e28?w=1200&h=750&q=66&auto=format&fit=crop&crop=entropy","https://images.unsplash.com/photo-1493809842364-78817add7ffb?w=1200&h=750&q=66&auto=format&fit=crop&crop=entropy","https://images.unsplash.com/photo-1502672260266-1c1ef2d93688?w=1200&h=750&q=66&auto=format&fit=crop&crop=entropy","https://images.unsplash.com/photo-1554995207-c18c203602cb?w=1200&h=750&q=66&auto=format&fit=crop&crop=entropy","https://images.unsplash.com/photo-1493663284031-b7e3aefcae8e?w=1200&h=750&q=66&auto=format&fit=crop&crop=entropy"],"thumb":"https://images.unsplash.com/photo-1502005097973-6a7082348e28?w=480&h=300&q=55&auto=format&fit=crop&crop=entropy","score":{"opportunity_score":40,"value_score":68,"yield_score":53,"negotiation_score":0,"liquidity_score":67,"gentrification_score":52},"signals":{"price_drops":0,"total_drop_percent":0,"long_time_on_market":false,"explanations":["2.5% net rental yield (gross 3.8%)","5.4% below DVF average (8 993 €/m²)","Cheaper than 68% of the arrondissement","2 days on market"]},"source":"dvf","url":"https://app.dvf.etalab.gouv.fr/"}