{"id":"dvf-2024-1209391","address":{"raw":"37 Rue Tiquetonne, 75002 Paris","normalized":"37 Rue Tiquetonne 75002 Paris","lat":48.864724,"lng":2.347184,"district":"75002"},"characteristics":{"surface_m2":31,"rooms":1,"floor":0},"pricing":{"current_price":315000,"price_per_m2":10161,"initial_price":315000},"timeline":{"first_seen":"2026-06-29","last_seen":"2026-07-02","days_on_market":3},"price_history":[{"date":"2026-06-29","price":315000,"source":"dvf"}],"status":"active","dvf":{"avg_price_m2_100m":11973,"avg_price_m2_500m":12157,"comparable_sales":[{"price":503000,"date":"2024-09-30","distance_m":21},{"price":499400,"date":"2024-03-22","distance_m":26},{"price":323000,"date":"2024-08-29","distance_m":32},{"price":260000,"date":"2024-11-14","distance_m":32},{"price":251645,"date":"2024-02-16","distance_m":38},{"price":320000,"date":"2024-09-06","distance_m":38},{"price":199500,"date":"2024-11-22","distance_m":52},{"price":118000,"date":"2024-10-30","distance_m":57}]},"risks":{"flood":0.14,"clay":0.2,"noise":0.33},"transport_score":97,"neighborhood":{"walk_score":74,"schools_500m":13,"income":34000,"velib_400m":16,"trees_150m":101,"amenities":{"food":13,"health":0,"green":3,"culture":2}},"rent":{"ref_m2":32.9,"max_m2":39.5,"min_m2":23,"quartier":"Bonne-Nouvelle","monthly_est":1225},"investment":{"gross_yield":4.66,"net_yield":3.22,"ppm2_percentile":30,"negotiation_margin_pct":0.1,"dpe_risk_score":75,"value_add_flag":false},"pois":[{"type":"transport","lat":48.863972478817246,"lng":2.3496175641598405,"label":"Étienne Marcel · METRO 4"},{"type":"transport","lat":48.86251523497548,"lng":2.345785860039181,"label":"Les Halles · METRO 4"},{"type":"transport","lat":48.86751302499845,"lng":2.346552336353212,"label":"Sentier · METRO 3"},{"type":"transport","lat":48.86182227279812,"lng":2.3470126872387564,"label":"Châtelet-Les Halles · RER B"},{"type":"transport","lat":48.86182227279812,"lng":2.3470126872387564,"label":"Châtelet-Les Halles · RER D"},{"type":"park","lat":48.86638773075733,"lng":2.3466418776593287,"label":"JARDIN PARTAGE LE JARDIN DE BONNE"},{"type":"park","lat":48.867071896548595,"lng":2.348286168102479,"label":"JARDINET LAZAREFF"},{"type":"park","lat":48.86673388844411,"lng":2.3498762921994794,"label":"JARDINET REAUMUR"},{"type":"velib","lat":48.86450567259199,"lng":2.3461959511041637,"label":"Etienne Marcel - Montorgueil"},{"type":"velib","lat":48.864053304653766,"lng":2.347587011754513,"label":"Française - Etienne Marcel"},{"type":"velib","lat":48.86358858111446,"lng":2.3477794602513313,"label":"Turbigo - Française"},{"type":"velib","lat":48.86502194581,"lng":2.3450684401448,"label":"Montmartre - Etienne Marcel"}],"dpe":{"energy_class":"D","ghg_class":"B"},"images":["https://images.unsplash.com/photo-1484154218962-a197022b5858?w=1200&h=750&q=66&auto=format&fit=crop&crop=entropy","https://images.unsplash.com/photo-1505691938895-1758d7feb511?w=1200&h=750&q=66&auto=format&fit=crop&crop=entropy","https://images.unsplash.com/photo-1522708323590-d24dbb6b0267?w=1200&h=750&q=66&auto=format&fit=crop&crop=entropy","https://images.unsplash.com/photo-1493809842364-78817add7ffb?w=1200&h=750&q=66&auto=format&fit=crop&crop=entropy","https://images.unsplash.com/photo-1554995207-c18c203602cb?w=1200&h=750&q=66&auto=format&fit=crop&crop=entropy"],"thumb":"https://images.unsplash.com/photo-1484154218962-a197022b5858?w=480&h=300&q=55&auto=format&fit=crop&crop=entropy","score":{"opportunity_score":62,"value_score":89,"yield_score":90,"negotiation_score":1,"liquidity_score":85,"gentrification_score":47},"signals":{"price_drops":0,"total_drop_percent":0,"long_time_on_market":false,"explanations":["3.2% net rental yield (gross 4.7%)","15.7% below DVF average (12 047 €/m²)","Cheaper than 70% of the arrondissement","3 days on market"]},"source":"dvf","url":"https://app.dvf.etalab.gouv.fr/"}