{"id":"dvf-2024-1210339","address":{"raw":"105 Crs De Vincennes, 75020 Paris","normalized":"105 Cours de Vincennes 75020 Paris","lat":48.847515,"lng":2.410107,"district":"75020"},"characteristics":{"surface_m2":50,"rooms":2,"floor":2},"pricing":{"current_price":348000,"price_per_m2":6960,"initial_price":348000},"timeline":{"first_seen":"2026-06-29","last_seen":"2026-07-02","days_on_market":3},"price_history":[{"date":"2026-06-29","price":348000,"source":"dvf"}],"status":"active","dvf":{"avg_price_m2_100m":7914,"avg_price_m2_500m":8441,"comparable_sales":[{"price":385000,"date":"2024-11-19","distance_m":31},{"price":493864,"date":"2024-06-13","distance_m":32},{"price":329300,"date":"2024-01-04","distance_m":53},{"price":327000,"date":"2024-06-27","distance_m":53},{"price":355000,"date":"2024-07-09","distance_m":53},{"price":460000,"date":"2024-10-08","distance_m":53},{"price":640000,"date":"2024-12-05","distance_m":53},{"price":125500,"date":"2024-04-30","distance_m":60}]},"risks":{"flood":0.04,"clay":0.3,"noise":0.3},"transport_score":92,"neighborhood":{"walk_score":87,"schools_500m":16,"income":25000,"velib_400m":4,"trees_150m":46,"amenities":{"food":28,"health":8,"green":3,"culture":3}},"rent":{"ref_m2":23.4,"max_m2":28.1,"min_m2":16.4,"quartier":"Charonne","monthly_est":1405},"investment":{"gross_yield":4.84,"net_yield":3.39,"ppm2_percentile":8,"negotiation_margin_pct":0.1,"dpe_risk_score":88,"value_add_flag":false},"pois":[{"type":"transport","lat":48.847393890496086,"lng":2.40965605640417,"label":"Porte de Vincennes · TRAM 3b"},{"type":"transport","lat":48.84694815185174,"lng":2.409551429787372,"label":"Porte de Vincennes · TRAM 3a"},{"type":"transport","lat":48.847335584614896,"lng":2.408089407236094,"label":"Porte de Vincennes · METRO 1"},{"type":"transport","lat":48.843700739992194,"lng":2.410109555597318,"label":"Alexandra David-Néel · TRAM 3a"},{"type":"transport","lat":48.85298727790375,"lng":2.4107411361264375,"label":"Porte de Montreuil · TRAM 3b"},{"type":"park","lat":48.84774459166869,"lng":2.4122644044681443,"label":"JARDIN DE LA RUE NOEL BALLAY"},{"type":"park","lat":48.84648280752457,"lng":2.4116505881297123,"label":"SQUARE FERNAND FOUREAU"},{"type":"park","lat":48.84801585685114,"lng":2.4138113572546054,"label":"JARDIN MELINEE MANOUCHIAN"},{"type":"velib","lat":48.847238029966,"lng":2.4107042336225,"label":"Cours de Vincennes - Davout"},{"type":"velib","lat":48.846918761569,"lng":2.4105220288038,"label":"Cours de Vincennes - Soult"},{"type":"velib","lat":48.849266043601794,"lng":2.412330328844772,"label":"Reynaldo Hahn - Lagny"},{"type":"velib","lat":48.847796779935,"lng":2.4061721563339,"label":"Pyrénées - Cours de Vincennes"}],"dpe":{"energy_class":"C","ghg_class":"C"},"images":["https://images.unsplash.com/photo-1502672260266-1c1ef2d93688?w=1200&h=750&q=66&auto=format&fit=crop&crop=entropy","https://images.unsplash.com/photo-1505691938895-1758d7feb511?w=1200&h=750&q=66&auto=format&fit=crop&crop=entropy","https://images.unsplash.com/photo-1522708323590-d24dbb6b0267?w=1200&h=750&q=66&auto=format&fit=crop&crop=entropy","https://images.unsplash.com/photo-1560448204-e02f11c3d0e2?w=1200&h=750&q=66&auto=format&fit=crop&crop=entropy","https://images.unsplash.com/photo-1484154218962-a197022b5858?w=1200&h=750&q=66&auto=format&fit=crop&crop=entropy"],"thumb":"https://images.unsplash.com/photo-1502672260266-1c1ef2d93688?w=480&h=300&q=55&auto=format&fit=crop&crop=entropy","score":{"opportunity_score":68,"value_score":92,"yield_score":96,"negotiation_score":1,"liquidity_score":73,"gentrification_score":45},"signals":{"price_drops":0,"total_drop_percent":0,"long_time_on_market":false,"explanations":["3.4% net rental yield (gross 4.8%)","14.3% below DVF average (8 125 €/m²)","Cheaper than 92% of the arrondissement","3 days on market"]},"source":"dvf","url":"https://app.dvf.etalab.gouv.fr/"}