{"id":"dvf-2024-1210207","address":{"raw":"16 Rue Des Vertus, 75003 Paris","normalized":"16 Rue des Vertus 75003 Paris","lat":48.864298,"lng":2.357906,"district":"75003"},"characteristics":{"surface_m2":43,"rooms":2,"floor":2},"pricing":{"current_price":415000,"price_per_m2":9651,"initial_price":415000},"timeline":{"first_seen":"2026-06-29","last_seen":"2026-07-02","days_on_market":3},"price_history":[{"date":"2026-06-29","price":415000,"source":"dvf"}],"status":"active","dvf":{"avg_price_m2_100m":11623,"avg_price_m2_500m":12377,"comparable_sales":[{"price":275000,"date":"2024-06-25","distance_m":31},{"price":231500,"date":"2024-03-18","distance_m":43},{"price":1976100,"date":"2024-11-27","distance_m":45},{"price":707750,"date":"2024-10-29","distance_m":48},{"price":505000,"date":"2024-01-30","distance_m":50},{"price":1442020,"date":"2024-06-20","distance_m":50},{"price":490000,"date":"2024-12-06","distance_m":50},{"price":1800000,"date":"2024-06-14","distance_m":53}]},"risks":{"flood":0.07,"clay":0.17,"noise":0.61},"transport_score":100,"neighborhood":{"walk_score":83,"schools_500m":18,"income":35000,"velib_400m":6,"trees_150m":76,"amenities":{"food":31,"health":5,"green":1,"culture":5}},"rent":{"ref_m2":29.2,"max_m2":35,"min_m2":20.4,"quartier":"Arts-et-Metiers","monthly_est":1505},"investment":{"gross_yield":4.35,"net_yield":2.93,"ppm2_percentile":18,"negotiation_margin_pct":0.1,"dpe_risk_score":10,"value_add_flag":false},"pois":[{"type":"transport","lat":48.86532271167806,"lng":2.356729869173701,"label":"Arts et Métiers · METRO 11"},{"type":"transport","lat":48.86558647849898,"lng":2.356736756794993,"label":"Arts et Métiers · METRO 3"},{"type":"transport","lat":48.866514461743,"lng":2.3608035032752688,"label":"Temple · METRO 3"},{"type":"transport","lat":48.86673355595668,"lng":2.352829461254394,"label":"Réaumur Sébastopol · METRO 4"},{"type":"transport","lat":48.86120499033039,"lng":2.353495741491146,"label":"Rambuteau · METRO 11"},{"type":"park","lat":48.86445796617997,"lng":2.3607552645262286,"label":"SQUARE DU TEMPLE - ELIE WIESEL"},{"type":"park","lat":48.86385775513695,"lng":2.361728173311372,"label":"JARDINETS DE LA MAIRIE DE PARIS CENTRE"},{"type":"park","lat":48.86306513083119,"lng":2.3616418938473718,"label":"JARDINET MADELEINE DE SCUDERY"},{"type":"velib","lat":48.865574047531,"lng":2.3564198613167,"label":"Turbigo - Réaumur"},{"type":"velib","lat":48.86610337431,"lng":2.3596492409706,"label":"Sainte-Elisabeth - Turbigo"},{"type":"velib","lat":48.8623615,"lng":2.3595041,"label":"Archives - Pastourelle"},{"type":"velib","lat":48.864461781391,"lng":2.3617628216743,"label":"Mairie du 3ème"}],"dpe":{"energy_class":"G","ghg_class":"C"},"images":["https://images.unsplash.com/photo-1502672260266-1c1ef2d93688?w=1200&h=750&q=66&auto=format&fit=crop&crop=entropy","https://images.unsplash.com/photo-1502005097973-6a7082348e28?w=1200&h=750&q=66&auto=format&fit=crop&crop=entropy","https://images.unsplash.com/photo-1554995207-c18c203602cb?w=1200&h=750&q=66&auto=format&fit=crop&crop=entropy","https://images.unsplash.com/photo-1493809842364-78817add7ffb?w=1200&h=750&q=66&auto=format&fit=crop&crop=entropy","https://images.unsplash.com/photo-1493663284031-b7e3aefcae8e?w=1200&h=750&q=66&auto=format&fit=crop&crop=entropy"],"thumb":"https://images.unsplash.com/photo-1502672260266-1c1ef2d93688?w=480&h=300&q=55&auto=format&fit=crop&crop=entropy","score":{"opportunity_score":39,"value_score":98,"yield_score":78,"negotiation_score":1,"liquidity_score":85,"gentrification_score":46},"signals":{"price_drops":0,"total_drop_percent":0,"long_time_on_market":false,"explanations":["2.9% net rental yield (gross 4.3%)","19.1% below DVF average (11 925 €/m²)","Cheaper than 82% of the arrondissement","3 days on market","Energy class G — rental restrictions apply"]},"source":"dvf","url":"https://app.dvf.etalab.gouv.fr/"}