{"id":"dvf-2024-1208998","address":{"raw":"10 Rue Coquilliere, 75001 Paris","normalized":"10 Rue Coquillière 75001 Paris","lat":48.863574,"lng":2.343446,"district":"75001"},"characteristics":{"surface_m2":43,"rooms":2,"floor":4},"pricing":{"current_price":550000,"price_per_m2":12791,"initial_price":550000},"timeline":{"first_seen":"2026-06-29","last_seen":"2026-07-02","days_on_market":3},"price_history":[{"date":"2026-06-29","price":550000,"source":"dvf"}],"status":"active","dvf":{"avg_price_m2_100m":13947,"avg_price_m2_500m":12792,"comparable_sales":[{"price":514005,"date":"2024-02-15","distance_m":20},{"price":1404100,"date":"2024-02-21","distance_m":20},{"price":580000,"date":"2024-07-01","distance_m":26},{"price":1117500,"date":"2024-03-29","distance_m":50},{"price":1571500,"date":"2024-09-26","distance_m":54},{"price":380000,"date":"2024-03-18","distance_m":65},{"price":2512980,"date":"2024-10-04","distance_m":66},{"price":493850,"date":"2024-06-14","distance_m":124}]},"risks":{"flood":0.13,"clay":0.48,"noise":0.45},"transport_score":96,"neighborhood":{"walk_score":44,"schools_500m":11,"income":36000,"velib_400m":14,"trees_150m":23,"amenities":{"food":1,"health":0,"green":2,"culture":3}},"rent":{"ref_m2":26.7,"max_m2":32,"min_m2":18.7,"quartier":"Halles","monthly_est":1376},"investment":{"gross_yield":3,"net_yield":1.68,"ppm2_percentile":60,"negotiation_margin_pct":0.1,"dpe_risk_score":75,"value_add_flag":false},"pois":[{"type":"transport","lat":48.86251523497548,"lng":2.345785860039181,"label":"Les Halles · METRO 4"},{"type":"transport","lat":48.86182227279812,"lng":2.3470126872387564,"label":"Châtelet-Les Halles · RER B"},{"type":"transport","lat":48.86182227279812,"lng":2.3470126872387564,"label":"Châtelet-Les Halles · RER D"},{"type":"transport","lat":48.86182227279812,"lng":2.3470126872387564,"label":"Châtelet-Les Halles · RER A"},{"type":"transport","lat":48.8608062912721,"lng":2.3411085916340664,"label":"Louvre-Rivoli · METRO 1"},{"type":"park","lat":48.863316922776185,"lng":2.3399238004101486,"label":"JARDINET PLACE DU LT HENRI KARCHER"},{"type":"park","lat":48.861442376530945,"lng":2.3397175778667028,"label":"JARDINET DE L'ORATOIRE"},{"type":"park","lat":48.86638773075733,"lng":2.3466418776593287,"label":"JARDIN PARTAGE LE JARDIN DE BONNE"},{"type":"velib","lat":48.86362695901683,"lng":2.342623919248581,"label":"Les Halles - Saint-Eustache"},{"type":"velib","lat":48.863795909662,"lng":2.3425736278296,"label":"Coquillière - Louvre"},{"type":"velib","lat":48.86297805972131,"lng":2.3414635285735126,"label":"Jean-Jacques Rousseau - Deux Ecus"},{"type":"velib","lat":48.86502194581,"lng":2.3450684401448,"label":"Montmartre - Etienne Marcel"}],"dpe":{"energy_class":"D","ghg_class":"A"},"images":["https://images.unsplash.com/photo-1493663284031-b7e3aefcae8e?w=1200&h=750&q=66&auto=format&fit=crop&crop=entropy","https://images.unsplash.com/photo-1522708323590-d24dbb6b0267?w=1200&h=750&q=66&auto=format&fit=crop&crop=entropy","https://images.unsplash.com/photo-1502005097973-6a7082348e28?w=1200&h=750&q=66&auto=format&fit=crop&crop=entropy","https://images.unsplash.com/photo-1554995207-c18c203602cb?w=1200&h=750&q=66&auto=format&fit=crop&crop=entropy","https://images.unsplash.com/photo-1540518614846-7eded433c457?w=1200&h=750&q=66&auto=format&fit=crop&crop=entropy"],"thumb":"https://images.unsplash.com/photo-1493663284031-b7e3aefcae8e?w=480&h=300&q=55&auto=format&fit=crop&crop=entropy","score":{"opportunity_score":35,"value_score":63,"yield_score":14,"negotiation_score":1,"liquidity_score":80,"gentrification_score":45},"signals":{"price_drops":0,"total_drop_percent":0,"long_time_on_market":false,"explanations":["1.7% net rental yield (gross 3.0%)","5.1% below DVF average (13 485 €/m²)","3 days on market"]},"source":"dvf","url":"https://app.dvf.etalab.gouv.fr/"}