{"id":"dvf-2024-1229007","address":{"raw":"14 Rue De Tournon, 75006 Paris","normalized":"14 Rue de Tournon 75006 Paris","lat":48.849693,"lng":2.337111,"district":"75006"},"characteristics":{"surface_m2":116,"rooms":3,"floor":0},"pricing":{"current_price":2576100,"price_per_m2":22208,"initial_price":2576100},"timeline":{"first_seen":"2026-06-29","last_seen":"2026-07-02","days_on_market":3},"price_history":[{"date":"2026-06-29","price":2576100,"source":"dvf"}],"status":"active","dvf":{"avg_price_m2_100m":23687,"avg_price_m2_500m":16463,"comparable_sales":[{"price":4199000,"date":"2024-04-30","distance_m":33},{"price":3349282,"date":"2024-04-25","distance_m":38},{"price":557693,"date":"2024-09-09","distance_m":45},{"price":2500000,"date":"2024-11-25","distance_m":75},{"price":2117807,"date":"2024-06-12","distance_m":76},{"price":1170310,"date":"2024-01-08","distance_m":85},{"price":3000000,"date":"2024-04-25","distance_m":91},{"price":3315595,"date":"2024-05-24","distance_m":126}]},"risks":{"flood":0.12,"clay":0.3,"noise":0.6},"transport_score":86,"neighborhood":{"walk_score":75,"schools_500m":15,"income":43000,"velib_400m":5,"trees_150m":34,"amenities":{"food":16,"health":6,"green":3,"culture":0}},"rent":{"ref_m2":28.3,"max_m2":34,"min_m2":19.8,"quartier":"Odeon","monthly_est":3944},"investment":{"gross_yield":1.84,"net_yield":0.59,"ppm2_percentile":92,"negotiation_margin_pct":0.1,"dpe_risk_score":75,"value_add_flag":false},"pois":[{"type":"transport","lat":48.852300763094235,"lng":2.3397277815930964,"label":"Odéon · METRO 4"},{"type":"transport","lat":48.85193594203498,"lng":2.340613006406504,"label":"Odéon · METRO 10"},{"type":"transport","lat":48.8530167679172,"lng":2.335502051727558,"label":"Mabillon · METRO 10"},{"type":"transport","lat":48.851071370372,"lng":2.3307007099542143,"label":"Saint-Sulpice · METRO 4"},{"type":"transport","lat":48.853718934000206,"lng":2.3337761382184676,"label":"Saint-Germain-des-Prés · METRO 4"},{"type":"park","lat":48.849520121107176,"lng":2.3376796364935615,"label":"SQUARE FRANCIS POULENC"},{"type":"park","lat":48.85142545112204,"lng":2.338156317651731,"label":"JARDINET DU 6 RUE CONDE"},{"type":"park","lat":48.84910616340914,"lng":2.3329472315102002,"label":"PROMENADE DE L'ALLEE DU SEMINAIRE - JEAN-JACQUES OLIER"},{"type":"velib","lat":48.84954227788459,"lng":2.337939441204071,"label":"Sénat - Condé"},{"type":"velib","lat":48.851751374458864,"lng":2.338161695134053,"label":"Quatre Vents - Carrefour de l'Odéon"},{"type":"velib","lat":48.85165625855281,"lng":2.335500307381153,"label":"Marché Saint-Germain"},{"type":"velib","lat":48.848951441614,"lng":2.3411329463124,"label":"Vaugirard - Monsieur le Prince"}],"dpe":{"energy_class":"D","ghg_class":"D"},"images":["https://images.unsplash.com/photo-1556912173-3bb406ef7e77?w=1200&h=750&q=66&auto=format&fit=crop&crop=entropy","https://images.unsplash.com/photo-1484154218962-a197022b5858?w=1200&h=750&q=66&auto=format&fit=crop&crop=entropy","https://images.unsplash.com/photo-1567496898669-ee935f5f647a?w=1200&h=750&q=66&auto=format&fit=crop&crop=entropy","https://images.unsplash.com/photo-1505691938895-1758d7feb511?w=1200&h=750&q=66&auto=format&fit=crop&crop=entropy","https://images.unsplash.com/photo-1502005097973-6a7082348e28?w=1200&h=750&q=66&auto=format&fit=crop&crop=entropy"],"thumb":"https://images.unsplash.com/photo-1556912173-3bb406ef7e77?w=480&h=300&q=55&auto=format&fit=crop&crop=entropy","score":{"opportunity_score":23,"value_score":33,"yield_score":0,"negotiation_score":1,"liquidity_score":78,"gentrification_score":48},"signals":{"price_drops":0,"total_drop_percent":0,"long_time_on_market":false,"explanations":["0.6% net rental yield (gross 1.8%)","6.8% above DVF average","3 days on market"]},"source":"dvf","url":"https://app.dvf.etalab.gouv.fr/"}