{"id":"dvf-2024-1209342","address":{"raw":"60 Rue Des Moines, 75017 Paris","normalized":"60 Rue des Moines 75017 Paris","lat":48.890545,"lng":2.3211,"district":"75017"},"characteristics":{"surface_m2":28,"rooms":1,"floor":1},"pricing":{"current_price":235000,"price_per_m2":8393,"initial_price":235000},"timeline":{"first_seen":"2026-06-29","last_seen":"2026-07-02","days_on_market":3},"price_history":[{"date":"2026-06-29","price":235000,"source":"dvf"}],"status":"active","dvf":{"avg_price_m2_100m":9589,"avg_price_m2_500m":9823,"comparable_sales":[{"price":199000,"date":"2024-10-25","distance_m":12},{"price":394000,"date":"2024-07-02","distance_m":21},{"price":303000,"date":"2024-11-28","distance_m":21},{"price":89800,"date":"2024-08-29","distance_m":24},{"price":185000,"date":"2024-09-20","distance_m":24},{"price":530000,"date":"2024-05-23","distance_m":28},{"price":375000,"date":"2024-02-06","distance_m":30},{"price":505000,"date":"2024-11-04","distance_m":30}]},"risks":{"flood":0.09,"clay":0.46,"noise":0.31},"transport_score":100,"neighborhood":{"walk_score":81,"schools_500m":19,"income":35000,"velib_400m":6,"trees_150m":47,"amenities":{"food":19,"health":12,"green":0,"culture":6}},"rent":{"ref_m2":29.6,"max_m2":35.5,"min_m2":20.7,"quartier":"Epinettes","monthly_est":994},"investment":{"gross_yield":5.08,"net_yield":3.61,"ppm2_percentile":20,"negotiation_margin_pct":0.1,"dpe_risk_score":55,"value_add_flag":false},"pois":[{"type":"transport","lat":48.89058718661181,"lng":2.320174757151551,"label":"Brochant · METRO 13"},{"type":"transport","lat":48.88956082831538,"lng":2.3151768973047844,"label":"Pont Cardinet · METRO 14"},{"type":"transport","lat":48.892206827747096,"lng":2.3272198679191285,"label":"Guy Môquet · METRO 13"},{"type":"transport","lat":48.88718394686579,"lng":2.3257796748068915,"label":"La Fourche · METRO 13"},{"type":"transport","lat":48.89416838621195,"lng":2.315599220546768,"label":"Porte de Clichy · RER C"},{"type":"park","lat":48.890008477171015,"lng":2.3257423150256007,"label":"SQUARE DU PASSAGE MONCEY"},{"type":"park","lat":48.8941015102675,"lng":2.3183187894161117,"label":"SQUARE ERNEST GOUIN"},{"type":"park","lat":48.89134232690708,"lng":2.3151035047744837,"label":"JARDIN PARTAGE DU PARC CLICHY-BATIGNOLLES - MARTIN LUTHER KING"},{"type":"velib","lat":48.89032998912038,"lng":2.319730559929781,"label":"Brochant - Clichy"},{"type":"velib","lat":48.888961618559,"lng":2.3225289750944,"label":"Legendre - Clichy"},{"type":"velib","lat":48.89213559044868,"lng":2.32321947813034,"label":"Guy Môquet - Compoint"},{"type":"velib","lat":48.890097168851746,"lng":2.317377626895905,"label":"Lemercier - Cardinet"}],"dpe":{"energy_class":"E","ghg_class":"B"},"images":["https://images.unsplash.com/photo-1493809842364-78817add7ffb?w=1200&h=750&q=66&auto=format&fit=crop&crop=entropy","https://images.unsplash.com/photo-1522708323590-d24dbb6b0267?w=1200&h=750&q=66&auto=format&fit=crop&crop=entropy","https://images.unsplash.com/photo-1493663284031-b7e3aefcae8e?w=1200&h=750&q=66&auto=format&fit=crop&crop=entropy","https://images.unsplash.com/photo-1560448204-e02f11c3d0e2?w=1200&h=750&q=66&auto=format&fit=crop&crop=entropy","https://images.unsplash.com/photo-1502005097973-6a7082348e28?w=1200&h=750&q=66&auto=format&fit=crop&crop=entropy"],"thumb":"https://images.unsplash.com/photo-1493809842364-78817add7ffb?w=480&h=300&q=55&auto=format&fit=crop&crop=entropy","score":{"opportunity_score":57,"value_score":83,"yield_score":100,"negotiation_score":1,"liquidity_score":84,"gentrification_score":55},"signals":{"price_drops":0,"total_drop_percent":0,"long_time_on_market":false,"explanations":["3.6% net rental yield (gross 5.1%)","13.3% below DVF average (9 683 €/m²)","Cheaper than 80% of the arrondissement","3 days on market"]},"source":"dvf","url":"https://app.dvf.etalab.gouv.fr/"}