{"id":"dvf-2024-1209824","address":{"raw":"6 Rue Pastourelle, 75003 Paris","normalized":"6 Rue Pastourelle 75003 Paris","lat":48.862021,"lng":2.360927,"district":"75003"},"characteristics":{"surface_m2":53,"rooms":2,"floor":4},"pricing":{"current_price":977000,"price_per_m2":18434,"initial_price":977000},"timeline":{"first_seen":"2026-06-29","last_seen":"2026-07-02","days_on_market":3},"price_history":[{"date":"2026-06-29","price":977000,"source":"dvf"}],"status":"active","dvf":{"avg_price_m2_100m":13544,"avg_price_m2_500m":12717,"comparable_sales":[{"price":1320000,"date":"2024-03-07","distance_m":32},{"price":160000,"date":"2024-08-07","distance_m":38},{"price":1622500,"date":"2024-12-19","distance_m":38},{"price":3800000,"date":"2024-06-28","distance_m":52},{"price":480000,"date":"2024-12-20","distance_m":52},{"price":360000,"date":"2024-09-11","distance_m":57},{"price":375000,"date":"2024-09-10","distance_m":65},{"price":300000,"date":"2024-01-25","distance_m":68}]},"risks":{"flood":0.17,"clay":0.23,"noise":0.35},"transport_score":79,"neighborhood":{"walk_score":76,"schools_500m":21,"income":35000,"velib_400m":5,"trees_150m":108,"amenities":{"food":30,"health":8,"green":0,"culture":1}},"rent":{"ref_m2":29.2,"max_m2":35,"min_m2":20.4,"quartier":"Enfants-Rouges","monthly_est":1855},"investment":{"gross_yield":2.28,"net_yield":1,"ppm2_percentile":94,"negotiation_margin_pct":0.1,"dpe_risk_score":75,"value_add_flag":false},"pois":[{"type":"transport","lat":48.8632579449589,"lng":2.3666610933534518,"label":"Filles du Calvaire · METRO 8"},{"type":"transport","lat":48.861168864595705,"lng":2.3672108677856154,"label":"Saint-Sébastien-Froissart · METRO 8"},{"type":"transport","lat":48.86532271167806,"lng":2.356729869173701,"label":"Arts et Métiers · METRO 11"},{"type":"transport","lat":48.866514461743,"lng":2.3608035032752688,"label":"Temple · METRO 3"},{"type":"transport","lat":48.86558647849898,"lng":2.356736756794993,"label":"Arts et Métiers · METRO 3"},{"type":"park","lat":48.862991808092225,"lng":2.361786917948169,"label":"JARDIN PARTAGE MADELEINE SCUDERY-LES OISEAUX"},{"type":"park","lat":48.86306513083119,"lng":2.3616418938473718,"label":"JARDINET MADELEINE DE SCUDERY"},{"type":"park","lat":48.86017852162972,"lng":2.36165436775177,"label":"JARDIN DE L'HOTEL SALE - LEONOR FINI"},{"type":"velib","lat":48.8623615,"lng":2.3595041,"label":"Archives - Pastourelle"},{"type":"velib","lat":48.8601346,"lng":2.3611206,"label":"Perle - Vieille du Temple"},{"type":"velib","lat":48.864461781391,"lng":2.3617628216743,"label":"Mairie du 3ème"},{"type":"velib","lat":48.86210505412563,"lng":2.3649600148200993,"label":"Fille du Calvaire - Turenne"}],"dpe":{"energy_class":"D","ghg_class":"B"},"images":["https://images.unsplash.com/photo-1493809842364-78817add7ffb?w=1200&h=750&q=66&auto=format&fit=crop&crop=entropy","https://images.unsplash.com/photo-1522708323590-d24dbb6b0267?w=1200&h=750&q=66&auto=format&fit=crop&crop=entropy","https://images.unsplash.com/photo-1540518614846-7eded433c457?w=1200&h=750&q=66&auto=format&fit=crop&crop=entropy","https://images.unsplash.com/photo-1502005097973-6a7082348e28?w=1200&h=750&q=66&auto=format&fit=crop&crop=entropy","https://images.unsplash.com/photo-1556912173-3bb406ef7e77?w=1200&h=750&q=66&auto=format&fit=crop&crop=entropy"],"thumb":"https://images.unsplash.com/photo-1493809842364-78817add7ffb?w=480&h=300&q=55&auto=format&fit=crop&crop=entropy","score":{"opportunity_score":16,"value_score":6,"yield_score":0,"negotiation_score":1,"liquidity_score":79,"gentrification_score":46},"signals":{"price_drops":0,"total_drop_percent":0,"long_time_on_market":false,"explanations":["1.0% net rental yield (gross 2.3%)","39.5% above DVF average","3 days on market"]},"source":"dvf","url":"https://app.dvf.etalab.gouv.fr/"}