{"id":"dvf-2024-1227977","address":{"raw":"17 Rue Des Cordelieres, 75013 Paris","normalized":"17 Rue des Cordelières 75013 Paris","lat":48.834361,"lng":2.349106,"district":"75013"},"characteristics":{"surface_m2":33,"rooms":1,"floor":2},"pricing":{"current_price":399000,"price_per_m2":12091,"initial_price":399000},"timeline":{"first_seen":"2026-06-29","last_seen":"2026-07-02","days_on_market":3},"price_history":[{"date":"2026-06-29","price":399000,"source":"dvf"}],"status":"active","dvf":{"avg_price_m2_100m":9930,"avg_price_m2_500m":10253,"comparable_sales":[{"price":720000,"date":"2024-09-04","distance_m":38},{"price":442650,"date":"2024-07-23","distance_m":40},{"price":945000,"date":"2024-07-24","distance_m":40},{"price":500000,"date":"2024-07-25","distance_m":40},{"price":815000,"date":"2024-11-18","distance_m":40},{"price":440000,"date":"2024-12-02","distance_m":40},{"price":390000,"date":"2024-12-20","distance_m":40},{"price":176000,"date":"2024-09-30","distance_m":49}]},"risks":{"flood":0.06,"clay":0.5,"noise":0.34},"transport_score":81,"neighborhood":{"walk_score":75,"schools_500m":13,"income":27000,"velib_400m":5,"trees_150m":68,"amenities":{"food":17,"health":1,"green":2,"culture":3}},"rent":{"ref_m2":31.1,"max_m2":37.3,"min_m2":21.8,"quartier":"Croulebarbe","monthly_est":1231},"investment":{"gross_yield":3.7,"net_yield":2.33,"ppm2_percentile":92,"negotiation_margin_pct":0.1,"dpe_risk_score":75,"value_add_flag":false},"pois":[{"type":"transport","lat":48.83593030287887,"lng":2.3525422662627022,"label":"Les Gobelins · METRO 7"},{"type":"transport","lat":48.82979051369297,"lng":2.350414872010464,"label":"Corvisart · METRO 6"},{"type":"transport","lat":48.831129548026645,"lng":2.3435116577497763,"label":"Glacière · METRO 6"},{"type":"transport","lat":48.83143363013256,"lng":2.355643643033711,"label":"Place d'Italie · METRO 7"},{"type":"transport","lat":48.830972672988366,"lng":2.3555802740779104,"label":"Place d'Italie · METRO 5"},{"type":"park","lat":48.834658044127785,"lng":2.350089091847215,"label":"JARDIN PARTAGE DU SQUARE RENE LE GALL"},{"type":"park","lat":48.83289566185049,"lng":2.3496332224900276,"label":"SQUARE RENE LE GALL"},{"type":"park","lat":48.834751928658314,"lng":2.3463947582809768,"label":"JARDINET DE L'HOPITAL BROCA"},{"type":"velib","lat":48.83548071896613,"lng":2.348572461702221,"label":"Cordelières - Arago"},{"type":"velib","lat":48.835092787824,"lng":2.3534681351338,"label":"Le Brun - Gobelins"},{"type":"velib","lat":48.83486054775774,"lng":2.3445770524322067,"label":"Arago - Glacière"},{"type":"velib","lat":48.837135900263,"lng":2.3515201359987,"label":"Gobelins - Port-Royal"}],"dpe":{"energy_class":"D","ghg_class":"D"},"images":["https://images.unsplash.com/photo-1554995207-c18c203602cb?w=1200&h=750&q=66&auto=format&fit=crop&crop=entropy","https://images.unsplash.com/photo-1502005097973-6a7082348e28?w=1200&h=750&q=66&auto=format&fit=crop&crop=entropy","https://images.unsplash.com/photo-1502672260266-1c1ef2d93688?w=1200&h=750&q=66&auto=format&fit=crop&crop=entropy","https://images.unsplash.com/photo-1556912173-3bb406ef7e77?w=1200&h=750&q=66&auto=format&fit=crop&crop=entropy","https://images.unsplash.com/photo-1560448204-e02f11c3d0e2?w=1200&h=750&q=66&auto=format&fit=crop&crop=entropy"],"thumb":"https://images.unsplash.com/photo-1554995207-c18c203602cb?w=480&h=300&q=55&auto=format&fit=crop&crop=entropy","score":{"opportunity_score":28,"value_score":8,"yield_score":47,"negotiation_score":1,"liquidity_score":74,"gentrification_score":48},"signals":{"price_drops":0,"total_drop_percent":0,"long_time_on_market":false,"explanations":["2.3% net rental yield (gross 3.7%)","20.2% above DVF average","3 days on market"]},"source":"dvf","url":"https://app.dvf.etalab.gouv.fr/"}