{"id":"dvf-2024-1228089","address":{"raw":"41 Rue De Bourgogne, 75007 Paris","normalized":"41 Rue de Bourgogne 75007 Paris","lat":48.857105,"lng":2.317442,"district":"75007"},"characteristics":{"surface_m2":43,"rooms":3,"floor":4},"pricing":{"current_price":750000,"price_per_m2":17442,"initial_price":750000},"timeline":{"first_seen":"2026-06-29","last_seen":"2026-07-02","days_on_market":3},"price_history":[{"date":"2026-06-29","price":750000,"source":"dvf"}],"status":"active","dvf":{"avg_price_m2_100m":15358,"avg_price_m2_500m":17196,"comparable_sales":[{"price":630000,"date":"2024-06-27","distance_m":29},{"price":1040000,"date":"2024-01-18","distance_m":31},{"price":380000,"date":"2024-03-22","distance_m":35},{"price":450000,"date":"2024-05-15","distance_m":35},{"price":535000,"date":"2024-07-05","distance_m":35},{"price":270000,"date":"2024-02-26","distance_m":57},{"price":455000,"date":"2024-07-09","distance_m":82},{"price":2112000,"date":"2024-04-24","distance_m":85}]},"risks":{"flood":0.39,"clay":0.32,"noise":0.4},"transport_score":98,"neighborhood":{"walk_score":55,"schools_500m":9,"income":47000,"velib_400m":4,"trees_150m":69,"amenities":{"food":7,"health":4,"green":1,"culture":0}},"rent":{"ref_m2":28,"max_m2":33.6,"min_m2":19.6,"quartier":"Invalides","monthly_est":1445},"investment":{"gross_yield":2.31,"net_yield":1.03,"ppm2_percentile":82,"negotiation_margin_pct":0.1,"dpe_risk_score":30,"value_add_flag":false},"pois":[{"type":"transport","lat":48.85687137924919,"lng":2.315056637317088,"label":"Varenne · METRO 13"},{"type":"transport","lat":48.86038127919816,"lng":2.3148907300588806,"label":"Invalides · METRO 8"},{"type":"transport","lat":48.86002845820203,"lng":2.3139151192031537,"label":"Invalides · METRO 13"},{"type":"transport","lat":48.85849912371638,"lng":2.323167611246745,"label":"Solférino · METRO 12"},{"type":"transport","lat":48.860786963526714,"lng":2.3209981919540845,"label":"Assemblée Nationale · METRO 12"},{"type":"park","lat":48.85798997681715,"lng":2.318942297318539,"label":"JARDINIERES DE LA RUE DE CHAMPAGNY"},{"type":"park","lat":48.85748885933188,"lng":2.3146106729794735,"label":"SQUARE D'AJACCIO"},{"type":"park","lat":48.85859593119711,"lng":2.3224308582450486,"label":"JARDINET DE LA PLACE JACQUES BAINVILLE"},{"type":"velib","lat":48.8577967,"lng":2.3192664,"label":"Mairie du 7ème"},{"type":"velib","lat":48.857202661803,"lng":2.3152771219611,"label":"Varenne"},{"type":"velib","lat":48.858278471985,"lng":2.3187066793468,"label":"Martignac - Grenelle"},{"type":"velib","lat":48.8542210666207,"lng":2.319614924490452,"label":"Cité Vaneau"}],"dpe":{"energy_class":"F","ghg_class":"F"},"images":["https://images.unsplash.com/photo-1567496898669-ee935f5f647a?w=1200&h=750&q=66&auto=format&fit=crop&crop=entropy","https://images.unsplash.com/photo-1502672260266-1c1ef2d93688?w=1200&h=750&q=66&auto=format&fit=crop&crop=entropy","https://images.unsplash.com/photo-1560448204-e02f11c3d0e2?w=1200&h=750&q=66&auto=format&fit=crop&crop=entropy","https://images.unsplash.com/photo-1540518614846-7eded433c457?w=1200&h=750&q=66&auto=format&fit=crop&crop=entropy","https://images.unsplash.com/photo-1522708323590-d24dbb6b0267?w=1200&h=750&q=66&auto=format&fit=crop&crop=entropy"],"thumb":"https://images.unsplash.com/photo-1567496898669-ee935f5f647a?w=480&h=300&q=55&auto=format&fit=crop&crop=entropy","score":{"opportunity_score":18,"value_score":29,"yield_score":0,"negotiation_score":1,"liquidity_score":87,"gentrification_score":56},"signals":{"price_drops":0,"total_drop_percent":0,"long_time_on_market":false,"explanations":["1.0% net rental yield (gross 2.3%)","8.4% above DVF average","3 days on market","Energy class F — rental restrictions apply"]},"source":"dvf","url":"https://app.dvf.etalab.gouv.fr/"}