{"id":"dvf-2024-1209291","address":{"raw":"49 Rue De L Arbre Sec, 75001 Paris","normalized":"49 Rue de l'Arbre Sec 75001 Paris","lat":48.861281,"lng":2.342401,"district":"75001"},"characteristics":{"surface_m2":18,"rooms":1,"floor":0},"pricing":{"current_price":165000,"price_per_m2":9167,"initial_price":165000},"timeline":{"first_seen":"2026-06-29","last_seen":"2026-07-02","days_on_market":3},"price_history":[{"date":"2026-06-29","price":165000,"source":"dvf"}],"status":"active","dvf":{"avg_price_m2_100m":12929,"avg_price_m2_500m":13356,"comparable_sales":[{"price":262000,"date":"2024-01-12","distance_m":12},{"price":219000,"date":"2024-12-06","distance_m":15},{"price":1805158,"date":"2024-12-19","distance_m":44},{"price":800000,"date":"2024-01-12","distance_m":45},{"price":295600,"date":"2024-09-30","distance_m":45},{"price":664400,"date":"2024-04-22","distance_m":52},{"price":928403,"date":"2024-09-21","distance_m":56},{"price":365000,"date":"2024-05-23","distance_m":67}]},"risks":{"flood":0.36,"clay":0.15,"noise":0.43},"transport_score":100,"neighborhood":{"walk_score":62,"schools_500m":9,"income":36000,"velib_400m":10,"trees_150m":44,"amenities":{"food":12,"health":7,"green":0,"culture":0}},"rent":{"ref_m2":31.1,"max_m2":37.3,"min_m2":21.8,"quartier":"Halles","monthly_est":671},"investment":{"gross_yield":4.88,"net_yield":3.43,"ppm2_percentile":10,"negotiation_margin_pct":0.1,"dpe_risk_score":88,"value_add_flag":false},"pois":[{"type":"transport","lat":48.8608062912721,"lng":2.3411085916340664,"label":"Louvre-Rivoli · METRO 1"},{"type":"transport","lat":48.86251523497548,"lng":2.345785860039181,"label":"Les Halles · METRO 4"},{"type":"transport","lat":48.85855382636669,"lng":2.342232759368107,"label":"Pont Neuf · METRO 7"},{"type":"transport","lat":48.859287325170946,"lng":2.345803056189527,"label":"Châtelet · METRO 1"},{"type":"transport","lat":48.86182227279812,"lng":2.3470126872387564,"label":"Châtelet-Les Halles · RER B"},{"type":"park","lat":48.85992497594794,"lng":2.3406756331125718,"label":"SQUARE MICHEL CALDAGUES"},{"type":"park","lat":48.861442376530945,"lng":2.3397175778667028,"label":"JARDINET DE L'ORATOIRE"},{"type":"park","lat":48.863316922776185,"lng":2.3399238004101486,"label":"JARDINET PLACE DU LT HENRI KARCHER"},{"type":"velib","lat":48.860273568996,"lng":2.3412468419093,"label":"Perrault - Place du Louvre"},{"type":"velib","lat":48.861342760889,"lng":2.3400047421455,"label":"Oratoire - Rivoli"},{"type":"velib","lat":48.860089892617,"lng":2.344057559967,"label":"Pont Neuf - Rivoli"},{"type":"velib","lat":48.86297805972131,"lng":2.3414635285735126,"label":"Jean-Jacques Rousseau - Deux Ecus"}],"dpe":{"energy_class":"C","ghg_class":"A"},"images":["https://images.unsplash.com/photo-1522708323590-d24dbb6b0267?w=1200&h=750&q=66&auto=format&fit=crop&crop=entropy","https://images.unsplash.com/photo-1493663284031-b7e3aefcae8e?w=1200&h=750&q=66&auto=format&fit=crop&crop=entropy","https://images.unsplash.com/photo-1554995207-c18c203602cb?w=1200&h=750&q=66&auto=format&fit=crop&crop=entropy","https://images.unsplash.com/photo-1493809842364-78817add7ffb?w=1200&h=750&q=66&auto=format&fit=crop&crop=entropy","https://images.unsplash.com/photo-1502005097973-6a7082348e28?w=1200&h=750&q=66&auto=format&fit=crop&crop=entropy"],"thumb":"https://images.unsplash.com/photo-1522708323590-d24dbb6b0267?w=480&h=300&q=55&auto=format&fit=crop&crop=entropy","score":{"opportunity_score":72,"value_score":100,"yield_score":97,"negotiation_score":1,"liquidity_score":88,"gentrification_score":45},"signals":{"price_drops":0,"total_drop_percent":0,"long_time_on_market":false,"explanations":["3.4% net rental yield (gross 4.9%)","30% below DVF average (13 100 €/m²)","Cheaper than 90% of the arrondissement","3 days on market"]},"source":"dvf","url":"https://app.dvf.etalab.gouv.fr/"}