{"id":"dvf-2024-1208231","address":{"raw":"62 Rue Montorgueil, 75002 Paris","normalized":"62 Rue Montorgueil 75002 Paris","lat":48.865198,"lng":2.347036,"district":"75002"},"characteristics":{"surface_m2":69,"rooms":2,"floor":0},"pricing":{"current_price":650000,"price_per_m2":9420,"initial_price":650000},"timeline":{"first_seen":"2026-06-29","last_seen":"2026-07-02","days_on_market":3},"price_history":[{"date":"2026-06-29","price":650000,"source":"dvf"}],"status":"active","dvf":{"avg_price_m2_100m":11862,"avg_price_m2_500m":12025,"comparable_sales":[{"price":640000,"date":"2024-02-16","distance_m":22},{"price":750000,"date":"2024-04-17","distance_m":22},{"price":1277297,"date":"2024-03-28","distance_m":22},{"price":460000,"date":"2024-09-20","distance_m":22},{"price":601942,"date":"2024-10-25","distance_m":22},{"price":499400,"date":"2024-03-22","distance_m":39},{"price":199500,"date":"2024-11-22","distance_m":39},{"price":503000,"date":"2024-09-30","distance_m":43}]},"risks":{"flood":0.17,"clay":0.36,"noise":0.26},"transport_score":94,"neighborhood":{"walk_score":71,"schools_500m":15,"income":34000,"velib_400m":15,"trees_150m":42,"amenities":{"food":30,"health":3,"green":0,"culture":4}},"rent":{"ref_m2":29.2,"max_m2":35,"min_m2":20.4,"quartier":"Bonne-Nouvelle","monthly_est":2415},"investment":{"gross_yield":4.46,"net_yield":3.03,"ppm2_percentile":20,"negotiation_margin_pct":0.1,"dpe_risk_score":55,"value_add_flag":false},"pois":[{"type":"transport","lat":48.863972478817246,"lng":2.3496175641598405,"label":"Étienne Marcel · METRO 4"},{"type":"transport","lat":48.86751302499845,"lng":2.346552336353212,"label":"Sentier · METRO 3"},{"type":"transport","lat":48.86251523497548,"lng":2.345785860039181,"label":"Les Halles · METRO 4"},{"type":"transport","lat":48.8664963437902,"lng":2.3513589155329915,"label":"Réaumur Sébastopol · METRO 3"},{"type":"transport","lat":48.86182227279812,"lng":2.3470126872387564,"label":"Châtelet-Les Halles · RER B"},{"type":"park","lat":48.86638773075733,"lng":2.3466418776593287,"label":"JARDIN PARTAGE LE JARDIN DE BONNE"},{"type":"park","lat":48.867071896548595,"lng":2.348286168102479,"label":"JARDINET LAZAREFF"},{"type":"park","lat":48.86673388844411,"lng":2.3498762921994794,"label":"JARDINET REAUMUR"},{"type":"velib","lat":48.86450567259199,"lng":2.3461959511041637,"label":"Etienne Marcel - Montorgueil"},{"type":"velib","lat":48.864053304653766,"lng":2.347587011754513,"label":"Française - Etienne Marcel"},{"type":"velib","lat":48.86502194581,"lng":2.3450684401448,"label":"Montmartre - Etienne Marcel"},{"type":"velib","lat":48.86617395079137,"lng":2.3449775576591496,"label":"Bachaumont - Montmartre"}],"dpe":{"energy_class":"E","ghg_class":"D"},"images":["https://images.unsplash.com/photo-1493663284031-b7e3aefcae8e?w=1200&h=750&q=66&auto=format&fit=crop&crop=entropy","https://images.unsplash.com/photo-1484154218962-a197022b5858?w=1200&h=750&q=66&auto=format&fit=crop&crop=entropy","https://images.unsplash.com/photo-1567496898669-ee935f5f647a?w=1200&h=750&q=66&auto=format&fit=crop&crop=entropy","https://images.unsplash.com/photo-1502005097973-6a7082348e28?w=1200&h=750&q=66&auto=format&fit=crop&crop=entropy","https://images.unsplash.com/photo-1556912173-3bb406ef7e77?w=1200&h=750&q=66&auto=format&fit=crop&crop=entropy"],"thumb":"https://images.unsplash.com/photo-1493663284031-b7e3aefcae8e?w=480&h=300&q=55&auto=format&fit=crop&crop=entropy","score":{"opportunity_score":56,"value_score":100,"yield_score":83,"negotiation_score":1,"liquidity_score":80,"gentrification_score":47},"signals":{"price_drops":0,"total_drop_percent":0,"long_time_on_market":false,"explanations":["3.0% net rental yield (gross 4.5%)","21% below DVF average (11 927 €/m²)","Cheaper than 80% of the arrondissement","3 days on market"]},"source":"dvf","url":"https://app.dvf.etalab.gouv.fr/"}