{"id":"dvf-2024-1210266","address":{"raw":"39 Rue Beauregard, 75002 Paris","normalized":"39 Rue Beauregard 75002 Paris","lat":48.869644,"lng":2.351304,"district":"75002"},"characteristics":{"surface_m2":25,"rooms":2,"floor":1},"pricing":{"current_price":190000,"price_per_m2":7600,"initial_price":190000},"timeline":{"first_seen":"2026-06-29","last_seen":"2026-07-02","days_on_market":3},"price_history":[{"date":"2026-06-29","price":190000,"source":"dvf"}],"status":"active","dvf":{"avg_price_m2_100m":11710,"avg_price_m2_500m":10580,"comparable_sales":[{"price":960000,"date":"2024-04-30","distance_m":40},{"price":415000,"date":"2024-10-04","distance_m":44},{"price":323010,"date":"2024-12-30","distance_m":44},{"price":530000,"date":"2024-12-11","distance_m":52},{"price":153700,"date":"2024-12-31","distance_m":52},{"price":588600,"date":"2024-12-18","distance_m":63},{"price":828153,"date":"2024-07-25","distance_m":64},{"price":1030470,"date":"2024-05-17","distance_m":77}]},"risks":{"flood":0.06,"clay":0.43,"noise":0.47},"transport_score":97,"neighborhood":{"walk_score":84,"schools_500m":11,"income":34000,"velib_400m":12,"trees_150m":55,"amenities":{"food":17,"health":4,"green":3,"culture":4}},"rent":{"ref_m2":29.2,"max_m2":35,"min_m2":20.4,"quartier":"Bonne-Nouvelle","monthly_est":875},"investment":{"gross_yield":5.53,"net_yield":4.02,"ppm2_percentile":0,"negotiation_margin_pct":0.1,"dpe_risk_score":30,"value_add_flag":true},"pois":[{"type":"transport","lat":48.86940219665552,"lng":2.3538187935928794,"label":"Strasbourg-Saint-Denis · METRO 9"},{"type":"transport","lat":48.86940219665552,"lng":2.3538187935928794,"label":"Strasbourg-Saint-Denis · METRO 8"},{"type":"transport","lat":48.870590478011124,"lng":2.3484911310789895,"label":"Bonne Nouvelle · METRO 8"},{"type":"transport","lat":48.870590478011124,"lng":2.3484911310789895,"label":"Bonne Nouvelle · METRO 9"},{"type":"transport","lat":48.869628863778516,"lng":2.354468813108209,"label":"Strasbourg-Saint-Denis · METRO 4"},{"type":"park","lat":48.86984822793833,"lng":2.3501256247952056,"label":"JARDIN PARTAGE DU SQUARE JACQUES BIDAUT"},{"type":"park","lat":48.869867328723295,"lng":2.349960640148994,"label":"SQUARE JACQUES BIDAUT"},{"type":"park","lat":48.8710779551507,"lng":2.3504575605902147,"label":"SQUARE YILMAZ GUNEY"},{"type":"velib","lat":48.870047123655,"lng":2.3511248454452,"label":"Mazagran - Bonne Nouvelle"},{"type":"velib","lat":48.86868344444473,"lng":2.3502043269474897,"label":"Aboukir - Alexandrie"},{"type":"velib","lat":48.87077436024,"lng":2.3496496368327,"label":"Hauteville - Bonne Nouvelle"},{"type":"velib","lat":48.870893,"lng":2.353521,"label":"Metz - Faubourg Saint-Denis"}],"dpe":{"energy_class":"F","ghg_class":"C"},"images":["https://images.unsplash.com/photo-1484154218962-a197022b5858?w=1200&h=750&q=66&auto=format&fit=crop&crop=entropy","https://images.unsplash.com/photo-1493809842364-78817add7ffb?w=1200&h=750&q=66&auto=format&fit=crop&crop=entropy","https://images.unsplash.com/photo-1505691938895-1758d7feb511?w=1200&h=750&q=66&auto=format&fit=crop&crop=entropy","https://images.unsplash.com/photo-1493663284031-b7e3aefcae8e?w=1200&h=750&q=66&auto=format&fit=crop&crop=entropy","https://images.unsplash.com/photo-1502672260266-1c1ef2d93688?w=1200&h=750&q=66&auto=format&fit=crop&crop=entropy"],"thumb":"https://images.unsplash.com/photo-1484154218962-a197022b5858?w=480&h=300&q=55&auto=format&fit=crop&crop=entropy","score":{"opportunity_score":78,"value_score":100,"yield_score":100,"negotiation_score":1,"liquidity_score":87,"gentrification_score":47},"signals":{"price_drops":0,"total_drop_percent":0,"long_time_on_market":false,"explanations":["4.0% net rental yield (gross 5.5%)","32.5% below DVF average (11 258 €/m²)","Cheaper than 100% of the arrondissement","3 days on market","Value-add: discount exceeds renovation cost (F/G arbitrage)"]},"source":"dvf","url":"https://app.dvf.etalab.gouv.fr/"}