{"id":"dvf-2024-1209435","address":{"raw":"64 Bd De Menilmontant, 75020 Paris","normalized":"64 Rue de Ménilmontant 75020 Paris","lat":48.868358,"lng":2.389198,"district":"75020"},"characteristics":{"surface_m2":32,"rooms":2,"floor":1},"pricing":{"current_price":200000,"price_per_m2":6250,"initial_price":200000},"timeline":{"first_seen":"2026-06-29","last_seen":"2026-07-02","days_on_market":3},"price_history":[{"date":"2026-06-29","price":200000,"source":"dvf"}],"status":"active","dvf":{"avg_price_m2_100m":9599,"avg_price_m2_500m":8713,"comparable_sales":[{"price":407000,"date":"2024-07-18","distance_m":20},{"price":800000,"date":"2024-07-05","distance_m":20},{"price":330000,"date":"2024-09-10","distance_m":36},{"price":412000,"date":"2024-12-02","distance_m":38},{"price":468250,"date":"2024-01-19","distance_m":40},{"price":272000,"date":"2024-03-21","distance_m":40},{"price":140000,"date":"2024-04-11","distance_m":44},{"price":260000,"date":"2024-09-27","distance_m":44}]},"risks":{"flood":0.02,"clay":0.42,"noise":0.38},"transport_score":46,"neighborhood":{"walk_score":94,"schools_500m":36,"income":25000,"velib_400m":5,"trees_150m":82,"amenities":{"food":17,"health":7,"green":3,"culture":7}},"rent":{"ref_m2":23.8,"max_m2":28.6,"min_m2":16.7,"quartier":"Père-Lachaise","monthly_est":915},"investment":{"gross_yield":5.49,"net_yield":3.99,"ppm2_percentile":0,"negotiation_margin_pct":0.1,"dpe_risk_score":75,"value_add_flag":false},"pois":[{"type":"transport","lat":48.866446806067,"lng":2.383599109573657,"label":"Ménilmontant · METRO 2"},{"type":"transport","lat":48.86312321464208,"lng":2.3858824493261475,"label":"Père Lachaise · METRO 3"},{"type":"transport","lat":48.8690911620257,"lng":2.380542586000037,"label":"Couronnes · METRO 2"},{"type":"transport","lat":48.87388185415816,"lng":2.385316215101792,"label":"Pyrénées · METRO 11"},{"type":"transport","lat":48.86497810787772,"lng":2.396912847086626,"label":"Gambetta · METRO 3"},{"type":"park","lat":48.86874003284948,"lng":2.388169226405918,"label":"SQUARE DE L'EGLISE NOTRE-DAME DE LA CROIX"},{"type":"park","lat":48.869567281708505,"lng":2.3887003690557482,"label":"PROMENADE PC 20 RUE DE LA MARE"},{"type":"park","lat":48.86659526974087,"lng":2.390277632443793,"label":"SQUARE ELISA BOREY"},{"type":"velib","lat":48.868542395661,"lng":2.3897721245885,"label":"Sorbier - Ménilmontant"},{"type":"velib","lat":48.868895162679,"lng":2.3919824145635,"label":"Boyer - Ménilmontant"},{"type":"velib","lat":48.87033205312931,"lng":2.388777695596218,"label":"Henri Chevreau - Couronnes"},{"type":"velib","lat":48.86615630668046,"lng":2.3891324177384377,"label":"Square des Amandiers"}],"dpe":{"energy_class":"D","ghg_class":"B"},"images":["https://images.unsplash.com/photo-1560448204-e02f11c3d0e2?w=1200&h=750&q=66&auto=format&fit=crop&crop=entropy","https://images.unsplash.com/photo-1493809842364-78817add7ffb?w=1200&h=750&q=66&auto=format&fit=crop&crop=entropy","https://images.unsplash.com/photo-1554995207-c18c203602cb?w=1200&h=750&q=66&auto=format&fit=crop&crop=entropy","https://images.unsplash.com/photo-1484154218962-a197022b5858?w=1200&h=750&q=66&auto=format&fit=crop&crop=entropy","https://images.unsplash.com/photo-1522708323590-d24dbb6b0267?w=1200&h=750&q=66&auto=format&fit=crop&crop=entropy"],"thumb":"https://images.unsplash.com/photo-1560448204-e02f11c3d0e2?w=480&h=300&q=55&auto=format&fit=crop&crop=entropy","score":{"opportunity_score":65,"value_score":100,"yield_score":100,"negotiation_score":1,"liquidity_score":67,"gentrification_score":45},"signals":{"price_drops":0,"total_drop_percent":0,"long_time_on_market":false,"explanations":["4.0% net rental yield (gross 5.5%)","32.4% below DVF average (9 245 €/m²)","Cheaper than 100% of the arrondissement","3 days on market"]},"source":"dvf","url":"https://app.dvf.etalab.gouv.fr/"}