{"id":"dvf-2024-1210441","address":{"raw":"6 B Rue Des Recollets, 75010 Paris","normalized":"6b Rue des Récollets 75010 Paris","lat":48.874486,"lng":2.361958,"district":"75010"},"characteristics":{"surface_m2":33,"rooms":1,"floor":3},"pricing":{"current_price":397020,"price_per_m2":12031,"initial_price":397020},"timeline":{"first_seen":"2026-06-29","last_seen":"2026-07-02","days_on_market":3},"price_history":[{"date":"2026-06-29","price":397020,"source":"dvf"}],"status":"active","dvf":{"avg_price_m2_100m":10484,"avg_price_m2_500m":9967,"comparable_sales":[{"price":236000,"date":"2024-12-27","distance_m":40},{"price":900000,"date":"2024-09-24","distance_m":54},{"price":415350,"date":"2024-10-18","distance_m":54},{"price":435000,"date":"2024-11-12","distance_m":54},{"price":675000,"date":"2024-04-09","distance_m":60},{"price":145000,"date":"2024-05-15","distance_m":93},{"price":420000,"date":"2024-06-12","distance_m":95},{"price":515000,"date":"2024-06-07","distance_m":100}]},"risks":{"flood":0.09,"clay":0.32,"noise":0.47},"transport_score":87,"neighborhood":{"walk_score":73,"schools_500m":3,"income":29000,"velib_400m":11,"trees_150m":79,"amenities":{"food":20,"health":8,"green":1,"culture":3}},"rent":{"ref_m2":29.6,"max_m2":35.5,"min_m2":20.7,"quartier":"Hôpital-Saint-Louis","monthly_est":1172},"investment":{"gross_yield":3.54,"net_yield":2.18,"ppm2_percentile":86,"negotiation_margin_pct":0.1,"dpe_risk_score":75,"value_add_flag":false},"pois":[{"type":"transport","lat":48.87612635294891,"lng":2.358047505360746,"label":"Gare de l'Est · METRO 5"},{"type":"transport","lat":48.8759910648072,"lng":2.357880771925327,"label":"Gare de l'Est · METRO 4"},{"type":"transport","lat":48.8762727026041,"lng":2.3580579070747385,"label":"Gare de l'Est · METRO 7"},{"type":"transport","lat":48.877375619879636,"lng":2.3594566169442075,"label":"Gare de l'Est · TRAIN P"},{"type":"transport","lat":48.87844430039445,"lng":2.3619653022299603,"label":"Château-Landon · METRO 7"},{"type":"park","lat":48.87515904628453,"lng":2.3617911384023724,"label":"JARDIN VILLEMIN- MASHA JINA AMINI"},{"type":"park","lat":48.87355156595055,"lng":2.363603194832792,"label":"SQUARE DES RECOLLETS"},{"type":"park","lat":48.87522632915541,"lng":2.3597655931372152,"label":"JARDIN PARTAGE DE LA RESIDENCE DES RECOLLETS"},{"type":"velib","lat":48.874330377560476,"lng":2.3621229082345963,"label":"Lucien Sampaix - Récollets"},{"type":"velib","lat":48.875034655883944,"lng":2.359801238597928,"label":"Récollets - Square Villemin"},{"type":"velib","lat":48.876156054271,"lng":2.3609149083206,"label":"Gare de l'Est - Verdun"},{"type":"velib","lat":48.875642647477,"lng":2.3594588041306,"label":"Gare de l'Est - Faubourg-Saint-Martin"}],"dpe":{"energy_class":"D","ghg_class":"B"},"images":["https://images.unsplash.com/photo-1554995207-c18c203602cb?w=1200&h=750&q=66&auto=format&fit=crop&crop=entropy","https://images.unsplash.com/photo-1540518614846-7eded433c457?w=1200&h=750&q=66&auto=format&fit=crop&crop=entropy","https://images.unsplash.com/photo-1560448204-e02f11c3d0e2?w=1200&h=750&q=66&auto=format&fit=crop&crop=entropy","https://images.unsplash.com/photo-1502005097973-6a7082348e28?w=1200&h=750&q=66&auto=format&fit=crop&crop=entropy","https://images.unsplash.com/photo-1493809842364-78817add7ffb?w=1200&h=750&q=66&auto=format&fit=crop&crop=entropy"],"thumb":"https://images.unsplash.com/photo-1554995207-c18c203602cb?w=480&h=300&q=55&auto=format&fit=crop&crop=entropy","score":{"opportunity_score":28,"value_score":14,"yield_score":39,"negotiation_score":1,"liquidity_score":78,"gentrification_score":46},"signals":{"price_drops":0,"total_drop_percent":0,"long_time_on_market":false,"explanations":["2.2% net rental yield (gross 3.5%)","17.1% above DVF average","3 days on market"]},"source":"dvf","url":"https://app.dvf.etalab.gouv.fr/"}