{"id":"dvf-2024-1228743","address":{"raw":"15 Rue Du Rendez Vous, 75012 Paris","normalized":"15 Rue du Rendez-Vous 75012 Paris","lat":48.845364,"lng":2.40389,"district":"75012"},"characteristics":{"surface_m2":37,"rooms":2,"floor":1},"pricing":{"current_price":362800,"price_per_m2":9805,"initial_price":362800},"timeline":{"first_seen":"2026-06-29","last_seen":"2026-07-02","days_on_market":3},"price_history":[{"date":"2026-06-29","price":362800,"source":"dvf"}],"status":"active","dvf":{"avg_price_m2_100m":9413,"avg_price_m2_500m":8825,"comparable_sales":[{"price":210000,"date":"2024-10-17","distance_m":32},{"price":1247900,"date":"2024-02-16","distance_m":34},{"price":317000,"date":"2024-12-02","distance_m":34},{"price":338000,"date":"2024-12-18","distance_m":34},{"price":290000,"date":"2024-12-30","distance_m":38},{"price":802500,"date":"2024-03-11","distance_m":53},{"price":853000,"date":"2024-07-25","distance_m":53},{"price":130000,"date":"2024-08-30","distance_m":56}]},"risks":{"flood":0.08,"clay":0.09,"noise":0.33},"transport_score":97,"neighborhood":{"walk_score":37,"schools_500m":16,"income":31000,"velib_400m":4,"trees_150m":18,"amenities":{"food":1,"health":1,"green":1,"culture":1}},"rent":{"ref_m2":23.8,"max_m2":28.6,"min_m2":16.7,"quartier":"Bel-Air","monthly_est":1058},"investment":{"gross_yield":3.5,"net_yield":2.14,"ppm2_percentile":62,"negotiation_margin_pct":0.1,"dpe_risk_score":55,"value_add_flag":false},"pois":[{"type":"transport","lat":48.84506157994489,"lng":2.4012890198273484,"label":"Picpus · METRO 6"},{"type":"transport","lat":48.847335584614896,"lng":2.408089407236094,"label":"Porte de Vincennes · METRO 1"},{"type":"transport","lat":48.84694815185174,"lng":2.409551429787372,"label":"Porte de Vincennes · TRAM 3a"},{"type":"transport","lat":48.847393890496086,"lng":2.40965605640417,"label":"Porte de Vincennes · TRAM 3b"},{"type":"transport","lat":48.843700739992194,"lng":2.410109555597318,"label":"Alexandra David-Néel · TRAM 3a"},{"type":"park","lat":48.8463750263652,"lng":2.403843165256922,"label":"JARDIN PARTAGE DU JARDIN DEBERGUE-RENDEZ-VOUS"},{"type":"park","lat":48.846507566413514,"lng":2.4046270452405683,"label":"JARDIN SOLANGE FALADE"},{"type":"park","lat":48.84453012748777,"lng":2.402091800112529,"label":"SQUARE COURTELINE"},{"type":"velib","lat":48.84462585769668,"lng":2.404946386814118,"label":"Saint-Mandé - Docteur Arnold Netter"},{"type":"velib","lat":48.845127728278,"lng":2.4015686296482,"label":"Saint-Mande - Picpus"},{"type":"velib","lat":48.847796779935,"lng":2.4061721563339,"label":"Pyrénées - Cours de Vincennes"},{"type":"velib","lat":48.846821681548,"lng":2.4001130461693,"label":"Place de la Nation - Picpus"}],"dpe":{"energy_class":"E","ghg_class":"C"},"images":["https://images.unsplash.com/photo-1493809842364-78817add7ffb?w=1200&h=750&q=66&auto=format&fit=crop&crop=entropy","https://images.unsplash.com/photo-1560448204-e02f11c3d0e2?w=1200&h=750&q=66&auto=format&fit=crop&crop=entropy","https://images.unsplash.com/photo-1540518614846-7eded433c457?w=1200&h=750&q=66&auto=format&fit=crop&crop=entropy","https://images.unsplash.com/photo-1505691938895-1758d7feb511?w=1200&h=750&q=66&auto=format&fit=crop&crop=entropy","https://images.unsplash.com/photo-1554995207-c18c203602cb?w=1200&h=750&q=66&auto=format&fit=crop&crop=entropy"],"thumb":"https://images.unsplash.com/photo-1493809842364-78817add7ffb?w=480&h=300&q=55&auto=format&fit=crop&crop=entropy","score":{"opportunity_score":30,"value_score":38,"yield_score":37,"negotiation_score":1,"liquidity_score":70,"gentrification_score":52},"signals":{"price_drops":0,"total_drop_percent":0,"long_time_on_market":false,"explanations":["2.1% net rental yield (gross 3.5%)","6.8% above DVF average","3 days on market"]},"source":"dvf","url":"https://app.dvf.etalab.gouv.fr/"}