{"id":"dvf-2024-1210383","address":{"raw":"10 B Cite De L Ermitage, 75020 Paris","normalized":"10b Cité de l'Ermitage 75020 Paris","lat":48.870079,"lng":2.392323,"district":"75020"},"characteristics":{"surface_m2":15,"rooms":1,"floor":1},"pricing":{"current_price":105000,"price_per_m2":7000,"initial_price":105000},"timeline":{"first_seen":"2026-06-29","last_seen":"2026-07-01","days_on_market":2},"price_history":[{"date":"2026-06-29","price":105000,"source":"dvf"}],"status":"active","dvf":{"avg_price_m2_100m":9263,"avg_price_m2_500m":8684,"comparable_sales":[{"price":327140,"date":"2024-07-15","distance_m":18},{"price":210000,"date":"2024-09-23","distance_m":20},{"price":240000,"date":"2024-02-15","distance_m":40},{"price":525180,"date":"2024-05-30","distance_m":41},{"price":417000,"date":"2024-06-18","distance_m":41},{"price":258000,"date":"2024-09-26","distance_m":81},{"price":458000,"date":"2024-11-15","distance_m":90},{"price":402500,"date":"2024-12-27","distance_m":90}]},"risks":{"flood":0.06,"clay":0.32,"noise":0.33},"transport_score":36,"neighborhood":{"walk_score":71,"schools_500m":36,"income":25000,"velib_400m":6,"trees_150m":145,"amenities":{"food":10,"health":3,"green":1,"culture":4}},"rent":{"ref_m2":29.6,"max_m2":35.5,"min_m2":20.7,"quartier":"Belleville","monthly_est":533},"investment":{"gross_yield":6.09,"net_yield":4.54,"ppm2_percentile":14,"negotiation_margin_pct":0.1,"dpe_risk_score":55,"value_add_flag":false},"pois":[{"type":"transport","lat":48.87511181695599,"lng":2.389415032035528,"label":"Jourdain · METRO 11"},{"type":"transport","lat":48.86497810787772,"lng":2.396912847086626,"label":"Gambetta · METRO 3"},{"type":"transport","lat":48.87388185415816,"lng":2.385316215101792,"label":"Pyrénées · METRO 11"},{"type":"transport","lat":48.86844016327547,"lng":2.401561712742542,"label":"Pelleport · METRO 3bis"},{"type":"transport","lat":48.86516343488149,"lng":2.3987465934425916,"label":"Gambetta · METRO 3bis"},{"type":"park","lat":48.87085406449449,"lng":2.3926485565312503,"label":"JARDIN PARTAGE DU 2BIS CITE LEROY"},{"type":"park","lat":48.86992201227197,"lng":2.393530413726767,"label":"JARDIN JEAN-MICHEL ROSENFELD"},{"type":"park","lat":48.8711495307495,"lng":2.3915267073964315,"label":"JARDIN DES PETITES RIGOLES"},{"type":"velib","lat":48.868895162679,"lng":2.3919824145635,"label":"Boyer - Ménilmontant"},{"type":"velib","lat":48.8693268535238,"lng":2.395084574818611,"label":"Pyrénées - Ménilmontant"},{"type":"velib","lat":48.87202880542,"lng":2.3918598091484,"label":"Pyrénées - Emmery"},{"type":"velib","lat":48.868542395661,"lng":2.3897721245885,"label":"Sorbier - Ménilmontant"}],"dpe":{"energy_class":"E","ghg_class":"B"},"images":["https://images.unsplash.com/photo-1493663284031-b7e3aefcae8e?w=1200&h=750&q=66&auto=format&fit=crop&crop=entropy","https://images.unsplash.com/photo-1522708323590-d24dbb6b0267?w=1200&h=750&q=66&auto=format&fit=crop&crop=entropy","https://images.unsplash.com/photo-1493809842364-78817add7ffb?w=1200&h=750&q=66&auto=format&fit=crop&crop=entropy","https://images.unsplash.com/photo-1505691938895-1758d7feb511?w=1200&h=750&q=66&auto=format&fit=crop&crop=entropy","https://images.unsplash.com/photo-1567496898669-ee935f5f647a?w=1200&h=750&q=66&auto=format&fit=crop&crop=entropy"],"thumb":"https://images.unsplash.com/photo-1493663284031-b7e3aefcae8e?w=480&h=300&q=55&auto=format&fit=crop&crop=entropy","score":{"opportunity_score":57,"value_score":100,"yield_score":100,"negotiation_score":0,"liquidity_score":62,"gentrification_score":45},"signals":{"price_drops":0,"total_drop_percent":0,"long_time_on_market":false,"explanations":["4.5% net rental yield (gross 6.1%)","22.5% below DVF average (9 031 €/m²)","Cheaper than 86% of the arrondissement","2 days on market"]},"source":"dvf","url":"https://app.dvf.etalab.gouv.fr/"}