{"id":"dvf-2024-1210190","address":{"raw":"14 Rue Des Ecouffes, 75004 Paris","normalized":"14 Rue des Ecouffes 75004 Paris","lat":48.85683,"lng":2.358678,"district":"75004"},"characteristics":{"surface_m2":14,"rooms":1,"floor":1},"pricing":{"current_price":227200,"price_per_m2":16229,"initial_price":227200},"timeline":{"first_seen":"2026-06-29","last_seen":"2026-07-01","days_on_market":2},"price_history":[{"date":"2026-06-29","price":227200,"source":"dvf"}],"status":"active","dvf":{"avg_price_m2_100m":12438,"avg_price_m2_500m":13415,"comparable_sales":[{"price":415500,"date":"2024-05-30","distance_m":12},{"price":570000,"date":"2024-04-12","distance_m":19},{"price":183765,"date":"2024-10-09","distance_m":19},{"price":290000,"date":"2024-03-07","distance_m":28},{"price":230000,"date":"2024-03-14","distance_m":28},{"price":403000,"date":"2024-05-31","distance_m":28},{"price":180000,"date":"2024-12-12","distance_m":28},{"price":1080000,"date":"2024-06-27","distance_m":41}]},"risks":{"flood":0.39,"clay":0.2,"noise":0.63},"transport_score":85,"neighborhood":{"walk_score":66,"schools_500m":16,"income":38000,"velib_400m":8,"trees_150m":109,"amenities":{"food":7,"health":3,"green":1,"culture":4}},"rent":{"ref_m2":32.9,"max_m2":39.5,"min_m2":23,"quartier":"Saint-Gervais","monthly_est":553},"investment":{"gross_yield":2.92,"net_yield":1.6,"ppm2_percentile":92,"negotiation_margin_pct":0.1,"dpe_risk_score":75,"value_add_flag":false},"pois":[{"type":"transport","lat":48.85523625280238,"lng":2.360956490023829,"label":"Saint-Paul · METRO 1"},{"type":"transport","lat":48.85357547250359,"lng":2.357162571618337,"label":"Pont Marie · METRO 7"},{"type":"transport","lat":48.857477982529346,"lng":2.3515775629949967,"label":"Hôtel de Ville · METRO 1"},{"type":"transport","lat":48.85745183174312,"lng":2.3510084614060265,"label":"Hôtel de Ville · METRO 11"},{"type":"transport","lat":48.85162059096899,"lng":2.3615249655078383,"label":"Sully-Morland · METRO 7"},{"type":"park","lat":48.85731442850161,"lng":2.3602712911792425,"label":"JARDIN DES ROSIERS-JOSEPH MIGNERET"},{"type":"park","lat":48.857169120696064,"lng":2.360567251544211,"label":"JARDIN PARTAGE DU JARDIN DES ROSIERS-JOSEPH MIGNERET"},{"type":"park","lat":48.858722932004824,"lng":2.357995762534248,"label":"SQUARE CHARLES-VICTOR LANGLOIS"},{"type":"velib","lat":48.855692253233,"lng":2.3579058051109,"label":"Tiron - Rivoli"},{"type":"velib","lat":48.858256413365815,"lng":2.35821794718504,"label":"Vieille du Temple - Francs Bourgeois"},{"type":"velib","lat":48.855949910497,"lng":2.3563823103905,"label":"Mairie du 4ème"},{"type":"velib","lat":48.8550222,"lng":2.3612322,"label":"Saint-Antoine Sévigné"}],"dpe":{"energy_class":"D","ghg_class":"D"},"images":["https://images.unsplash.com/photo-1493809842364-78817add7ffb?w=1200&h=750&q=66&auto=format&fit=crop&crop=entropy","https://images.unsplash.com/photo-1502672260266-1c1ef2d93688?w=1200&h=750&q=66&auto=format&fit=crop&crop=entropy","https://images.unsplash.com/photo-1484154218962-a197022b5858?w=1200&h=750&q=66&auto=format&fit=crop&crop=entropy","https://images.unsplash.com/photo-1540518614846-7eded433c457?w=1200&h=750&q=66&auto=format&fit=crop&crop=entropy","https://images.unsplash.com/photo-1505691938895-1758d7feb511?w=1200&h=750&q=66&auto=format&fit=crop&crop=entropy"],"thumb":"https://images.unsplash.com/photo-1493809842364-78817add7ffb?w=480&h=300&q=55&auto=format&fit=crop&crop=entropy","score":{"opportunity_score":20,"value_score":8,"yield_score":10,"negotiation_score":0,"liquidity_score":86,"gentrification_score":45},"signals":{"price_drops":0,"total_drop_percent":0,"long_time_on_market":false,"explanations":["1.6% net rental yield (gross 2.9%)","26.5% above DVF average","2 days on market"]},"source":"dvf","url":"https://app.dvf.etalab.gouv.fr/"}