{"id":"dvf-2024-1228685","address":{"raw":"95 Bd Poniatowski, 75012 Paris","normalized":"95 Boulevard Poniatowski 75012 Paris","lat":48.834259,"lng":2.403928,"district":"75012"},"characteristics":{"surface_m2":37,"rooms":2,"floor":0},"pricing":{"current_price":343000,"price_per_m2":9270,"initial_price":343000},"timeline":{"first_seen":"2026-06-29","last_seen":"2026-07-01","days_on_market":2},"price_history":[{"date":"2026-06-29","price":343000,"source":"dvf"}],"status":"active","dvf":{"avg_price_m2_100m":9057,"avg_price_m2_500m":8999,"comparable_sales":[{"price":337700,"date":"2024-03-29","distance_m":17},{"price":380000,"date":"2024-02-13","distance_m":66},{"price":530000,"date":"2024-02-27","distance_m":66},{"price":573000,"date":"2024-04-29","distance_m":66},{"price":444000,"date":"2024-07-04","distance_m":79},{"price":810000,"date":"2024-05-02","distance_m":85},{"price":710000,"date":"2024-07-10","distance_m":102},{"price":410000,"date":"2024-03-13","distance_m":127}]},"risks":{"flood":0.17,"clay":0.29,"noise":0.33},"transport_score":100,"neighborhood":{"walk_score":64,"schools_500m":13,"income":31000,"velib_400m":4,"trees_150m":57,"amenities":{"food":9,"health":2,"green":3,"culture":1}},"rent":{"ref_m2":24.6,"max_m2":29.5,"min_m2":17.2,"quartier":"Picpus","monthly_est":1092},"investment":{"gross_yield":3.82,"net_yield":2.44,"ppm2_percentile":52,"negotiation_margin_pct":0.1,"dpe_risk_score":55,"value_add_flag":false},"pois":[{"type":"transport","lat":48.83478515808142,"lng":2.4053832106267716,"label":"Porte Dorée · METRO 8"},{"type":"transport","lat":48.83552220834931,"lng":2.4066571471351024,"label":"Porte Dorée · TRAM 3a"},{"type":"transport","lat":48.83273670175476,"lng":2.400310403025077,"label":"Porte de Charenton · METRO 8"},{"type":"transport","lat":48.83711700698872,"lng":2.4023331645551855,"label":"Michel Bizot · METRO 8"},{"type":"transport","lat":48.83199308710852,"lng":2.398350103858007,"label":"Porte de Charenton · TRAM 3a"},{"type":"park","lat":48.83414083315834,"lng":2.4013588715879775,"label":"PROMENADE PC 12 - CHARENTON - DAUMESNIL"},{"type":"park","lat":48.83388094974647,"lng":2.4013006246372437,"label":"JARDIN PARTAGE DE LA RUE CLAUDE DECAEN"},{"type":"park","lat":48.83520354018107,"lng":2.4075088703016583,"label":"SQUARE DES COMBATTANTS D'INDOCHINE"},{"type":"velib","lat":48.832934193699835,"lng":2.402636749399156,"label":"Cardinal Lavigerie"},{"type":"velib","lat":48.834812629825,"lng":2.4009277881277,"label":"Général Michel Bizot - Claude Decaen"},{"type":"velib","lat":48.8354337,"lng":2.4077132,"label":"Porte Dorée"},{"type":"velib","lat":48.8374688,"lng":2.401765,"label":"Daumesnil - Picpus"}],"dpe":{"energy_class":"E","ghg_class":"E"},"images":["https://images.unsplash.com/photo-1493809842364-78817add7ffb?w=1200&h=750&q=66&auto=format&fit=crop&crop=entropy","https://images.unsplash.com/photo-1502005097973-6a7082348e28?w=1200&h=750&q=66&auto=format&fit=crop&crop=entropy","https://images.unsplash.com/photo-1493663284031-b7e3aefcae8e?w=1200&h=750&q=66&auto=format&fit=crop&crop=entropy","https://images.unsplash.com/photo-1484154218962-a197022b5858?w=1200&h=750&q=66&auto=format&fit=crop&crop=entropy","https://images.unsplash.com/photo-1502672260266-1c1ef2d93688?w=1200&h=750&q=66&auto=format&fit=crop&crop=entropy"],"thumb":"https://images.unsplash.com/photo-1493809842364-78817add7ffb?w=480&h=300&q=55&auto=format&fit=crop&crop=entropy","score":{"opportunity_score":36,"value_score":48,"yield_score":53,"negotiation_score":0,"liquidity_score":74,"gentrification_score":52},"signals":{"price_drops":0,"total_drop_percent":0,"long_time_on_market":false,"explanations":["2.4% net rental yield (gross 3.8%)","2.6% above DVF average","2 days on market"]},"source":"dvf","url":"https://app.dvf.etalab.gouv.fr/"}