{"id":"dvf-2024-1209243","address":{"raw":"11 Bd Davout, 75020 Paris","normalized":"11 Boulevard Davout 75020 Paris","lat":48.848087,"lng":2.410985,"district":"75020"},"characteristics":{"surface_m2":84,"rooms":4,"floor":3},"pricing":{"current_price":630121,"price_per_m2":7501,"initial_price":630121},"timeline":{"first_seen":"2026-06-29","last_seen":"2026-07-01","days_on_market":2},"price_history":[{"date":"2026-06-29","price":630121,"source":"dvf"}],"status":"active","dvf":{"avg_price_m2_100m":7764,"avg_price_m2_500m":8491,"comparable_sales":[{"price":125500,"date":"2024-04-30","distance_m":37},{"price":129000,"date":"2024-10-04","distance_m":37},{"price":177100,"date":"2024-09-27","distance_m":37},{"price":125000,"date":"2024-12-09","distance_m":37},{"price":329300,"date":"2024-01-04","distance_m":41},{"price":327000,"date":"2024-06-27","distance_m":41},{"price":355000,"date":"2024-07-09","distance_m":41},{"price":460000,"date":"2024-10-08","distance_m":41}]},"risks":{"flood":0.1,"clay":0.41,"noise":0.21},"transport_score":100,"neighborhood":{"walk_score":87,"schools_500m":16,"income":25000,"velib_400m":7,"trees_150m":91,"amenities":{"food":17,"health":7,"green":2,"culture":3}},"rent":{"ref_m2":20.5,"max_m2":24.6,"min_m2":14.3,"quartier":"Charonne","monthly_est":2066},"investment":{"gross_yield":3.94,"net_yield":2.54,"ppm2_percentile":32,"negotiation_margin_pct":0.1,"dpe_risk_score":75,"value_add_flag":false},"pois":[{"type":"transport","lat":48.847393890496086,"lng":2.40965605640417,"label":"Porte de Vincennes · TRAM 3b"},{"type":"transport","lat":48.84694815185174,"lng":2.409551429787372,"label":"Porte de Vincennes · TRAM 3a"},{"type":"transport","lat":48.847335584614896,"lng":2.408089407236094,"label":"Porte de Vincennes · METRO 1"},{"type":"transport","lat":48.843700739992194,"lng":2.410109555597318,"label":"Alexandra David-Néel · TRAM 3a"},{"type":"transport","lat":48.85298727790375,"lng":2.4107411361264375,"label":"Porte de Montreuil · TRAM 3b"},{"type":"park","lat":48.84774459166869,"lng":2.4122644044681443,"label":"JARDIN DE LA RUE NOEL BALLAY"},{"type":"park","lat":48.84648280752457,"lng":2.4116505881297123,"label":"SQUARE FERNAND FOUREAU"},{"type":"park","lat":48.84801585685114,"lng":2.4138113572546054,"label":"JARDIN MELINEE MANOUCHIAN"},{"type":"velib","lat":48.847238029966,"lng":2.4107042336225,"label":"Cours de Vincennes - Davout"},{"type":"velib","lat":48.846918761569,"lng":2.4105220288038,"label":"Cours de Vincennes - Soult"},{"type":"velib","lat":48.849266043601794,"lng":2.412330328844772,"label":"Reynaldo Hahn - Lagny"},{"type":"velib","lat":48.847796779935,"lng":2.4061721563339,"label":"Pyrénées - Cours de Vincennes"}],"dpe":{"energy_class":"D","ghg_class":"D"},"images":["https://images.unsplash.com/photo-1540518614846-7eded433c457?w=1200&h=750&q=66&auto=format&fit=crop&crop=entropy","https://images.unsplash.com/photo-1554995207-c18c203602cb?w=1200&h=750&q=66&auto=format&fit=crop&crop=entropy","https://images.unsplash.com/photo-1556912173-3bb406ef7e77?w=1200&h=750&q=66&auto=format&fit=crop&crop=entropy","https://images.unsplash.com/photo-1493809842364-78817add7ffb?w=1200&h=750&q=66&auto=format&fit=crop&crop=entropy","https://images.unsplash.com/photo-1567496898669-ee935f5f647a?w=1200&h=750&q=66&auto=format&fit=crop&crop=entropy"],"thumb":"https://images.unsplash.com/photo-1540518614846-7eded433c457?w=480&h=300&q=55&auto=format&fit=crop&crop=entropy","score":{"opportunity_score":46,"value_score":68,"yield_score":58,"negotiation_score":0,"liquidity_score":70,"gentrification_score":45},"signals":{"price_drops":0,"total_drop_percent":0,"long_time_on_market":false,"explanations":["2.5% net rental yield (gross 3.9%)","6.9% below DVF average (8 055 €/m²)","Cheaper than 68% of the arrondissement","2 days on market"]},"source":"dvf","url":"https://app.dvf.etalab.gouv.fr/"}