{"id":"dvf-2024-1210208","address":{"raw":"7 Rue Stendhal, 75020 Paris","normalized":"7 Rue Stendhal 75020 Paris","lat":48.861274,"lng":2.401963,"district":"75020"},"characteristics":{"surface_m2":47,"rooms":2,"floor":4},"pricing":{"current_price":400000,"price_per_m2":8511,"initial_price":400000},"timeline":{"first_seen":"2026-06-29","last_seen":"2026-07-01","days_on_market":2},"price_history":[{"date":"2026-06-29","price":400000,"source":"dvf"}],"status":"active","dvf":{"avg_price_m2_100m":9237,"avg_price_m2_500m":8457,"comparable_sales":[{"price":242000,"date":"2024-09-05","distance_m":43},{"price":662000,"date":"2024-06-21","distance_m":72},{"price":699000,"date":"2024-09-06","distance_m":72},{"price":880000,"date":"2024-04-26","distance_m":74},{"price":700000,"date":"2024-07-22","distance_m":81},{"price":1019270,"date":"2024-09-16","distance_m":82},{"price":399000,"date":"2024-08-07","distance_m":88},{"price":907500,"date":"2024-12-12","distance_m":88}]},"risks":{"flood":0.05,"clay":0.13,"noise":0.37},"transport_score":68,"neighborhood":{"walk_score":89,"schools_500m":20,"income":25000,"velib_400m":4,"trees_150m":88,"amenities":{"food":22,"health":8,"green":1,"culture":7}},"rent":{"ref_m2":23.8,"max_m2":28.6,"min_m2":16.7,"quartier":"Père-Lachaise","monthly_est":1344},"investment":{"gross_yield":4.03,"net_yield":2.63,"ppm2_percentile":54,"negotiation_margin_pct":0.1,"dpe_risk_score":55,"value_add_flag":false},"pois":[{"type":"transport","lat":48.86516343488149,"lng":2.3987465934425916,"label":"Gambetta · METRO 3bis"},{"type":"transport","lat":48.86497810787772,"lng":2.396912847086626,"label":"Gambetta · METRO 3"},{"type":"transport","lat":48.86343374196473,"lng":2.4088324651439725,"label":"Porte de Bagnolet · TRAM 3b"},{"type":"transport","lat":48.86460037337562,"lng":2.408031037075815,"label":"Porte de Bagnolet · METRO 3"},{"type":"transport","lat":48.85870401022034,"lng":2.409685685604103,"label":"Marie de Miribel · TRAM 3b"},{"type":"park","lat":48.86161612733402,"lng":2.4006431142202977,"label":"JARDIN DES OISEAUX"},{"type":"park","lat":48.86071515934365,"lng":2.403675674450658,"label":"CIMETIERE DE CHARONNE"},{"type":"park","lat":48.860247986614574,"lng":2.403746701651852,"label":"JARDIN DE L EGLISE SAINT GERMAIN DE CHARONNE"},{"type":"velib","lat":48.86095933229224,"lng":2.400421852042113,"label":"Pyrénées - Charles Renouvier"},{"type":"velib","lat":48.86254398506782,"lng":2.403290458023548,"label":"Indre - Prairies"},{"type":"velib","lat":48.85973,"lng":2.40334,"label":"Bagnolet - Place Saint-Blaise"},{"type":"velib","lat":48.861451061938,"lng":2.40568600595,"label":"Jardin de l'Hospice Debrousse"}],"dpe":{"energy_class":"E","ghg_class":"B"},"images":["https://images.unsplash.com/photo-1502005097973-6a7082348e28?w=1200&h=750&q=66&auto=format&fit=crop&crop=entropy","https://images.unsplash.com/photo-1567496898669-ee935f5f647a?w=1200&h=750&q=66&auto=format&fit=crop&crop=entropy","https://images.unsplash.com/photo-1554995207-c18c203602cb?w=1200&h=750&q=66&auto=format&fit=crop&crop=entropy","https://images.unsplash.com/photo-1540518614846-7eded433c457?w=1200&h=750&q=66&auto=format&fit=crop&crop=entropy","https://images.unsplash.com/photo-1502672260266-1c1ef2d93688?w=1200&h=750&q=66&auto=format&fit=crop&crop=entropy"],"thumb":"https://images.unsplash.com/photo-1502005097973-6a7082348e28?w=480&h=300&q=55&auto=format&fit=crop&crop=entropy","score":{"opportunity_score":40,"value_score":62,"yield_score":63,"negotiation_score":0,"liquidity_score":68,"gentrification_score":45},"signals":{"price_drops":0,"total_drop_percent":0,"long_time_on_market":false,"explanations":["2.6% net rental yield (gross 4.0%)","4.6% below DVF average (8 925 €/m²)","2 days on market"]},"source":"dvf","url":"https://app.dvf.etalab.gouv.fr/"}