{"id":"dvf-2024-1229306","address":{"raw":"7 Rue Des Arenes, 75005 Paris","normalized":"7 Rue des Arènes 75005 Paris","lat":48.844757,"lng":2.353769,"district":"75005"},"characteristics":{"surface_m2":99,"rooms":5,"floor":7},"pricing":{"current_price":1900000,"price_per_m2":19192,"initial_price":1900000},"timeline":{"first_seen":"2026-06-29","last_seen":"2026-07-02","days_on_market":3},"price_history":[{"date":"2026-06-29","price":1900000,"source":"dvf"}],"status":"active","dvf":{"avg_price_m2_100m":12523,"avg_price_m2_500m":12277,"comparable_sales":[{"price":646190,"date":"2024-09-27","distance_m":39},{"price":135500,"date":"2024-04-24","distance_m":43},{"price":1470000,"date":"2024-01-17","distance_m":53},{"price":2069385,"date":"2024-08-26","distance_m":77},{"price":408500,"date":"2024-05-31","distance_m":79},{"price":375000,"date":"2024-09-06","distance_m":93},{"price":655000,"date":"2024-01-24","distance_m":95},{"price":651600,"date":"2024-07-17","distance_m":97}]},"risks":{"flood":0.18,"clay":0.19,"noise":0.54},"transport_score":99,"neighborhood":{"walk_score":66,"schools_500m":17,"income":37000,"velib_400m":7,"trees_150m":10,"amenities":{"food":10,"health":5,"green":2,"culture":3}},"rent":{"ref_m2":26.4,"max_m2":31.7,"min_m2":18.5,"quartier":"Saint-Victor","monthly_est":3138},"investment":{"gross_yield":1.98,"net_yield":0.73,"ppm2_percentile":92,"negotiation_margin_pct":0.1,"dpe_risk_score":30,"value_add_flag":false},"pois":[{"type":"transport","lat":48.84595066575015,"lng":2.355050264434754,"label":"Jussieu · METRO 7"},{"type":"transport","lat":48.846151122181325,"lng":2.354917983707404,"label":"Jussieu · METRO 10"},{"type":"transport","lat":48.84286683068267,"lng":2.352224728183084,"label":"Place Monge · METRO 7"},{"type":"transport","lat":48.84665685124266,"lng":2.3516232550160123,"label":"Cardinal Lemoine · METRO 10"},{"type":"transport","lat":48.84023383632875,"lng":2.3516064753021904,"label":"Censier-Daubenton · METRO 7"},{"type":"park","lat":48.84510679091288,"lng":2.353232576400123,"label":"SQUARES DES ARENES DE LUTECE ET CAPITAN"},{"type":"park","lat":48.84228360839184,"lng":2.3540094346806604,"label":"SQUARE ROBERT MONTAGNE"},{"type":"park","lat":48.84337967529279,"lng":2.3504417234069135,"label":"SQUARE MARIUS CONSTANT"},{"type":"velib","lat":48.8437035476636,"lng":2.354651279747486,"label":"Lacépède - Linné"},{"type":"velib","lat":48.84389286531899,"lng":2.3519663885235786,"label":"Lacépède - Monge"},{"type":"velib","lat":48.845665,"lng":2.355653,"label":"Jussieu - Guy de la Brosse"},{"type":"velib","lat":48.8462904,"lng":2.3521495,"label":"Boulangers - Cardinal Lemoine"}],"dpe":{"energy_class":"F","ghg_class":"F"},"images":["https://images.unsplash.com/photo-1554995207-c18c203602cb?w=1200&h=750&q=66&auto=format&fit=crop&crop=entropy","https://images.unsplash.com/photo-1502005097973-6a7082348e28?w=1200&h=750&q=66&auto=format&fit=crop&crop=entropy","https://images.unsplash.com/photo-1493663284031-b7e3aefcae8e?w=1200&h=750&q=66&auto=format&fit=crop&crop=entropy","https://images.unsplash.com/photo-1556912173-3bb406ef7e77?w=1200&h=750&q=66&auto=format&fit=crop&crop=entropy","https://images.unsplash.com/photo-1502672260266-1c1ef2d93688?w=1200&h=750&q=66&auto=format&fit=crop&crop=entropy"],"thumb":"https://images.unsplash.com/photo-1554995207-c18c203602cb?w=480&h=300&q=55&auto=format&fit=crop&crop=entropy","score":{"opportunity_score":13,"value_score":8,"yield_score":0,"negotiation_score":1,"liquidity_score":78,"gentrification_score":50},"signals":{"price_drops":0,"total_drop_percent":0,"long_time_on_market":false,"explanations":["0.7% net rental yield (gross 2.0%)","54.5% above DVF average","3 days on market","Energy class F — rental restrictions apply"]},"source":"dvf","url":"https://app.dvf.etalab.gouv.fr/"}