{"id":"dvf-2024-1229302","address":{"raw":"162 Rue Blomet, 75015 Paris","normalized":"162 Rue Blomet 75015 Paris","lat":48.837736,"lng":2.294238,"district":"75015"},"characteristics":{"surface_m2":42,"rooms":2,"floor":4},"pricing":{"current_price":446700,"price_per_m2":10636,"initial_price":446700},"timeline":{"first_seen":"2026-06-29","last_seen":"2026-07-01","days_on_market":2},"price_history":[{"date":"2026-06-29","price":446700,"source":"dvf"}],"status":"active","dvf":{"avg_price_m2_100m":9550,"avg_price_m2_500m":9718,"comparable_sales":[{"price":667500,"date":"2024-11-26","distance_m":25},{"price":1716600,"date":"2024-05-31","distance_m":52},{"price":480000,"date":"2024-06-17","distance_m":62},{"price":755000,"date":"2024-08-06","distance_m":66},{"price":695000,"date":"2024-06-21","distance_m":73},{"price":420000,"date":"2024-06-20","distance_m":85},{"price":546650,"date":"2024-03-21","distance_m":87},{"price":637000,"date":"2024-07-18","distance_m":87}]},"risks":{"flood":0.07,"clay":0.14,"noise":0.48},"transport_score":91,"neighborhood":{"walk_score":78,"schools_500m":17,"income":33000,"velib_400m":6,"trees_150m":117,"amenities":{"food":17,"health":8,"green":1,"culture":0}},"rent":{"ref_m2":23.8,"max_m2":28.6,"min_m2":16.7,"quartier":"Saint-Lambert","monthly_est":1201},"investment":{"gross_yield":3.23,"net_yield":1.89,"ppm2_percentile":74,"negotiation_margin_pct":0.1,"dpe_risk_score":75,"value_add_flag":false},"pois":[{"type":"transport","lat":48.837099428223645,"lng":2.296231386803389,"label":"Convention · METRO 12"},{"type":"transport","lat":48.839516585402485,"lng":2.3011075162423964,"label":"Vaugirard · METRO 12"},{"type":"transport","lat":48.84274677979288,"lng":2.2919124133178745,"label":"Félix Faure · METRO 8"},{"type":"transport","lat":48.84109405724891,"lng":2.287945766487378,"label":"Boucicaut · METRO 8"},{"type":"transport","lat":48.832676871877865,"lng":2.288069457597242,"label":"Porte de Versailles · TRAM 3a"},{"type":"park","lat":48.83650053938267,"lng":2.2909429804429253,"label":"JARDIN PARTAGE DU SQUARE CLOS FEUQUIERES - DESNOUETTES"},{"type":"park","lat":48.83674424558302,"lng":2.290708345347543,"label":"SQUARE CLOS FEUQUIERES - DESNOUETTES"},{"type":"park","lat":48.84001332130582,"lng":2.291441832094474,"label":"JARDIN MARIE POUSSEPIN"},{"type":"velib","lat":48.837676822332,"lng":2.2955869260203,"label":"Convention - Vaugirard"},{"type":"velib","lat":48.83659148147257,"lng":2.2930556908249855,"label":"Saint Lambert - Blomet"},{"type":"velib","lat":48.83923319241899,"lng":2.2915197908878326,"label":"Lecourbe - Convention"},{"type":"velib","lat":48.84044,"lng":2.294867,"label":"Charles Lecocq - Lecourbe"}],"dpe":{"energy_class":"D","ghg_class":"B"},"images":["https://images.unsplash.com/photo-1502672260266-1c1ef2d93688?w=1200&h=750&q=66&auto=format&fit=crop&crop=entropy","https://images.unsplash.com/photo-1502005097973-6a7082348e28?w=1200&h=750&q=66&auto=format&fit=crop&crop=entropy","https://images.unsplash.com/photo-1567496898669-ee935f5f647a?w=1200&h=750&q=66&auto=format&fit=crop&crop=entropy","https://images.unsplash.com/photo-1556912173-3bb406ef7e77?w=1200&h=750&q=66&auto=format&fit=crop&crop=entropy","https://images.unsplash.com/photo-1493809842364-78817add7ffb?w=1200&h=750&q=66&auto=format&fit=crop&crop=entropy"],"thumb":"https://images.unsplash.com/photo-1502672260266-1c1ef2d93688?w=480&h=300&q=55&auto=format&fit=crop&crop=entropy","score":{"opportunity_score":28,"value_score":26,"yield_score":24,"negotiation_score":0,"liquidity_score":76,"gentrification_score":52},"signals":{"price_drops":0,"total_drop_percent":0,"long_time_on_market":false,"explanations":["1.9% net rental yield (gross 3.2%)","10.6% above DVF average","2 days on market"]},"source":"dvf","url":"https://app.dvf.etalab.gouv.fr/"}