{"id":"dvf-2024-1229218","address":{"raw":"87 Av Du Maine, 75014 Paris","normalized":"87 Avenue du Maine 75014 Paris","lat":48.837814,"lng":2.323061,"district":"75014"},"characteristics":{"surface_m2":74,"rooms":2,"floor":2},"pricing":{"current_price":677100,"price_per_m2":9150,"initial_price":677100},"timeline":{"first_seen":"2026-06-29","last_seen":"2026-07-01","days_on_market":2},"price_history":[{"date":"2026-06-29","price":677100,"source":"dvf"}],"status":"active","dvf":{"avg_price_m2_100m":9762,"avg_price_m2_500m":10103,"comparable_sales":[{"price":540000,"date":"2024-06-20","distance_m":9},{"price":343000,"date":"2024-05-07","distance_m":79},{"price":432000,"date":"2024-06-28","distance_m":79},{"price":629050,"date":"2024-07-18","distance_m":79},{"price":291000,"date":"2024-06-21","distance_m":101},{"price":482000,"date":"2024-01-24","distance_m":137},{"price":240000,"date":"2024-03-20","distance_m":137},{"price":480000,"date":"2024-05-23","distance_m":150}]},"risks":{"flood":0.08,"clay":0.56,"noise":0.47},"transport_score":100,"neighborhood":{"walk_score":71,"schools_500m":11,"income":32000,"velib_400m":5,"trees_150m":50,"amenities":{"food":20,"health":4,"green":2,"culture":0}},"rent":{"ref_m2":26.7,"max_m2":32,"min_m2":18.7,"quartier":"Montparnasse","monthly_est":2368},"investment":{"gross_yield":4.2,"net_yield":2.79,"ppm2_percentile":32,"negotiation_margin_pct":0.1,"dpe_risk_score":75,"value_add_flag":false},"pois":[{"type":"transport","lat":48.838631646237154,"lng":2.322491748462238,"label":"Gaîté · METRO 13"},{"type":"transport","lat":48.84066322929957,"lng":2.3263846107928465,"label":"Edgar Quinet · METRO 6"},{"type":"transport","lat":48.84118692024387,"lng":2.3205092275398846,"label":"Montparnasse · TRAIN N"},{"type":"transport","lat":48.842102207208605,"lng":2.3212785627446273,"label":"Montparnasse-Bienvenüe · METRO 6"},{"type":"transport","lat":48.83422588267789,"lng":2.318616414425384,"label":"Pernety · METRO 13"},{"type":"park","lat":48.83667372973764,"lng":2.3223654513451706,"label":"JARDIN DU MOULIN DES TROIS CORNETS"},{"type":"park","lat":48.83694744809795,"lng":2.3214768027302313,"label":"JARDINIERES DE LA RUE LEBOUIS"},{"type":"park","lat":48.83802734825188,"lng":2.327287003580539,"label":"CIMETIERE DU SUD DIT DU MONTPARNASSE"},{"type":"velib","lat":48.837925263898,"lng":2.3225428909063,"label":"Maine - Jean Zay"},{"type":"velib","lat":48.839203843292,"lng":2.3208839446306,"label":"Gare Montparnasse - René Mouchotte"},{"type":"velib","lat":48.835064363954,"lng":2.323731449974,"label":"Maine - Liancourt"},{"type":"velib","lat":48.83617286014242,"lng":2.319392143923804,"label":"Ouest - Château"}],"dpe":{"energy_class":"D","ghg_class":"D"},"images":["https://images.unsplash.com/photo-1502672260266-1c1ef2d93688?w=1200&h=750&q=66&auto=format&fit=crop&crop=entropy","https://images.unsplash.com/photo-1493663284031-b7e3aefcae8e?w=1200&h=750&q=66&auto=format&fit=crop&crop=entropy","https://images.unsplash.com/photo-1567496898669-ee935f5f647a?w=1200&h=750&q=66&auto=format&fit=crop&crop=entropy","https://images.unsplash.com/photo-1502005097973-6a7082348e28?w=1200&h=750&q=66&auto=format&fit=crop&crop=entropy","https://images.unsplash.com/photo-1560448204-e02f11c3d0e2?w=1200&h=750&q=66&auto=format&fit=crop&crop=entropy"],"thumb":"https://images.unsplash.com/photo-1502672260266-1c1ef2d93688?w=480&h=300&q=55&auto=format&fit=crop&crop=entropy","score":{"opportunity_score":51,"value_score":69,"yield_score":71,"negotiation_score":0,"liquidity_score":71,"gentrification_score":51},"signals":{"price_drops":0,"total_drop_percent":0,"long_time_on_market":false,"explanations":["2.8% net rental yield (gross 4.2%)","7.6% below DVF average (9 898 €/m²)","Cheaper than 68% of the arrondissement","2 days on market"]},"source":"dvf","url":"https://app.dvf.etalab.gouv.fr/"}