{"id":"dvf-2024-1210156","address":{"raw":"9 Rue Du Fg Poissonniere, 75009 Paris","normalized":"9 Rue du Faubourg Poissonnière 75009 Paris","lat":48.871541,"lng":2.347804,"district":"75009"},"characteristics":{"surface_m2":80,"rooms":3,"floor":5},"pricing":{"current_price":860000,"price_per_m2":10750,"initial_price":860000},"timeline":{"first_seen":"2026-06-29","last_seen":"2026-07-02","days_on_market":3},"price_history":[{"date":"2026-06-29","price":860000,"source":"dvf"}],"status":"active","dvf":{"avg_price_m2_100m":9147,"avg_price_m2_500m":10854,"comparable_sales":[{"price":690000,"date":"2024-09-12","distance_m":62},{"price":855500,"date":"2024-01-22","distance_m":69},{"price":135000,"date":"2024-11-04","distance_m":74},{"price":1867250,"date":"2024-09-09","distance_m":81},{"price":791500,"date":"2024-11-25","distance_m":82},{"price":555000,"date":"2024-11-13","distance_m":86},{"price":134000,"date":"2024-06-04","distance_m":116},{"price":530000,"date":"2024-09-26","distance_m":135}]},"risks":{"flood":0.06,"clay":0.33,"noise":0.46},"transport_score":100,"neighborhood":{"walk_score":88,"schools_500m":6,"income":34000,"velib_400m":10,"trees_150m":56,"amenities":{"food":20,"health":7,"green":4,"culture":4}},"rent":{"ref_m2":23.7,"max_m2":28.4,"min_m2":16.6,"quartier":"Faubourg-Montmartre","monthly_est":2272},"investment":{"gross_yield":3.17,"net_yield":1.83,"ppm2_percentile":46,"negotiation_margin_pct":0.1,"dpe_risk_score":10,"value_add_flag":false},"pois":[{"type":"transport","lat":48.870590478011124,"lng":2.3484911310789895,"label":"Bonne Nouvelle · METRO 8"},{"type":"transport","lat":48.870590478011124,"lng":2.3484911310789895,"label":"Bonne Nouvelle · METRO 9"},{"type":"transport","lat":48.87125654594185,"lng":2.34456106066273,"label":"Grands Boulevards · METRO 8"},{"type":"transport","lat":48.87125654594185,"lng":2.34456106066273,"label":"Grands Boulevards · METRO 9"},{"type":"transport","lat":48.86751302499845,"lng":2.346552336353212,"label":"Sentier · METRO 3"},{"type":"park","lat":48.8710779551507,"lng":2.3504575605902147,"label":"SQUARE YILMAZ GUNEY"},{"type":"park","lat":48.869867328723295,"lng":2.349960640148994,"label":"SQUARE JACQUES BIDAUT"},{"type":"park","lat":48.86984822793833,"lng":2.3501256247952056,"label":"JARDIN PARTAGE DU SQUARE JACQUES BIDAUT"},{"type":"velib","lat":48.872420063053,"lng":2.3483952362828,"label":"Enghien - Faubourg Poissonnière"},{"type":"velib","lat":48.871611569354755,"lng":2.345873080193996,"label":"Rougemont - Poissonnière"},{"type":"velib","lat":48.870828911558,"lng":2.3459213599563,"label":"Saint-Fiacre - Poissonière"},{"type":"velib","lat":48.87077436024,"lng":2.3496496368327,"label":"Hauteville - Bonne Nouvelle"}],"dpe":{"energy_class":"G","ghg_class":"C"},"images":["https://images.unsplash.com/photo-1540518614846-7eded433c457?w=1200&h=750&q=66&auto=format&fit=crop&crop=entropy","https://images.unsplash.com/photo-1493663284031-b7e3aefcae8e?w=1200&h=750&q=66&auto=format&fit=crop&crop=entropy","https://images.unsplash.com/photo-1554995207-c18c203602cb?w=1200&h=750&q=66&auto=format&fit=crop&crop=entropy","https://images.unsplash.com/photo-1505691938895-1758d7feb511?w=1200&h=750&q=66&auto=format&fit=crop&crop=entropy","https://images.unsplash.com/photo-1484154218962-a197022b5858?w=1200&h=750&q=66&auto=format&fit=crop&crop=entropy"],"thumb":"https://images.unsplash.com/photo-1540518614846-7eded433c457?w=480&h=300&q=55&auto=format&fit=crop&crop=entropy","score":{"opportunity_score":22,"value_score":54,"yield_score":22,"negotiation_score":1,"liquidity_score":76,"gentrification_score":48},"signals":{"price_drops":0,"total_drop_percent":0,"long_time_on_market":false,"explanations":["1.8% net rental yield (gross 3.2%)","9.4% above DVF average","3 days on market","Energy class G — rental restrictions apply"]},"source":"dvf","url":"https://app.dvf.etalab.gouv.fr/"}