{"id":"dvf-2024-1228646","address":{"raw":"38 Rue De Grenelle, 75007 Paris","normalized":"38 Rue de Grenelle 75007 Paris","lat":48.853893,"lng":2.327388,"district":"75007"},"characteristics":{"surface_m2":32,"rooms":1,"floor":3},"pricing":{"current_price":464820,"price_per_m2":14526,"initial_price":464820},"timeline":{"first_seen":"2026-06-29","last_seen":"2026-07-01","days_on_market":2},"price_history":[{"date":"2026-06-29","price":464820,"source":"dvf"}],"status":"active","dvf":{"avg_price_m2_100m":15223,"avg_price_m2_500m":17426,"comparable_sales":[{"price":1279412,"date":"2024-05-28","distance_m":16},{"price":297700,"date":"2024-06-18","distance_m":17},{"price":562000,"date":"2024-01-08","distance_m":22},{"price":635000,"date":"2024-04-22","distance_m":22},{"price":1376000,"date":"2024-09-19","distance_m":22},{"price":500000,"date":"2024-02-20","distance_m":38},{"price":1600000,"date":"2024-04-30","distance_m":44},{"price":1135000,"date":"2024-09-25","distance_m":44}]},"risks":{"flood":0.39,"clay":0.36,"noise":0.5},"transport_score":98,"neighborhood":{"walk_score":64,"schools_500m":11,"income":47000,"velib_400m":7,"trees_150m":120,"amenities":{"food":12,"health":3,"green":0,"culture":1}},"rent":{"ref_m2":33.4,"max_m2":40.1,"min_m2":23.4,"quartier":"Saint-Thomas-d'Aquin","monthly_est":1283},"investment":{"gross_yield":3.31,"net_yield":1.97,"ppm2_percentile":58,"negotiation_margin_pct":0.1,"dpe_risk_score":75,"value_add_flag":false},"pois":[{"type":"transport","lat":48.85519632481491,"lng":2.325815566511529,"label":"Rue du Bac · METRO 12"},{"type":"transport","lat":48.85176205249548,"lng":2.326822568897497,"label":"Sèvres-Babylone · METRO 12"},{"type":"transport","lat":48.851031751239304,"lng":2.3261023128241907,"label":"Sèvres-Babylone · METRO 10"},{"type":"transport","lat":48.851071370372,"lng":2.3307007099542143,"label":"Saint-Sulpice · METRO 4"},{"type":"transport","lat":48.853718934000206,"lng":2.3337761382184676,"label":"Saint-Germain-des-Prés · METRO 4"},{"type":"park","lat":48.852767431563166,"lng":2.3280139556593817,"label":"SQUARE ROGER STEPHANE"},{"type":"park","lat":48.854597182449275,"lng":2.330849197730943,"label":"SQUARE TARAS CHEVTCHENKO"},{"type":"park","lat":48.85242603863049,"lng":2.324444498571614,"label":"SQUARE DES MISSIONS ETRANGERES"},{"type":"velib","lat":48.853147816545,"lng":2.3263905197382,"label":"Raspail - Varenne"},{"type":"velib","lat":48.852233164303,"lng":2.3266580700874,"label":"Raspail - Chomel"},{"type":"velib","lat":48.853729675265,"lng":2.3300181032703,"label":"Saint Pères - Saint Germain"},{"type":"velib","lat":48.855628721101,"lng":2.3256602883339,"label":"Raspail - Bac"}],"dpe":{"energy_class":"D","ghg_class":"B"},"images":["https://images.unsplash.com/photo-1556912173-3bb406ef7e77?w=1200&h=750&q=66&auto=format&fit=crop&crop=entropy","https://images.unsplash.com/photo-1554995207-c18c203602cb?w=1200&h=750&q=66&auto=format&fit=crop&crop=entropy","https://images.unsplash.com/photo-1502005097973-6a7082348e28?w=1200&h=750&q=66&auto=format&fit=crop&crop=entropy","https://images.unsplash.com/photo-1493663284031-b7e3aefcae8e?w=1200&h=750&q=66&auto=format&fit=crop&crop=entropy","https://images.unsplash.com/photo-1505691938895-1758d7feb511?w=1200&h=750&q=66&auto=format&fit=crop&crop=entropy"],"thumb":"https://images.unsplash.com/photo-1556912173-3bb406ef7e77?w=480&h=300&q=55&auto=format&fit=crop&crop=entropy","score":{"opportunity_score":44,"value_score":74,"yield_score":28,"negotiation_score":0,"liquidity_score":92,"gentrification_score":56},"signals":{"price_drops":0,"total_drop_percent":0,"long_time_on_market":false,"explanations":["2.0% net rental yield (gross 3.3%)","9.8% below DVF average (16 104 €/m²)","2 days on market"]},"source":"dvf","url":"https://app.dvf.etalab.gouv.fr/"}