{"id":"dvf-2024-1229095","address":{"raw":"28 Rue Des Plantes, 75014 Paris","normalized":"28 Rue des Plantes 75014 Paris","lat":48.830564,"lng":2.323581,"district":"75014"},"characteristics":{"surface_m2":34,"rooms":2,"floor":1},"pricing":{"current_price":311311,"price_per_m2":9156,"initial_price":311311},"timeline":{"first_seen":"2026-06-29","last_seen":"2026-07-01","days_on_market":2},"price_history":[{"date":"2026-06-29","price":311311,"source":"dvf"}],"status":"active","dvf":{"avg_price_m2_100m":10208,"avg_price_m2_500m":9858,"comparable_sales":[{"price":308100,"date":"2024-07-01","distance_m":8},{"price":718870,"date":"2024-02-07","distance_m":46},{"price":390000,"date":"2024-09-12","distance_m":46},{"price":803000,"date":"2024-03-08","distance_m":65},{"price":905000,"date":"2024-04-30","distance_m":65},{"price":600000,"date":"2024-10-14","distance_m":65},{"price":315000,"date":"2024-02-16","distance_m":68},{"price":445000,"date":"2024-02-22","distance_m":68}]},"risks":{"flood":0.06,"clay":0.34,"noise":0.43},"transport_score":68,"neighborhood":{"walk_score":83,"schools_500m":34,"income":32000,"velib_400m":6,"trees_150m":90,"amenities":{"food":21,"health":8,"green":2,"culture":1}},"rent":{"ref_m2":26.2,"max_m2":31.4,"min_m2":18.3,"quartier":"Plaisance","monthly_est":1068},"investment":{"gross_yield":4.12,"net_yield":2.71,"ppm2_percentile":34,"negotiation_margin_pct":0.1,"dpe_risk_score":55,"value_add_flag":false},"pois":[{"type":"transport","lat":48.82818847631351,"lng":2.3271646496078247,"label":"Alésia · METRO 4"},{"type":"transport","lat":48.83111266037533,"lng":2.3297050126201846,"label":"Mouton-Duvernet · METRO 4"},{"type":"transport","lat":48.83422588267789,"lng":2.318616414425384,"label":"Pernety · METRO 13"},{"type":"transport","lat":48.83345085821352,"lng":2.331740130985349,"label":"Denfert-Rochereau · METRO 4"},{"type":"transport","lat":48.83182565048563,"lng":2.3141223234590225,"label":"Plaisance · METRO 13"},{"type":"park","lat":48.830887053238875,"lng":2.322384327229227,"label":"SQUARE JULES DURAND"},{"type":"park","lat":48.83127235045484,"lng":2.3206345465000906,"label":"SQUARE DU CHANOINE VIOLLET"},{"type":"park","lat":48.83221009677969,"lng":2.325532419777658,"label":"JARDIN DE LA PLACE GILBERT PERROY"},{"type":"velib","lat":48.83005755305626,"lng":2.3232302069664006,"label":"Plantes - Moulin Vert"},{"type":"velib","lat":48.83254578123,"lng":2.3254923149943,"label":"Mairie du 14ème"},{"type":"velib","lat":48.83088717455243,"lng":2.318882101207347,"label":"Gergovie - Alésia"},{"type":"velib","lat":48.827673823166,"lng":2.3209181427956,"label":"Abbé Carton - Plantes"}],"dpe":{"energy_class":"E","ghg_class":"C"},"images":["https://images.unsplash.com/photo-1556912173-3bb406ef7e77?w=1200&h=750&q=66&auto=format&fit=crop&crop=entropy","https://images.unsplash.com/photo-1567496898669-ee935f5f647a?w=1200&h=750&q=66&auto=format&fit=crop&crop=entropy","https://images.unsplash.com/photo-1560448204-e02f11c3d0e2?w=1200&h=750&q=66&auto=format&fit=crop&crop=entropy","https://images.unsplash.com/photo-1493663284031-b7e3aefcae8e?w=1200&h=750&q=66&auto=format&fit=crop&crop=entropy","https://images.unsplash.com/photo-1502672260266-1c1ef2d93688?w=1200&h=750&q=66&auto=format&fit=crop&crop=entropy"],"thumb":"https://images.unsplash.com/photo-1556912173-3bb406ef7e77?w=480&h=300&q=55&auto=format&fit=crop&crop=entropy","score":{"opportunity_score":45,"value_score":73,"yield_score":67,"negotiation_score":0,"liquidity_score":75,"gentrification_score":51},"signals":{"price_drops":0,"total_drop_percent":0,"long_time_on_market":false,"explanations":["2.7% net rental yield (gross 4.1%)","9.1% below DVF average (10 068 €/m²)","Cheaper than 66% of the arrondissement","2 days on market"]},"source":"dvf","url":"https://app.dvf.etalab.gouv.fr/"}