{"id":"dvf-2024-1229059","address":{"raw":"4 Av Du Doc Arnold Netter, 75012 Paris","normalized":"4 Avenue du Docteur Arnold Netter 75012 Paris","lat":48.841124,"lng":2.404908,"district":"75012"},"characteristics":{"surface_m2":68,"rooms":3,"floor":0},"pricing":{"current_price":545000,"price_per_m2":8015,"initial_price":545000},"timeline":{"first_seen":"2026-06-29","last_seen":"2026-07-02","days_on_market":3},"price_history":[{"date":"2026-06-29","price":545000,"source":"dvf"}],"status":"active","dvf":{"avg_price_m2_100m":9074,"avg_price_m2_500m":8901,"comparable_sales":[{"price":475700,"date":"2024-01-08","distance_m":13},{"price":507476,"date":"2024-07-10","distance_m":13},{"price":784400,"date":"2024-11-04","distance_m":27},{"price":370000,"date":"2024-07-22","distance_m":41},{"price":190020,"date":"2024-10-08","distance_m":41},{"price":532000,"date":"2024-10-01","distance_m":83},{"price":600000,"date":"2024-04-26","distance_m":91},{"price":525000,"date":"2024-07-11","distance_m":91}]},"risks":{"flood":0.06,"clay":0.4,"noise":0.29},"transport_score":90,"neighborhood":{"walk_score":60,"schools_500m":16,"income":31000,"velib_400m":5,"trees_150m":21,"amenities":{"food":6,"health":7,"green":1,"culture":3}},"rent":{"ref_m2":21.2,"max_m2":25.4,"min_m2":14.8,"quartier":"Bel-Air","monthly_est":1727},"investment":{"gross_yield":3.8,"net_yield":2.42,"ppm2_percentile":22,"negotiation_margin_pct":0.1,"dpe_risk_score":75,"value_add_flag":false},"pois":[{"type":"transport","lat":48.84133824913213,"lng":2.4009185367798027,"label":"Bel-Air · METRO 6"},{"type":"transport","lat":48.83986483182992,"lng":2.408874539222469,"label":"Montempoivre · TRAM 3a"},{"type":"transport","lat":48.843700739992194,"lng":2.410109555597318,"label":"Alexandra David-Néel · TRAM 3a"},{"type":"transport","lat":48.83711700698872,"lng":2.4023331645551855,"label":"Michel Bizot · METRO 8"},{"type":"transport","lat":48.84506157994489,"lng":2.4012890198273484,"label":"Picpus · METRO 6"},{"type":"park","lat":48.840678059691086,"lng":2.4047595228917844,"label":"COULEE VERTE RENE DUMONT - PROMENADE DE LA RUE DU SAHEL"},{"type":"park","lat":48.838468901488596,"lng":2.406751045033287,"label":"PROMENADE PC 12 - DAUMESNIL - SAHEL"},{"type":"park","lat":48.84113164604244,"lng":2.4098094999982083,"label":"SQUARE GEORGES MELIES"},{"type":"velib","lat":48.840872964793355,"lng":2.4044444784522057,"label":"Sahel - Général Michel Bizot"},{"type":"velib","lat":48.839988788912,"lng":2.4005256685521,"label":"Picpus - Louis Braille"},{"type":"velib","lat":48.84070239213081,"lng":2.409667745232582,"label":"Square Georges Melies"},{"type":"velib","lat":48.83787825992554,"lng":2.4044052511453633,"label":"Rottembourg - Général Michel Bizot"}],"dpe":{"energy_class":"D","ghg_class":"D"},"images":["https://images.unsplash.com/photo-1522708323590-d24dbb6b0267?w=1200&h=750&q=66&auto=format&fit=crop&crop=entropy","https://images.unsplash.com/photo-1556912173-3bb406ef7e77?w=1200&h=750&q=66&auto=format&fit=crop&crop=entropy","https://images.unsplash.com/photo-1484154218962-a197022b5858?w=1200&h=750&q=66&auto=format&fit=crop&crop=entropy","https://images.unsplash.com/photo-1493663284031-b7e3aefcae8e?w=1200&h=750&q=66&auto=format&fit=crop&crop=entropy","https://images.unsplash.com/photo-1554995207-c18c203602cb?w=1200&h=750&q=66&auto=format&fit=crop&crop=entropy"],"thumb":"https://images.unsplash.com/photo-1522708323590-d24dbb6b0267?w=480&h=300&q=55&auto=format&fit=crop&crop=entropy","score":{"opportunity_score":48,"value_score":78,"yield_score":52,"negotiation_score":1,"liquidity_score":71,"gentrification_score":52},"signals":{"price_drops":0,"total_drop_percent":0,"long_time_on_market":false,"explanations":["2.4% net rental yield (gross 3.8%)","11% below DVF average (9 005 €/m²)","Cheaper than 78% of the arrondissement","3 days on market"]},"source":"dvf","url":"https://app.dvf.etalab.gouv.fr/"}