{"id":"dvf-2024-1228704","address":{"raw":"12 Rue Petion, 75011 Paris","normalized":"12 Rue Pétion 75011 Paris","lat":48.858729,"lng":2.381629,"district":"75011"},"characteristics":{"surface_m2":31,"rooms":2,"floor":0},"pricing":{"current_price":270000,"price_per_m2":8710,"initial_price":270000},"timeline":{"first_seen":"2026-06-29","last_seen":"2026-07-01","days_on_market":2},"price_history":[{"date":"2026-06-29","price":270000,"source":"dvf"}],"status":"active","dvf":{"avg_price_m2_100m":10092,"avg_price_m2_500m":10145,"comparable_sales":[{"price":205000,"date":"2024-11-08","distance_m":17},{"price":415000,"date":"2024-07-12","distance_m":19},{"price":338000,"date":"2024-03-11","distance_m":29},{"price":275000,"date":"2024-05-03","distance_m":29},{"price":330000,"date":"2024-10-22","distance_m":29},{"price":296000,"date":"2024-06-21","distance_m":29},{"price":285000,"date":"2024-09-09","distance_m":31},{"price":210000,"date":"2024-10-22","distance_m":31}]},"risks":{"flood":0.01,"clay":0.38,"noise":0.52},"transport_score":92,"neighborhood":{"walk_score":96,"schools_500m":22,"income":30000,"velib_400m":7,"trees_150m":124,"amenities":{"food":30,"health":5,"green":4,"culture":8}},"rent":{"ref_m2":25.4,"max_m2":30.5,"min_m2":17.8,"quartier":"Roquette","monthly_est":946},"investment":{"gross_yield":4.2,"net_yield":2.79,"ppm2_percentile":12,"negotiation_margin_pct":0.1,"dpe_risk_score":10,"value_add_flag":false},"pois":[{"type":"transport","lat":48.85787849486676,"lng":2.3800206442479825,"label":"Voltaire · METRO 9"},{"type":"transport","lat":48.855094494476994,"lng":2.3846997601328437,"label":"Charonne · METRO 9"},{"type":"transport","lat":48.86312321464208,"lng":2.3858824493261475,"label":"Père Lachaise · METRO 3"},{"type":"transport","lat":48.86218374787729,"lng":2.3878359564536575,"label":"Père Lachaise · METRO 2"},{"type":"transport","lat":48.864285758645295,"lng":2.379741893177554,"label":"Rue Saint-Maur · METRO 3"},{"type":"park","lat":48.85934870003979,"lng":2.3802155788940262,"label":"JARDIN PARTAGE CITE INDUSTRIELLE"},{"type":"park","lat":48.85968200657181,"lng":2.3846683511129285,"label":"SQUARE DE LA ROQUETTE"},{"type":"park","lat":48.856682591663656,"lng":2.383435659595748,"label":"SQUARE JEAN ALLEMANE"},{"type":"velib","lat":48.858001906023,"lng":2.3817977026508,"label":"Roquette - Auguste Laurent"},{"type":"velib","lat":48.858688774063,"lng":2.3835539945715,"label":"Saint-Maur - Roquette"},{"type":"velib","lat":48.858925,"lng":2.3789759,"label":"Mairie du 11ème"},{"type":"velib","lat":48.86112461407359,"lng":2.381299026310444,"label":"Chemin Vert - Saint-Maur"}],"dpe":{"energy_class":"G","ghg_class":"C"},"images":["https://images.unsplash.com/photo-1567496898669-ee935f5f647a?w=1200&h=750&q=66&auto=format&fit=crop&crop=entropy","https://images.unsplash.com/photo-1493663284031-b7e3aefcae8e?w=1200&h=750&q=66&auto=format&fit=crop&crop=entropy","https://images.unsplash.com/photo-1484154218962-a197022b5858?w=1200&h=750&q=66&auto=format&fit=crop&crop=entropy","https://images.unsplash.com/photo-1560448204-e02f11c3d0e2?w=1200&h=750&q=66&auto=format&fit=crop&crop=entropy","https://images.unsplash.com/photo-1502005097973-6a7082348e28?w=1200&h=750&q=66&auto=format&fit=crop&crop=entropy"],"thumb":"https://images.unsplash.com/photo-1567496898669-ee935f5f647a?w=480&h=300&q=55&auto=format&fit=crop&crop=entropy","score":{"opportunity_score":36,"value_score":88,"yield_score":71,"negotiation_score":0,"liquidity_score":83,"gentrification_score":45},"signals":{"price_drops":0,"total_drop_percent":0,"long_time_on_market":false,"explanations":["2.8% net rental yield (gross 4.2%)","13.9% below DVF average (10 113 €/m²)","Cheaper than 88% of the arrondissement","2 days on market","Energy class G — rental restrictions apply"]},"source":"dvf","url":"https://app.dvf.etalab.gouv.fr/"}