{"id":"dvf-2024-1210324","address":{"raw":"31 Rue Du Transvaal, 75020 Paris","normalized":"31 Rue du Transvaal 75020 Paris","lat":48.871889,"lng":2.388698,"district":"75020"},"characteristics":{"surface_m2":78,"rooms":4,"floor":4},"pricing":{"current_price":570000,"price_per_m2":7308,"initial_price":570000},"timeline":{"first_seen":"2026-06-29","last_seen":"2026-07-02","days_on_market":3},"price_history":[{"date":"2026-06-29","price":570000,"source":"dvf"}],"status":"active","dvf":{"avg_price_m2_100m":8611,"avg_price_m2_500m":8642,"comparable_sales":[{"price":105500,"date":"2024-09-23","distance_m":23},{"price":450000,"date":"2024-10-03","distance_m":45},{"price":520000,"date":"2024-11-28","distance_m":45},{"price":495000,"date":"2024-07-04","distance_m":46},{"price":491000,"date":"2024-07-23","distance_m":46},{"price":215000,"date":"2024-08-16","distance_m":46},{"price":452830,"date":"2024-01-24","distance_m":55},{"price":510000,"date":"2024-06-04","distance_m":55}]},"risks":{"flood":0.06,"clay":0.52,"noise":0.57},"transport_score":63,"neighborhood":{"walk_score":88,"schools_500m":30,"income":25000,"velib_400m":7,"trees_150m":29,"amenities":{"food":27,"health":6,"green":4,"culture":4}},"rent":{"ref_m2":22.3,"max_m2":26.8,"min_m2":15.6,"quartier":"Belleville","monthly_est":2090},"investment":{"gross_yield":4.4,"net_yield":2.98,"ppm2_percentile":22,"negotiation_margin_pct":0.1,"dpe_risk_score":75,"value_add_flag":false},"pois":[{"type":"transport","lat":48.87388185415816,"lng":2.385316215101792,"label":"Pyrénées · METRO 11"},{"type":"transport","lat":48.87511181695599,"lng":2.389415032035528,"label":"Jourdain · METRO 11"},{"type":"transport","lat":48.8768063892129,"lng":2.3930560919606623,"label":"Place des Fêtes · METRO 11"},{"type":"transport","lat":48.87694984811022,"lng":2.3929839648173936,"label":"Place des Fêtes · METRO 7bis"},{"type":"transport","lat":48.8690911620257,"lng":2.380542586000037,"label":"Couronnes · METRO 2"},{"type":"park","lat":48.87083229085303,"lng":2.3876649257854465,"label":"JARDIN DE LA RUE DES COURONNES"},{"type":"park","lat":48.87244485493697,"lng":2.386659600836451,"label":"JARDIN PARTAGE DU 17 RUE DES ENVIERGES"},{"type":"park","lat":48.871300712642196,"lng":2.386613718974551,"label":"SQUARE ALEXANDRE LUQUET"},{"type":"velib","lat":48.87033205312931,"lng":2.388777695596218,"label":"Henri Chevreau - Couronnes"},{"type":"velib","lat":48.87202880542,"lng":2.3918598091484,"label":"Pyrénées - Emmery"},{"type":"velib","lat":48.874031137272,"lng":2.3895947635174,"label":"Jourdain - Place des Grandes Rigoles"},{"type":"velib","lat":48.87195626635528,"lng":2.384981390278095,"label":"Piat - Parc de Belleville"}],"dpe":{"energy_class":"D","ghg_class":"D"},"images":["https://images.unsplash.com/photo-1505691938895-1758d7feb511?w=1200&h=750&q=66&auto=format&fit=crop&crop=entropy","https://images.unsplash.com/photo-1493809842364-78817add7ffb?w=1200&h=750&q=66&auto=format&fit=crop&crop=entropy","https://images.unsplash.com/photo-1554995207-c18c203602cb?w=1200&h=750&q=66&auto=format&fit=crop&crop=entropy","https://images.unsplash.com/photo-1502005097973-6a7082348e28?w=1200&h=750&q=66&auto=format&fit=crop&crop=entropy","https://images.unsplash.com/photo-1567496898669-ee935f5f647a?w=1200&h=750&q=66&auto=format&fit=crop&crop=entropy"],"thumb":"https://images.unsplash.com/photo-1505691938895-1758d7feb511?w=480&h=300&q=55&auto=format&fit=crop&crop=entropy","score":{"opportunity_score":56,"value_score":88,"yield_score":80,"negotiation_score":1,"liquidity_score":61,"gentrification_score":45},"signals":{"price_drops":0,"total_drop_percent":0,"long_time_on_market":false,"explanations":["3.0% net rental yield (gross 4.4%)","15.3% below DVF average (8 623 €/m²)","Cheaper than 78% of the arrondissement","3 days on market"]},"source":"dvf","url":"https://app.dvf.etalab.gouv.fr/"}