{"id":"dvf-2024-1208510","address":{"raw":"27 Rue Rambuteau, 75004 Paris","normalized":"27 Rue Rambuteau 75004 Paris","lat":48.860876,"lng":2.354264,"district":"75004"},"characteristics":{"surface_m2":60,"rooms":3,"floor":0},"pricing":{"current_price":579000,"price_per_m2":9650,"initial_price":579000},"timeline":{"first_seen":"2026-06-29","last_seen":"2026-07-02","days_on_market":3},"price_history":[{"date":"2026-06-29","price":579000,"source":"dvf"}],"status":"active","dvf":{"avg_price_m2_100m":13131,"avg_price_m2_500m":12327,"comparable_sales":[{"price":385000,"date":"2024-07-29","distance_m":20},{"price":774500,"date":"2024-04-30","distance_m":22},{"price":474000,"date":"2024-09-19","distance_m":22},{"price":358500,"date":"2024-01-25","distance_m":30},{"price":601820,"date":"2024-02-14","distance_m":30},{"price":224200,"date":"2024-02-02","distance_m":37},{"price":833000,"date":"2024-06-11","distance_m":37},{"price":282000,"date":"2024-01-22","distance_m":43}]},"risks":{"flood":0.19,"clay":0.25,"noise":0.43},"transport_score":100,"neighborhood":{"walk_score":66,"schools_500m":7,"income":38000,"velib_400m":11,"trees_150m":44,"amenities":{"food":18,"health":6,"green":0,"culture":1}},"rent":{"ref_m2":28.3,"max_m2":34,"min_m2":19.8,"quartier":"Saint-Merri","monthly_est":2040},"investment":{"gross_yield":4.23,"net_yield":2.82,"ppm2_percentile":4,"negotiation_margin_pct":0.1,"dpe_risk_score":55,"value_add_flag":false},"pois":[{"type":"transport","lat":48.86120499033039,"lng":2.353495741491146,"label":"Rambuteau · METRO 11"},{"type":"transport","lat":48.857477982529346,"lng":2.3515775629949967,"label":"Hôtel de Ville · METRO 1"},{"type":"transport","lat":48.85745183174312,"lng":2.3510084614060265,"label":"Hôtel de Ville · METRO 11"},{"type":"transport","lat":48.863972478817246,"lng":2.3496175641598405,"label":"Étienne Marcel · METRO 4"},{"type":"transport","lat":48.86532271167806,"lng":2.356729869173701,"label":"Arts et Métiers · METRO 11"},{"type":"park","lat":48.861653404320585,"lng":2.3548705734451483,"label":"JARDIN ANNE FRANK (HOTEL SAINT-AIGNAN)"},{"type":"park","lat":48.86169078060718,"lng":2.355352853654225,"label":"JARDIN PARTAGE ANNE FRANK"},{"type":"park","lat":48.858614978289566,"lng":2.356505654906898,"label":"JARDIN DU CLOS DES BLANCS MANTEAUX-FRANCESCA DANDOLO"},{"type":"velib","lat":48.861419,"lng":2.352581,"label":"Centre Georges Pompidou"},{"type":"velib","lat":48.862534941806,"lng":2.3543103039265,"label":"Beaubourg - Michel-le-Comte"},{"type":"velib","lat":48.861636880212,"lng":2.3566960206458,"label":"Temple - Haudriettes"},{"type":"velib","lat":48.85941800703,"lng":2.3559471219778,"label":"Blancs-Manteaux - Archives"}],"dpe":{"energy_class":"E","ghg_class":"B"},"images":["https://images.unsplash.com/photo-1502005097973-6a7082348e28?w=1200&h=750&q=66&auto=format&fit=crop&crop=entropy","https://images.unsplash.com/photo-1560448204-e02f11c3d0e2?w=1200&h=750&q=66&auto=format&fit=crop&crop=entropy","https://images.unsplash.com/photo-1567496898669-ee935f5f647a?w=1200&h=750&q=66&auto=format&fit=crop&crop=entropy","https://images.unsplash.com/photo-1540518614846-7eded433c457?w=1200&h=750&q=66&auto=format&fit=crop&crop=entropy","https://images.unsplash.com/photo-1493663284031-b7e3aefcae8e?w=1200&h=750&q=66&auto=format&fit=crop&crop=entropy"],"thumb":"https://images.unsplash.com/photo-1502005097973-6a7082348e28?w=480&h=300&q=55&auto=format&fit=crop&crop=entropy","score":{"opportunity_score":53,"value_score":100,"yield_score":72,"negotiation_score":1,"liquidity_score":85,"gentrification_score":45},"signals":{"price_drops":0,"total_drop_percent":0,"long_time_on_market":false,"explanations":["2.8% net rental yield (gross 4.2%)","24.7% below DVF average (12 809 €/m²)","Cheaper than 96% of the arrondissement","3 days on market"]},"source":"dvf","url":"https://app.dvf.etalab.gouv.fr/"}