{"id":"dvf-2024-1229275","address":{"raw":"120 Rue Oberkampf, 75011 Paris","normalized":"120 Rue Oberkampf 75011 Paris","lat":48.866118,"lng":2.379648,"district":"75011"},"characteristics":{"surface_m2":37,"rooms":2,"floor":1},"pricing":{"current_price":335000,"price_per_m2":9054,"initial_price":335000},"timeline":{"first_seen":"2026-06-29","last_seen":"2026-07-02","days_on_market":3},"price_history":[{"date":"2026-06-29","price":335000,"source":"dvf"}],"status":"active","dvf":{"avg_price_m2_100m":10007,"avg_price_m2_500m":9813,"comparable_sales":[{"price":225000,"date":"2024-04-17","distance_m":18},{"price":260000,"date":"2024-07-25","distance_m":18},{"price":1254608,"date":"2024-12-16","distance_m":18},{"price":263000,"date":"2024-03-11","distance_m":29},{"price":130000,"date":"2024-01-31","distance_m":36},{"price":128000,"date":"2024-03-01","distance_m":36},{"price":640000,"date":"2024-05-15","distance_m":41},{"price":205000,"date":"2024-07-19","distance_m":42}]},"risks":{"flood":0.05,"clay":0.29,"noise":0.46},"transport_score":96,"neighborhood":{"walk_score":90,"schools_500m":31,"income":30000,"velib_400m":7,"trees_150m":114,"amenities":{"food":27,"health":12,"green":1,"culture":8}},"rent":{"ref_m2":26.3,"max_m2":31.6,"min_m2":18.4,"quartier":"Saint-Ambroise","monthly_est":1169},"investment":{"gross_yield":4.19,"net_yield":2.78,"ppm2_percentile":20,"negotiation_margin_pct":0.1,"dpe_risk_score":75,"value_add_flag":false},"pois":[{"type":"transport","lat":48.864285758645295,"lng":2.379741893177554,"label":"Rue Saint-Maur · METRO 3"},{"type":"transport","lat":48.866446806067,"lng":2.383599109573657,"label":"Ménilmontant · METRO 2"},{"type":"transport","lat":48.8690911620257,"lng":2.380542586000037,"label":"Couronnes · METRO 2"},{"type":"transport","lat":48.86525378605433,"lng":2.3745819699964126,"label":"Parmentier · METRO 3"},{"type":"transport","lat":48.86312321464208,"lng":2.3858824493261475,"label":"Père Lachaise · METRO 3"},{"type":"park","lat":48.86552259384622,"lng":2.381030534789079,"label":"SQUARE GEORGES SARRE"},{"type":"park","lat":48.86454788714129,"lng":2.3787479154640354,"label":"JARDINIERES PIEDS D ARBRES AVENUE DE LA REPUBLIQUE"},{"type":"park","lat":48.86837924822756,"lng":2.3836206777550206,"label":"JARDIN DES RUES MARONITES - PRESSOIR"},{"type":"velib","lat":48.864185861455,"lng":2.3783174157143,"label":"Saint-Maur - République"},{"type":"velib","lat":48.867937,"lng":2.377885,"label":"Jean-Pierre Timbaud - Vaucouleurs"},{"type":"velib","lat":48.866617658681,"lng":2.3830134404158,"label":"Ménilmontant - Oberkampf"},{"type":"velib","lat":48.863825174341,"lng":2.380906377155,"label":"Guillaume Bertrand - République"}],"dpe":{"energy_class":"D","ghg_class":"B"},"images":["https://images.unsplash.com/photo-1505691938895-1758d7feb511?w=1200&h=750&q=66&auto=format&fit=crop&crop=entropy","https://images.unsplash.com/photo-1554995207-c18c203602cb?w=1200&h=750&q=66&auto=format&fit=crop&crop=entropy","https://images.unsplash.com/photo-1502005097973-6a7082348e28?w=1200&h=750&q=66&auto=format&fit=crop&crop=entropy","https://images.unsplash.com/photo-1556912173-3bb406ef7e77?w=1200&h=750&q=66&auto=format&fit=crop&crop=entropy","https://images.unsplash.com/photo-1560448204-e02f11c3d0e2?w=1200&h=750&q=66&auto=format&fit=crop&crop=entropy"],"thumb":"https://images.unsplash.com/photo-1505691938895-1758d7feb511?w=480&h=300&q=55&auto=format&fit=crop&crop=entropy","score":{"opportunity_score":54,"value_score":80,"yield_score":70,"negotiation_score":1,"liquidity_score":79,"gentrification_score":45},"signals":{"price_drops":0,"total_drop_percent":0,"long_time_on_market":false,"explanations":["2.8% net rental yield (gross 4.2%)","8.8% below DVF average (9 929 €/m²)","Cheaper than 80% of the arrondissement","3 days on market"]},"source":"dvf","url":"https://app.dvf.etalab.gouv.fr/"}