{"id":"dvf-2024-1210118","address":{"raw":"30 Rue Vieille Du Temple, 75004 Paris","normalized":"30 Rue Vieille du Temple 75004 Paris","lat":48.857417,"lng":2.357566,"district":"75004"},"characteristics":{"surface_m2":52,"rooms":2,"floor":2},"pricing":{"current_price":655000,"price_per_m2":12596,"initial_price":655000},"timeline":{"first_seen":"2026-06-29","last_seen":"2026-07-02","days_on_market":3},"price_history":[{"date":"2026-06-29","price":655000,"source":"dvf"}],"status":"active","dvf":{"avg_price_m2_100m":12922,"avg_price_m2_500m":13144,"comparable_sales":[{"price":552500,"date":"2024-05-15","distance_m":36},{"price":270000,"date":"2024-07-15","distance_m":44},{"price":1530000,"date":"2024-10-09","distance_m":47},{"price":372000,"date":"2024-09-05","distance_m":48},{"price":740000,"date":"2024-01-10","distance_m":53},{"price":480000,"date":"2024-04-26","distance_m":53},{"price":337500,"date":"2024-05-03","distance_m":58},{"price":525000,"date":"2024-03-13","distance_m":65}]},"risks":{"flood":0.3,"clay":0.4,"noise":0.47},"transport_score":86,"neighborhood":{"walk_score":56,"schools_500m":14,"income":38000,"velib_400m":10,"trees_150m":73,"amenities":{"food":9,"health":0,"green":1,"culture":1}},"rent":{"ref_m2":29.2,"max_m2":35,"min_m2":20.4,"quartier":"Saint-Gervais","monthly_est":1820},"investment":{"gross_yield":3.33,"net_yield":1.99,"ppm2_percentile":46,"negotiation_margin_pct":0.1,"dpe_risk_score":75,"value_add_flag":false},"pois":[{"type":"transport","lat":48.85523625280238,"lng":2.360956490023829,"label":"Saint-Paul · METRO 1"},{"type":"transport","lat":48.85357547250359,"lng":2.357162571618337,"label":"Pont Marie · METRO 7"},{"type":"transport","lat":48.857477982529346,"lng":2.3515775629949967,"label":"Hôtel de Ville · METRO 1"},{"type":"transport","lat":48.85745183174312,"lng":2.3510084614060265,"label":"Hôtel de Ville · METRO 11"},{"type":"transport","lat":48.86120499033039,"lng":2.353495741491146,"label":"Rambuteau · METRO 11"},{"type":"park","lat":48.85847731167387,"lng":2.3564317547492526,"label":"JARDIN PARTAGE DU CLOS DES BLANCS MANTEAUX"},{"type":"park","lat":48.858722932004824,"lng":2.357995762534248,"label":"SQUARE CHARLES-VICTOR LANGLOIS"},{"type":"park","lat":48.858614978289566,"lng":2.356505654906898,"label":"JARDIN DU CLOS DES BLANCS MANTEAUX-FRANCESCA DANDOLO"},{"type":"velib","lat":48.858256413365815,"lng":2.35821794718504,"label":"Vieille du Temple - Francs Bourgeois"},{"type":"velib","lat":48.855949910497,"lng":2.3563823103905,"label":"Mairie du 4ème"},{"type":"velib","lat":48.855692253233,"lng":2.3579058051109,"label":"Tiron - Rivoli"},{"type":"velib","lat":48.85941800703,"lng":2.3559471219778,"label":"Blancs-Manteaux - Archives"}],"dpe":{"energy_class":"D","ghg_class":"D"},"images":["https://images.unsplash.com/photo-1493809842364-78817add7ffb?w=1200&h=750&q=66&auto=format&fit=crop&crop=entropy","https://images.unsplash.com/photo-1502672260266-1c1ef2d93688?w=1200&h=750&q=66&auto=format&fit=crop&crop=entropy","https://images.unsplash.com/photo-1556912173-3bb406ef7e77?w=1200&h=750&q=66&auto=format&fit=crop&crop=entropy","https://images.unsplash.com/photo-1522708323590-d24dbb6b0267?w=1200&h=750&q=66&auto=format&fit=crop&crop=entropy","https://images.unsplash.com/photo-1505691938895-1758d7feb511?w=1200&h=750&q=66&auto=format&fit=crop&crop=entropy"],"thumb":"https://images.unsplash.com/photo-1493809842364-78817add7ffb?w=480&h=300&q=55&auto=format&fit=crop&crop=entropy","score":{"opportunity_score":38,"value_score":58,"yield_score":30,"negotiation_score":1,"liquidity_score":80,"gentrification_score":45},"signals":{"price_drops":0,"total_drop_percent":0,"long_time_on_market":false,"explanations":["2.0% net rental yield (gross 3.3%)","3.2% below DVF average (13 011 €/m²)","3 days on market"]},"source":"dvf","url":"https://app.dvf.etalab.gouv.fr/"}