{"id":"dvf-2024-1210080","address":{"raw":"16 Rue Chapon, 75003 Paris","normalized":"16 Rue Chapon 75003 Paris","lat":48.863383,"lng":2.356286,"district":"75003"},"characteristics":{"surface_m2":14,"rooms":1,"floor":2},"pricing":{"current_price":175000,"price_per_m2":12500,"initial_price":175000},"timeline":{"first_seen":"2026-06-29","last_seen":"2026-07-02","days_on_market":3},"price_history":[{"date":"2026-06-29","price":175000,"source":"dvf"}],"status":"active","dvf":{"avg_price_m2_100m":13485,"avg_price_m2_500m":12370,"comparable_sales":[{"price":916000,"date":"2024-06-05","distance_m":15},{"price":1074844,"date":"2024-02-05","distance_m":22},{"price":605000,"date":"2024-09-12","distance_m":52},{"price":1229850,"date":"2024-02-14","distance_m":54},{"price":625000,"date":"2024-02-12","distance_m":56},{"price":1392000,"date":"2024-04-22","distance_m":56},{"price":314795,"date":"2024-02-23","distance_m":67},{"price":200000,"date":"2024-06-06","distance_m":67}]},"risks":{"flood":0.15,"clay":0.33,"noise":0.59},"transport_score":95,"neighborhood":{"walk_score":89,"schools_500m":12,"income":35000,"velib_400m":8,"trees_150m":51,"amenities":{"food":14,"health":10,"green":5,"culture":3}},"rent":{"ref_m2":32.9,"max_m2":39.5,"min_m2":23,"quartier":"Sainte-Avoie","monthly_est":553},"investment":{"gross_yield":3.79,"net_yield":2.41,"ppm2_percentile":52,"negotiation_margin_pct":0.1,"dpe_risk_score":55,"value_add_flag":false},"pois":[{"type":"transport","lat":48.86532271167806,"lng":2.356729869173701,"label":"Arts et Métiers · METRO 11"},{"type":"transport","lat":48.86558647849898,"lng":2.356736756794993,"label":"Arts et Métiers · METRO 3"},{"type":"transport","lat":48.86120499033039,"lng":2.353495741491146,"label":"Rambuteau · METRO 11"},{"type":"transport","lat":48.86673355595668,"lng":2.352829461254394,"label":"Réaumur Sébastopol · METRO 4"},{"type":"transport","lat":48.866514461743,"lng":2.3608035032752688,"label":"Temple · METRO 3"},{"type":"park","lat":48.86169078060718,"lng":2.355352853654225,"label":"JARDIN PARTAGE ANNE FRANK"},{"type":"park","lat":48.861653404320585,"lng":2.3548705734451483,"label":"JARDIN ANNE FRANK (HOTEL SAINT-AIGNAN)"},{"type":"park","lat":48.86445796617997,"lng":2.3607552645262286,"label":"SQUARE DU TEMPLE - ELIE WIESEL"},{"type":"velib","lat":48.862534941806,"lng":2.3543103039265,"label":"Beaubourg - Michel-le-Comte"},{"type":"velib","lat":48.861636880212,"lng":2.3566960206458,"label":"Temple - Haudriettes"},{"type":"velib","lat":48.865574047531,"lng":2.3564198613167,"label":"Turbigo - Réaumur"},{"type":"velib","lat":48.8623615,"lng":2.3595041,"label":"Archives - Pastourelle"}],"dpe":{"energy_class":"E","ghg_class":"B"},"images":["https://images.unsplash.com/photo-1540518614846-7eded433c457?w=1200&h=750&q=66&auto=format&fit=crop&crop=entropy","https://images.unsplash.com/photo-1522708323590-d24dbb6b0267?w=1200&h=750&q=66&auto=format&fit=crop&crop=entropy","https://images.unsplash.com/photo-1505691938895-1758d7feb511?w=1200&h=750&q=66&auto=format&fit=crop&crop=entropy","https://images.unsplash.com/photo-1502672260266-1c1ef2d93688?w=1200&h=750&q=66&auto=format&fit=crop&crop=entropy","https://images.unsplash.com/photo-1560448204-e02f11c3d0e2?w=1200&h=750&q=66&auto=format&fit=crop&crop=entropy"],"thumb":"https://images.unsplash.com/photo-1540518614846-7eded433c457?w=480&h=300&q=55&auto=format&fit=crop&crop=entropy","score":{"opportunity_score":40,"value_score":60,"yield_score":51,"negotiation_score":1,"liquidity_score":90,"gentrification_score":46},"signals":{"price_drops":0,"total_drop_percent":0,"long_time_on_market":false,"explanations":["2.4% net rental yield (gross 3.8%)","4.1% below DVF average (13 039 €/m²)","3 days on market"]},"source":"dvf","url":"https://app.dvf.etalab.gouv.fr/"}