{"id":"dvf-2024-1210308","address":{"raw":"4 Rue De Phalsbourg, 75017 Paris","normalized":"4 Rue de Phalsbourg 75017 Paris","lat":48.881359,"lng":2.309154,"district":"75017"},"characteristics":{"surface_m2":175,"rooms":5,"floor":7},"pricing":{"current_price":2850000,"price_per_m2":16286,"initial_price":2850000},"timeline":{"first_seen":"2026-06-29","last_seen":"2026-07-02","days_on_market":3},"price_history":[{"date":"2026-06-29","price":2850000,"source":"dvf"}],"status":"active","dvf":{"avg_price_m2_100m":13083,"avg_price_m2_500m":12082,"comparable_sales":[{"price":2194200,"date":"2024-06-06","distance_m":24},{"price":1739880,"date":"2024-05-30","distance_m":43},{"price":1845000,"date":"2024-12-16","distance_m":52},{"price":480000,"date":"2024-05-22","distance_m":54},{"price":371562,"date":"2024-06-17","distance_m":54},{"price":1670000,"date":"2024-06-10","distance_m":64},{"price":2800000,"date":"2024-02-28","distance_m":65},{"price":3453950,"date":"2024-10-07","distance_m":84}]},"risks":{"flood":0.01,"clay":0.39,"noise":0.42},"transport_score":100,"neighborhood":{"walk_score":75,"schools_500m":6,"income":35000,"velib_400m":4,"trees_150m":12,"amenities":{"food":31,"health":7,"green":1,"culture":6}},"rent":{"ref_m2":24.7,"max_m2":29.6,"min_m2":17.3,"quartier":"Plaine de Monceaux","monthly_est":5180},"investment":{"gross_yield":2.18,"net_yield":0.91,"ppm2_percentile":98,"negotiation_margin_pct":0.1,"dpe_risk_score":75,"value_add_flag":false},"pois":[{"type":"transport","lat":48.88032518647405,"lng":2.308773835955807,"label":"Monceau · METRO 2"},{"type":"transport","lat":48.88289191745414,"lng":2.309052264550479,"label":"Malesherbes · METRO 3"},{"type":"transport","lat":48.881094427166275,"lng":2.3147210047461946,"label":"Villiers · METRO 3"},{"type":"transport","lat":48.881094427166275,"lng":2.3147210047461946,"label":"Villiers · METRO 2"},{"type":"transport","lat":48.88380920123339,"lng":2.304674440528396,"label":"Wagram · METRO 3"},{"type":"park","lat":48.88241296479152,"lng":2.3101576489368556,"label":"JARDIN DE LA LITUANIE"},{"type":"park","lat":48.88223958961618,"lng":2.311234680521504,"label":"PELOUSE PLACE DU GENERAL CATROUX-EST (ALEXANDRE DUMAS FILS)"},{"type":"park","lat":48.88299112005179,"lng":2.309568081685045,"label":"PELOUSE PLACE DU GENERAL CATROUX-OUEST (ALEXANDRE DUMAS PERE)"},{"type":"velib","lat":48.881077914129,"lng":2.3095492646098,"label":"Parc Monceau"},{"type":"velib","lat":48.88242307900951,"lng":2.3090453445911407,"label":"Phalsbourg - Villiers"},{"type":"velib","lat":48.882428,"lng":2.314002,"label":"De Toqueville - Terrasse"},{"type":"velib","lat":48.883546851533254,"lng":2.3131933808326726,"label":"Place de Lévis"}],"dpe":{"energy_class":"D","ghg_class":"C"},"images":["https://images.unsplash.com/photo-1554995207-c18c203602cb?w=1200&h=750&q=66&auto=format&fit=crop&crop=entropy","https://images.unsplash.com/photo-1493663284031-b7e3aefcae8e?w=1200&h=750&q=66&auto=format&fit=crop&crop=entropy","https://images.unsplash.com/photo-1556912173-3bb406ef7e77?w=1200&h=750&q=66&auto=format&fit=crop&crop=entropy","https://images.unsplash.com/photo-1493809842364-78817add7ffb?w=1200&h=750&q=66&auto=format&fit=crop&crop=entropy","https://images.unsplash.com/photo-1502672260266-1c1ef2d93688?w=1200&h=750&q=66&auto=format&fit=crop&crop=entropy"],"thumb":"https://images.unsplash.com/photo-1554995207-c18c203602cb?w=480&h=300&q=55&auto=format&fit=crop&crop=entropy","score":{"opportunity_score":15,"value_score":2,"yield_score":0,"negotiation_score":1,"liquidity_score":69,"gentrification_score":55},"signals":{"price_drops":0,"total_drop_percent":0,"long_time_on_market":false,"explanations":["0.9% net rental yield (gross 2.2%)","28.4% above DVF average","3 days on market"]},"source":"dvf","url":"https://app.dvf.etalab.gouv.fr/"}