{"id":"dvf-2024-1209977","address":{"raw":"96 Rue Saint Antoine, 75004 Paris","normalized":"96 Rue Saint-Antoine 75004 Paris","lat":48.85506,"lng":2.362056,"district":"75004"},"characteristics":{"surface_m2":27,"rooms":1,"floor":2},"pricing":{"current_price":335000,"price_per_m2":12407,"initial_price":335000},"timeline":{"first_seen":"2026-06-29","last_seen":"2026-07-02","days_on_market":3},"price_history":[{"date":"2026-06-29","price":335000,"source":"dvf"}],"status":"active","dvf":{"avg_price_m2_100m":13839,"avg_price_m2_500m":13528,"comparable_sales":[{"price":315000,"date":"2024-01-09","distance_m":21},{"price":1015000,"date":"2024-09-13","distance_m":29},{"price":283600,"date":"2024-10-24","distance_m":29},{"price":1420000,"date":"2024-02-28","distance_m":46},{"price":1167000,"date":"2024-12-18","distance_m":46},{"price":445000,"date":"2024-03-01","distance_m":48},{"price":440000,"date":"2024-09-04","distance_m":48},{"price":290000,"date":"2024-09-20","distance_m":54}]},"risks":{"flood":0.32,"clay":0.54,"noise":0.78},"transport_score":100,"neighborhood":{"walk_score":64,"schools_500m":23,"income":38000,"velib_400m":7,"trees_150m":29,"amenities":{"food":13,"health":8,"green":0,"culture":0}},"rent":{"ref_m2":32.9,"max_m2":39.5,"min_m2":23,"quartier":"Saint-Gervais","monthly_est":1067},"investment":{"gross_yield":3.82,"net_yield":2.44,"ppm2_percentile":42,"negotiation_margin_pct":0.1,"dpe_risk_score":75,"value_add_flag":false},"pois":[{"type":"transport","lat":48.85523625280238,"lng":2.360956490023829,"label":"Saint-Paul · METRO 1"},{"type":"transport","lat":48.85162059096899,"lng":2.3615249655078383,"label":"Sully-Morland · METRO 7"},{"type":"transport","lat":48.85357547250359,"lng":2.357162571618337,"label":"Pont Marie · METRO 7"},{"type":"transport","lat":48.85710325815475,"lng":2.368184114950699,"label":"Chemin Vert · METRO 8"},{"type":"transport","lat":48.85343696230164,"lng":2.368736572626169,"label":"Bastille · METRO 5"},{"type":"park","lat":48.85397739333444,"lng":2.3593635879191583,"label":"SQUARE PRIOU - VALJEAN"},{"type":"park","lat":48.85736442276697,"lng":2.3623090782415064,"label":"JARDIN DU MUSEE CARNAVALET"},{"type":"park","lat":48.857169120696064,"lng":2.360567251544211,"label":"JARDIN PARTAGE DU JARDIN DES ROSIERS-JOSEPH MIGNERET"},{"type":"velib","lat":48.8550222,"lng":2.3612322,"label":"Saint-Antoine Sévigné"},{"type":"velib","lat":48.85355351439652,"lng":2.3639122769236565,"label":"Neuve Saint-Pierre - Beautreillis"},{"type":"velib","lat":48.852639866625,"lng":2.3607301712036,"label":"Village Saint-Paul"},{"type":"velib","lat":48.8578329,"lng":2.3622643,"label":"Payenne - Square George Caïn"}],"dpe":{"energy_class":"D","ghg_class":"B"},"images":["https://images.unsplash.com/photo-1540518614846-7eded433c457?w=1200&h=750&q=66&auto=format&fit=crop&crop=entropy","https://images.unsplash.com/photo-1556912173-3bb406ef7e77?w=1200&h=750&q=66&auto=format&fit=crop&crop=entropy","https://images.unsplash.com/photo-1554995207-c18c203602cb?w=1200&h=750&q=66&auto=format&fit=crop&crop=entropy","https://images.unsplash.com/photo-1493809842364-78817add7ffb?w=1200&h=750&q=66&auto=format&fit=crop&crop=entropy","https://images.unsplash.com/photo-1522708323590-d24dbb6b0267?w=1200&h=750&q=66&auto=format&fit=crop&crop=entropy"],"thumb":"https://images.unsplash.com/photo-1540518614846-7eded433c457?w=480&h=300&q=55&auto=format&fit=crop&crop=entropy","score":{"opportunity_score":49,"value_score":74,"yield_score":53,"negotiation_score":1,"liquidity_score":89,"gentrification_score":45},"signals":{"price_drops":0,"total_drop_percent":0,"long_time_on_market":false,"explanations":["2.4% net rental yield (gross 3.8%)","9.5% below DVF average (13 715 €/m²)","3 days on market"]},"source":"dvf","url":"https://app.dvf.etalab.gouv.fr/"}