{"id":"dvf-2024-1228027","address":{"raw":"85 Av Du General Leclerc, 75014 Paris","normalized":"85 Avenue du Général Leclerc 75014 Paris","lat":48.827292,"lng":2.326886,"district":"75014"},"characteristics":{"surface_m2":51,"rooms":2,"floor":2},"pricing":{"current_price":650000,"price_per_m2":12745,"initial_price":650000},"timeline":{"first_seen":"2026-06-29","last_seen":"2026-07-01","days_on_market":2},"price_history":[{"date":"2026-06-29","price":650000,"source":"dvf"}],"status":"active","dvf":{"avg_price_m2_100m":10095,"avg_price_m2_500m":9610,"comparable_sales":[{"price":290000,"date":"2024-07-09","distance_m":39},{"price":2340000,"date":"2024-06-27","distance_m":39},{"price":790000,"date":"2024-10-21","distance_m":39},{"price":415000,"date":"2024-10-22","distance_m":39},{"price":294000,"date":"2024-04-18","distance_m":43},{"price":570000,"date":"2024-07-01","distance_m":52},{"price":92000,"date":"2024-07-31","distance_m":52},{"price":400000,"date":"2024-06-07","distance_m":53}]},"risks":{"flood":0.09,"clay":0.32,"noise":0.83},"transport_score":92,"neighborhood":{"walk_score":87,"schools_500m":21,"income":32000,"velib_400m":4,"trees_150m":119,"amenities":{"food":30,"health":4,"green":2,"culture":7}},"rent":{"ref_m2":26.3,"max_m2":31.6,"min_m2":18.4,"quartier":"Petit-Montrouge","monthly_est":1612},"investment":{"gross_yield":2.98,"net_yield":1.65,"ppm2_percentile":92,"negotiation_margin_pct":0.1,"dpe_risk_score":75,"value_add_flag":false},"pois":[{"type":"transport","lat":48.82818847631351,"lng":2.3271646496078247,"label":"Alésia · METRO 4"},{"type":"transport","lat":48.82341162898739,"lng":2.3255756362122453,"label":"Porte d'Orléans · METRO 4"},{"type":"transport","lat":48.823151633128084,"lng":2.325509577822384,"label":"Porte d'Orléans · TRAM 3a"},{"type":"transport","lat":48.83111266037533,"lng":2.3297050126201846,"label":"Mouton-Duvernet · METRO 4"},{"type":"transport","lat":48.82471101880376,"lng":2.318829692620226,"label":"Jean Moulin · TRAM 3a"},{"type":"park","lat":48.82793193542799,"lng":2.322842120700878,"label":"JARDIN LIONEL ASSOUAD"},{"type":"park","lat":48.825222741048876,"lng":2.322933873675472,"label":"PROMENADE PC 14 - CORENTIN - AVENUE DU GENERAL LECLERC"},{"type":"park","lat":48.82518889772283,"lng":2.3225878201854564,"label":"JARDIN PARTAGE VERT-TIGE"},{"type":"velib","lat":48.82764910241,"lng":2.3261967301369,"label":"Jean Moulin - Place Victor et Hélène Basch"},{"type":"velib","lat":48.82884804502439,"lng":2.3285973072052,"label":"Bézout - Général Leclerc"},{"type":"velib","lat":48.825030852925,"lng":2.3264128693982,"label":"Sarrette - Général Leclerc"},{"type":"velib","lat":48.8274804,"lng":2.3319217,"label":"Place des Droits de l'Enfant"}],"dpe":{"energy_class":"D","ghg_class":"D"},"images":["https://images.unsplash.com/photo-1505691938895-1758d7feb511?w=1200&h=750&q=66&auto=format&fit=crop&crop=entropy","https://images.unsplash.com/photo-1493809842364-78817add7ffb?w=1200&h=750&q=66&auto=format&fit=crop&crop=entropy","https://images.unsplash.com/photo-1567496898669-ee935f5f647a?w=1200&h=750&q=66&auto=format&fit=crop&crop=entropy","https://images.unsplash.com/photo-1502672260266-1c1ef2d93688?w=1200&h=750&q=66&auto=format&fit=crop&crop=entropy","https://images.unsplash.com/photo-1493663284031-b7e3aefcae8e?w=1200&h=750&q=66&auto=format&fit=crop&crop=entropy"],"thumb":"https://images.unsplash.com/photo-1505691938895-1758d7feb511?w=480&h=300&q=55&auto=format&fit=crop&crop=entropy","score":{"opportunity_score":20,"value_score":8,"yield_score":12,"negotiation_score":0,"liquidity_score":77,"gentrification_score":51},"signals":{"price_drops":0,"total_drop_percent":0,"long_time_on_market":false,"explanations":["1.6% net rental yield (gross 3.0%)","28.7% above DVF average","2 days on market"]},"source":"dvf","url":"https://app.dvf.etalab.gouv.fr/"}