{"id":"dvf-2024-1228265","address":{"raw":"55 Rue Lacordaire, 75015 Paris","normalized":"55 Rue Lacordaire 75015 Paris","lat":48.841079,"lng":2.28162,"district":"75015"},"characteristics":{"surface_m2":65,"rooms":3,"floor":1},"pricing":{"current_price":549600,"price_per_m2":8455,"initial_price":549600},"timeline":{"first_seen":"2026-06-29","last_seen":"2026-07-02","days_on_market":3},"price_history":[{"date":"2026-06-29","price":549600,"source":"dvf"}],"status":"active","dvf":{"avg_price_m2_100m":9481,"avg_price_m2_500m":9151,"comparable_sales":[{"price":511850,"date":"2024-03-15","distance_m":40},{"price":280000,"date":"2024-06-27","distance_m":40},{"price":500000,"date":"2024-06-26","distance_m":40},{"price":301150,"date":"2024-07-05","distance_m":55},{"price":170400,"date":"2024-09-20","distance_m":55},{"price":522570,"date":"2024-02-23","distance_m":66},{"price":664000,"date":"2024-05-07","distance_m":66},{"price":153900,"date":"2024-07-04","distance_m":66}]},"risks":{"flood":0.36,"clay":0.3,"noise":0.37},"transport_score":76,"neighborhood":{"walk_score":73,"schools_500m":23,"income":33000,"velib_400m":6,"trees_150m":89,"amenities":{"food":17,"health":2,"green":1,"culture":2}},"rent":{"ref_m2":24.6,"max_m2":29.5,"min_m2":17.2,"quartier":"Javel 15Art","monthly_est":1918},"investment":{"gross_yield":4.19,"net_yield":2.78,"ppm2_percentile":22,"negotiation_margin_pct":0.1,"dpe_risk_score":55,"value_add_flag":false},"pois":[{"type":"transport","lat":48.83873485883676,"lng":2.2821433781708915,"label":"Lourmel · METRO 8"},{"type":"transport","lat":48.84109405724891,"lng":2.287945766487378,"label":"Boucicaut · METRO 8"},{"type":"transport","lat":48.83629530154249,"lng":2.278330259866024,"label":"Balard · METRO 8"},{"type":"transport","lat":48.83612298019267,"lng":2.2781191783109924,"label":"Balard · TRAM 3a"},{"type":"transport","lat":48.846157204832465,"lng":2.278400386366102,"label":"Javel - André Citroën · METRO 10"},{"type":"park","lat":48.839212662827066,"lng":2.2827837300039775,"label":"JARDIN ROSALIND FRANKLIN"},{"type":"park","lat":48.83872546243296,"lng":2.2804478661146774,"label":"SQUARE JEAN COCTEAU"},{"type":"park","lat":48.84109843112034,"lng":2.285714860588908,"label":"JARDIN DURANTON"},{"type":"velib","lat":48.84240765130395,"lng":2.281037718057633,"label":"Cevennes - Bergers"},{"type":"velib","lat":48.843156111116,"lng":2.2831090539694,"label":"Convention - Saint-Charles"},{"type":"velib","lat":48.840639944297,"lng":2.2780618071556,"label":"Parc André Citroën"},{"type":"velib","lat":48.83868901709515,"lng":2.2818081825971603,"label":"Félix Faure - Lourmel"}],"dpe":{"energy_class":"E","ghg_class":"E"},"images":["https://images.unsplash.com/photo-1502672260266-1c1ef2d93688?w=1200&h=750&q=66&auto=format&fit=crop&crop=entropy","https://images.unsplash.com/photo-1493663284031-b7e3aefcae8e?w=1200&h=750&q=66&auto=format&fit=crop&crop=entropy","https://images.unsplash.com/photo-1560448204-e02f11c3d0e2?w=1200&h=750&q=66&auto=format&fit=crop&crop=entropy","https://images.unsplash.com/photo-1522708323590-d24dbb6b0267?w=1200&h=750&q=66&auto=format&fit=crop&crop=entropy","https://images.unsplash.com/photo-1567496898669-ee935f5f647a?w=1200&h=750&q=66&auto=format&fit=crop&crop=entropy"],"thumb":"https://images.unsplash.com/photo-1502672260266-1c1ef2d93688?w=480&h=300&q=55&auto=format&fit=crop&crop=entropy","score":{"opportunity_score":47,"value_score":78,"yield_score":70,"negotiation_score":1,"liquidity_score":71,"gentrification_score":52},"signals":{"price_drops":0,"total_drop_percent":0,"long_time_on_market":false,"explanations":["2.8% net rental yield (gross 4.2%)","9.6% below DVF average (9 349 €/m²)","Cheaper than 78% of the arrondissement","3 days on market"]},"source":"dvf","url":"https://app.dvf.etalab.gouv.fr/"}