{"id":"dvf-2024-1209591","address":{"raw":"9 Rue De La Verrerie, 75004 Paris","normalized":"9 Rue de la Verrerie 75004 Paris","lat":48.857139,"lng":2.355027,"district":"75004"},"characteristics":{"surface_m2":12,"rooms":1,"floor":0},"pricing":{"current_price":160000,"price_per_m2":13333,"initial_price":160000},"timeline":{"first_seen":"2026-06-29","last_seen":"2026-07-02","days_on_market":3},"price_history":[{"date":"2026-06-29","price":160000,"source":"dvf"}],"status":"active","dvf":{"avg_price_m2_100m":12323,"avg_price_m2_500m":12993,"comparable_sales":[{"price":350000,"date":"2024-07-15","distance_m":17},{"price":210000,"date":"2024-09-23","distance_m":17},{"price":271840,"date":"2024-09-30","distance_m":20},{"price":408000,"date":"2024-05-21","distance_m":52},{"price":1600000,"date":"2024-03-15","distance_m":57},{"price":572500,"date":"2024-05-02","distance_m":60},{"price":1035000,"date":"2024-06-27","distance_m":80},{"price":746000,"date":"2024-12-19","distance_m":80}]},"risks":{"flood":0.3,"clay":0.24,"noise":0.61},"transport_score":93,"neighborhood":{"walk_score":58,"schools_500m":5,"income":38000,"velib_400m":10,"trees_150m":10,"amenities":{"food":12,"health":1,"green":2,"culture":3}},"rent":{"ref_m2":32.9,"max_m2":39.5,"min_m2":23,"quartier":"Saint-Gervais","monthly_est":474},"investment":{"gross_yield":3.56,"net_yield":2.19,"ppm2_percentile":60,"negotiation_margin_pct":0.1,"dpe_risk_score":55,"value_add_flag":false},"pois":[{"type":"transport","lat":48.857477982529346,"lng":2.3515775629949967,"label":"Hôtel de Ville · METRO 1"},{"type":"transport","lat":48.85745183174312,"lng":2.3510084614060265,"label":"Hôtel de Ville · METRO 11"},{"type":"transport","lat":48.85357547250359,"lng":2.357162571618337,"label":"Pont Marie · METRO 7"},{"type":"transport","lat":48.86120499033039,"lng":2.353495741491146,"label":"Rambuteau · METRO 11"},{"type":"transport","lat":48.85523625280238,"lng":2.360956490023829,"label":"Saint-Paul · METRO 1"},{"type":"park","lat":48.8556228628375,"lng":2.355678866805705,"label":"SQUARE COUPERIN"},{"type":"park","lat":48.85847731167387,"lng":2.3564317547492526,"label":"JARDIN PARTAGE DU CLOS DES BLANCS MANTEAUX"},{"type":"park","lat":48.858614978289566,"lng":2.356505654906898,"label":"JARDIN DU CLOS DES BLANCS MANTEAUX-FRANCESCA DANDOLO"},{"type":"velib","lat":48.857346707443,"lng":2.3539767041802,"label":"Archives - Rivoli"},{"type":"velib","lat":48.855949910497,"lng":2.3563823103905,"label":"Mairie du 4ème"},{"type":"velib","lat":48.8562118,"lng":2.3532536,"label":"Lobau - Hôtel de Ville"},{"type":"velib","lat":48.8573314,"lng":2.351458,"label":"Place de l'Hôtel de Ville"}],"dpe":{"energy_class":"E","ghg_class":"C"},"images":["https://images.unsplash.com/photo-1493663284031-b7e3aefcae8e?w=1200&h=750&q=66&auto=format&fit=crop&crop=entropy","https://images.unsplash.com/photo-1554995207-c18c203602cb?w=1200&h=750&q=66&auto=format&fit=crop&crop=entropy","https://images.unsplash.com/photo-1540518614846-7eded433c457?w=1200&h=750&q=66&auto=format&fit=crop&crop=entropy","https://images.unsplash.com/photo-1505691938895-1758d7feb511?w=1200&h=750&q=66&auto=format&fit=crop&crop=entropy","https://images.unsplash.com/photo-1556912173-3bb406ef7e77?w=1200&h=750&q=66&auto=format&fit=crop&crop=entropy"],"thumb":"https://images.unsplash.com/photo-1493663284031-b7e3aefcae8e?w=480&h=300&q=55&auto=format&fit=crop&crop=entropy","score":{"opportunity_score":32,"value_score":40,"yield_score":40,"negotiation_score":1,"liquidity_score":87,"gentrification_score":45},"signals":{"price_drops":0,"total_drop_percent":0,"long_time_on_market":false,"explanations":["2.2% net rental yield (gross 3.6%)","5.9% above DVF average","3 days on market"]},"source":"dvf","url":"https://app.dvf.etalab.gouv.fr/"}