{"id":"dvf-2024-1210271","address":{"raw":"8 Rue Du Cloitre Notre Dame, 75004 Paris","normalized":"8 Rue du Cloître Notre-Dame 75004 Paris","lat":48.853279,"lng":2.350421,"district":"75004"},"characteristics":{"surface_m2":165,"rooms":5,"floor":1},"pricing":{"current_price":2900000,"price_per_m2":17576,"initial_price":2900000},"timeline":{"first_seen":"2026-06-29","last_seen":"2026-07-02","days_on_market":3},"price_history":[{"date":"2026-06-29","price":2900000,"source":"dvf"}],"status":"active","dvf":{"avg_price_m2_100m":16376,"avg_price_m2_500m":13817,"comparable_sales":[{"price":3810000,"date":"2024-02-28","distance_m":9},{"price":458800,"date":"2024-06-27","distance_m":9},{"price":2000000,"date":"2024-04-04","distance_m":61},{"price":306000,"date":"2024-01-31","distance_m":65},{"price":634620,"date":"2024-03-20","distance_m":78},{"price":2861500,"date":"2024-07-04","distance_m":78},{"price":1850000,"date":"2024-06-13","distance_m":100},{"price":3443570,"date":"2024-05-07","distance_m":111}]},"risks":{"flood":0.63,"clay":0.18,"noise":0.33},"transport_score":90,"neighborhood":{"walk_score":46,"schools_500m":6,"income":38000,"velib_400m":7,"trees_150m":37,"amenities":{"food":1,"health":3,"green":6,"culture":0}},"rent":{"ref_m2":26.4,"max_m2":31.7,"min_m2":18.5,"quartier":"Notre-Dame","monthly_est":5231},"investment":{"gross_yield":2.16,"net_yield":0.9,"ppm2_percentile":96,"negotiation_margin_pct":0.1,"dpe_risk_score":10,"value_add_flag":false},"pois":[{"type":"transport","lat":48.85493637835866,"lng":2.3473213170674265,"label":"Cité · METRO 4"},{"type":"transport","lat":48.85353290071982,"lng":2.3452883321974305,"label":"Saint-Michel · RER C"},{"type":"transport","lat":48.85008987805251,"lng":2.3482087741854687,"label":"Maubert-Mutualité · METRO 10"},{"type":"transport","lat":48.856942736159496,"lng":2.348147481005499,"label":"Châtelet · METRO 7"},{"type":"transport","lat":48.85745183174312,"lng":2.3510084614060265,"label":"Hôtel de Ville · METRO 11"},{"type":"park","lat":48.85239470225956,"lng":2.350805065661851,"label":"SQUARE JEAN XXIII"},{"type":"park","lat":48.853199663367356,"lng":2.348029553352516,"label":"JARDIN DE LA PLACE JEAN-PAUL II"},{"type":"park","lat":48.852028944577135,"lng":2.35221926355071,"label":"SQUARE DE L'ILE DE FRANCE"},{"type":"velib","lat":48.853883541328,"lng":2.3493797332048,"label":"Arcole - Notre-Dame"},{"type":"velib","lat":48.852915956209,"lng":2.3521957173944,"label":"Quai aux Fleurs - Pont Saint-Louis"},{"type":"velib","lat":48.851904891406,"lng":2.3478421568871,"label":"Square René Viviani - Montebello"},{"type":"velib","lat":48.855258115391,"lng":2.3473754525185,"label":"Marché aux fleurs"}],"dpe":{"energy_class":"G","ghg_class":"F"},"images":["https://images.unsplash.com/photo-1540518614846-7eded433c457?w=1200&h=750&q=66&auto=format&fit=crop&crop=entropy","https://images.unsplash.com/photo-1493809842364-78817add7ffb?w=1200&h=750&q=66&auto=format&fit=crop&crop=entropy","https://images.unsplash.com/photo-1484154218962-a197022b5858?w=1200&h=750&q=66&auto=format&fit=crop&crop=entropy","https://images.unsplash.com/photo-1560448204-e02f11c3d0e2?w=1200&h=750&q=66&auto=format&fit=crop&crop=entropy","https://images.unsplash.com/photo-1554995207-c18c203602cb?w=1200&h=750&q=66&auto=format&fit=crop&crop=entropy"],"thumb":"https://images.unsplash.com/photo-1540518614846-7eded433c457?w=480&h=300&q=55&auto=format&fit=crop&crop=entropy","score":{"opportunity_score":11,"value_score":14,"yield_score":0,"negotiation_score":1,"liquidity_score":70,"gentrification_score":45},"signals":{"price_drops":0,"total_drop_percent":0,"long_time_on_market":false,"explanations":["0.9% net rental yield (gross 2.2%)","14.5% above DVF average","3 days on market","Energy class G — rental restrictions apply"]},"source":"dvf","url":"https://app.dvf.etalab.gouv.fr/"}