{"id":"dvf-2024-1209955","address":{"raw":"23 Rue Pierre Demours, 75017 Paris","normalized":"23 Rue Pierre Demours 75017 Paris","lat":48.881045,"lng":2.293961,"district":"75017"},"characteristics":{"surface_m2":41,"rooms":2,"floor":2},"pricing":{"current_price":473000,"price_per_m2":11537,"initial_price":473000},"timeline":{"first_seen":"2026-06-29","last_seen":"2026-07-02","days_on_market":3},"price_history":[{"date":"2026-06-29","price":473000,"source":"dvf"}],"status":"active","dvf":{"avg_price_m2_100m":11466,"avg_price_m2_500m":10893,"comparable_sales":[{"price":700000,"date":"2024-04-18","distance_m":7},{"price":385000,"date":"2024-06-24","distance_m":7},{"price":870000,"date":"2024-07-29","distance_m":23},{"price":300000,"date":"2024-10-04","distance_m":23},{"price":360000,"date":"2024-11-20","distance_m":23},{"price":330000,"date":"2024-07-03","distance_m":49},{"price":420000,"date":"2024-08-26","distance_m":51},{"price":1204000,"date":"2024-10-11","distance_m":57}]},"risks":{"flood":0.02,"clay":0.2,"noise":0.42},"transport_score":78,"neighborhood":{"walk_score":86,"schools_500m":17,"income":35000,"velib_400m":6,"trees_150m":79,"amenities":{"food":24,"health":4,"green":2,"culture":5}},"rent":{"ref_m2":27.3,"max_m2":32.8,"min_m2":19.1,"quartier":"Ternes","monthly_est":1345},"investment":{"gross_yield":3.41,"net_yield":2.06,"ppm2_percentile":68,"negotiation_margin_pct":0.1,"dpe_risk_score":55,"value_add_flag":false},"pois":[{"type":"transport","lat":48.87797270141956,"lng":2.2983103737615287,"label":"Ternes · METRO 2"},{"type":"transport","lat":48.88342328560661,"lng":2.2880331154619915,"label":"Thérèse Pierre · TRAM 3b"},{"type":"transport","lat":48.884896255150515,"lng":2.2977243464801775,"label":"Pereire-Levallois · METRO 3"},{"type":"transport","lat":48.886006151507,"lng":2.293529966337255,"label":"Porte de Champerret · METRO 3"},{"type":"transport","lat":48.88597054515737,"lng":2.2921354803495397,"label":"Porte de Champerret​ · TRAM 3b"},{"type":"park","lat":48.88090849756162,"lng":2.293447067829303,"label":"SQUARE PIERRE DEMOURS"},{"type":"park","lat":48.882526930413825,"lng":2.2927232821442454,"label":"PROMENADE PEREIRE - PROMENADE THERESE PIERRE"},{"type":"park","lat":48.88186132028727,"lng":2.2914958136419727,"label":"PROMENADE PEREIRE - BAYEN / LEBON"},{"type":"velib","lat":48.8813072,"lng":2.294846,"label":"Pierre Demours - Laugier"},{"type":"velib","lat":48.881804409079656,"lng":2.2921088710427284,"label":"Bayen - Pereire"},{"type":"velib","lat":48.8794936,"lng":2.2915423,"label":"Place Tristan Bernard"},{"type":"velib","lat":48.883647828876,"lng":2.2952447086573,"label":"Pereire - Rennequin"}],"dpe":{"energy_class":"E","ghg_class":"E"},"images":["https://images.unsplash.com/photo-1484154218962-a197022b5858?w=1200&h=750&q=66&auto=format&fit=crop&crop=entropy","https://images.unsplash.com/photo-1522708323590-d24dbb6b0267?w=1200&h=750&q=66&auto=format&fit=crop&crop=entropy","https://images.unsplash.com/photo-1505691938895-1758d7feb511?w=1200&h=750&q=66&auto=format&fit=crop&crop=entropy","https://images.unsplash.com/photo-1502005097973-6a7082348e28?w=1200&h=750&q=66&auto=format&fit=crop&crop=entropy","https://images.unsplash.com/photo-1502672260266-1c1ef2d93688?w=1200&h=750&q=66&auto=format&fit=crop&crop=entropy"],"thumb":"https://images.unsplash.com/photo-1484154218962-a197022b5858?w=480&h=300&q=55&auto=format&fit=crop&crop=entropy","score":{"opportunity_score":31,"value_score":43,"yield_score":33,"negotiation_score":1,"liquidity_score":75,"gentrification_score":55},"signals":{"price_drops":0,"total_drop_percent":0,"long_time_on_market":false,"explanations":["2.1% net rental yield (gross 3.4%)","2.7% above DVF average","3 days on market"]},"source":"dvf","url":"https://app.dvf.etalab.gouv.fr/"}