{"id":"dvf-2024-1210069","address":{"raw":"48 Quai De Jemmapes, 75010 Paris","normalized":"48 Quai de Jemmapes 75010 Paris","lat":48.869786,"lng":2.366993,"district":"75010"},"characteristics":{"surface_m2":77,"rooms":3,"floor":1},"pricing":{"current_price":720000,"price_per_m2":9351,"initial_price":720000},"timeline":{"first_seen":"2026-06-29","last_seen":"2026-07-01","days_on_market":2},"price_history":[{"date":"2026-06-29","price":720000,"source":"dvf"}],"status":"active","dvf":{"avg_price_m2_100m":10645,"avg_price_m2_500m":10115,"comparable_sales":[{"price":630000,"date":"2024-08-30","distance_m":74},{"price":295500,"date":"2024-02-19","distance_m":82},{"price":231000,"date":"2024-04-04","distance_m":82},{"price":231000,"date":"2024-05-24","distance_m":82},{"price":440000,"date":"2024-01-19","distance_m":95},{"price":270890,"date":"2024-03-05","distance_m":95},{"price":220000,"date":"2024-10-03","distance_m":95},{"price":335000,"date":"2024-04-15","distance_m":104}]},"risks":{"flood":0.05,"clay":0.05,"noise":0.42},"transport_score":93,"neighborhood":{"walk_score":88,"schools_500m":10,"income":29000,"velib_400m":10,"trees_150m":86,"amenities":{"food":25,"health":5,"green":2,"culture":5}},"rent":{"ref_m2":24,"max_m2":28.8,"min_m2":16.8,"quartier":"Porte-Saint-Martin","monthly_est":2218},"investment":{"gross_yield":3.7,"net_yield":2.32,"ppm2_percentile":46,"negotiation_margin_pct":0.1,"dpe_risk_score":55,"value_add_flag":false},"pois":[{"type":"transport","lat":48.86799910892294,"lng":2.3650748610827645,"label":"République · METRO 11"},{"type":"transport","lat":48.86995751270301,"lng":2.3710948397312004,"label":"Goncourt · METRO 11"},{"type":"transport","lat":48.86782709972698,"lng":2.3637404371950392,"label":"République · METRO 5"},{"type":"transport","lat":48.86702678847436,"lng":2.364247995104706,"label":"République · METRO 3"},{"type":"transport","lat":48.86778030055016,"lng":2.3629287001561123,"label":"République · METRO 9"},{"type":"park","lat":48.86927407136047,"lng":2.366917000791045,"label":"SQUARE FREDERICK LEMAITRE"},{"type":"park","lat":48.86772891459736,"lng":2.3681171530038503,"label":"SQUARE DOMINIQUE BERNARD"},{"type":"park","lat":48.873298238633666,"lng":2.3675491589148683,"label":"JARDIN DE L'HOPITAL SAINT-LOUIS"},{"type":"velib","lat":48.871044051984,"lng":2.3661044619878,"label":"Alibert - Jemmapes"},{"type":"velib","lat":48.868397,"lng":2.3678933,"label":"Jules Ferry - Faubourg du Temple Paris"},{"type":"velib","lat":48.867872484749,"lng":2.3648982158072,"label":"Faubourg Du Temple - Republique"},{"type":"velib","lat":48.871379874257,"lng":2.3698963836667,"label":"Parmentier - Hôpital Saint-Louis"}],"dpe":{"energy_class":"E","ghg_class":"C"},"images":["https://images.unsplash.com/photo-1493809842364-78817add7ffb?w=1200&h=750&q=66&auto=format&fit=crop&crop=entropy","https://images.unsplash.com/photo-1502005097973-6a7082348e28?w=1200&h=750&q=66&auto=format&fit=crop&crop=entropy","https://images.unsplash.com/photo-1540518614846-7eded433c457?w=1200&h=750&q=66&auto=format&fit=crop&crop=entropy","https://images.unsplash.com/photo-1484154218962-a197022b5858?w=1200&h=750&q=66&auto=format&fit=crop&crop=entropy","https://images.unsplash.com/photo-1554995207-c18c203602cb?w=1200&h=750&q=66&auto=format&fit=crop&crop=entropy"],"thumb":"https://images.unsplash.com/photo-1493809842364-78817add7ffb?w=480&h=300&q=55&auto=format&fit=crop&crop=entropy","score":{"opportunity_score":41,"value_score":76,"yield_score":47,"negotiation_score":0,"liquidity_score":72,"gentrification_score":46},"signals":{"price_drops":0,"total_drop_percent":0,"long_time_on_market":false,"explanations":["2.3% net rental yield (gross 3.7%)","10.4% below DVF average (10 433 €/m²)","2 days on market"]},"source":"dvf","url":"https://app.dvf.etalab.gouv.fr/"}