{"id":"dvf-2024-1209608","address":{"raw":"46 Rue De Ponthieu, 75008 Paris","normalized":"46 Rue de Ponthieu 75008 Paris","lat":48.871535,"lng":2.307105,"district":"75008"},"characteristics":{"surface_m2":65,"rooms":3,"floor":1},"pricing":{"current_price":945812,"price_per_m2":14551,"initial_price":945812},"timeline":{"first_seen":"2026-06-29","last_seen":"2026-07-02","days_on_market":3},"price_history":[{"date":"2026-06-29","price":945812,"source":"dvf"}],"status":"active","dvf":{"avg_price_m2_100m":11507,"avg_price_m2_500m":14179,"comparable_sales":[{"price":220000,"date":"2024-03-11","distance_m":19},{"price":1360000,"date":"2024-03-20","distance_m":22},{"price":700000,"date":"2024-04-25","distance_m":24},{"price":245000,"date":"2024-06-20","distance_m":24},{"price":829500,"date":"2024-03-06","distance_m":35},{"price":400000,"date":"2024-07-05","distance_m":44},{"price":740000,"date":"2024-10-23","distance_m":107},{"price":140000,"date":"2024-01-12","distance_m":119}]},"risks":{"flood":0.05,"clay":0.3,"noise":0.45},"transport_score":95,"neighborhood":{"walk_score":46,"schools_500m":5,"income":45000,"velib_400m":9,"trees_150m":38,"amenities":{"food":4,"health":5,"green":2,"culture":0}},"rent":{"ref_m2":28.3,"max_m2":34,"min_m2":19.8,"quartier":"Faubourg-du-Roule","monthly_est":2210},"investment":{"gross_yield":2.8,"net_yield":1.49,"ppm2_percentile":66,"negotiation_margin_pct":0.1,"dpe_risk_score":10,"value_add_flag":false},"pois":[{"type":"transport","lat":48.87204586272729,"lng":2.3100189324082736,"label":"Saint-Philippe du Roule · METRO 9"},{"type":"transport","lat":48.869438881659114,"lng":2.3086074935262557,"label":"Franklin D. Roosevelt · METRO 1"},{"type":"transport","lat":48.86869984735294,"lng":2.309505157337887,"label":"Franklin D. Roosevelt · METRO 9"},{"type":"transport","lat":48.872023810399725,"lng":2.3005604512367213,"label":"George V · METRO 1"},{"type":"transport","lat":48.87376998959543,"lng":2.31445603617697,"label":"Miromesnil · METRO 13"},{"type":"park","lat":48.87340913605789,"lng":2.310276108276371,"label":"JARDINET DU CHEVET SAINT PHILIPPE DU ROULE"},{"type":"park","lat":48.8689809571285,"lng":2.310121191352687,"label":"JARDINETS DU ROND-POINT DES CHAMPS ELYSEES"},{"type":"park","lat":48.8690608169835,"lng":2.3126232170345316,"label":"JARDINS DES CHAMPS ELYSEES- CARRE MARIGNY"},{"type":"velib","lat":48.871417284355,"lng":2.3076787590981,"label":"Boétie - Ponthieu"},{"type":"velib","lat":48.870475399387,"lng":2.3076190799475,"label":"Colisée - Champs-Elysées"},{"type":"velib","lat":48.869495661232,"lng":2.3066138139003,"label":"Marignan - Champs-Elysées"},{"type":"velib","lat":48.872933,"lng":2.309796,"label":"Commandant Rivière"}],"dpe":{"energy_class":"G","ghg_class":"G"},"images":["https://images.unsplash.com/photo-1505691938895-1758d7feb511?w=1200&h=750&q=66&auto=format&fit=crop&crop=entropy","https://images.unsplash.com/photo-1502672260266-1c1ef2d93688?w=1200&h=750&q=66&auto=format&fit=crop&crop=entropy","https://images.unsplash.com/photo-1493809842364-78817add7ffb?w=1200&h=750&q=66&auto=format&fit=crop&crop=entropy","https://images.unsplash.com/photo-1554995207-c18c203602cb?w=1200&h=750&q=66&auto=format&fit=crop&crop=entropy","https://images.unsplash.com/photo-1540518614846-7eded433c457?w=1200&h=750&q=66&auto=format&fit=crop&crop=entropy"],"thumb":"https://images.unsplash.com/photo-1505691938895-1758d7feb511?w=480&h=300&q=55&auto=format&fit=crop&crop=entropy","score":{"opportunity_score":16,"value_score":34,"yield_score":5,"negotiation_score":1,"liquidity_score":77,"gentrification_score":61},"signals":{"price_drops":0,"total_drop_percent":0,"long_time_on_market":false,"explanations":["1.5% net rental yield (gross 2.8%)","15.7% above DVF average","3 days on market","Energy class G — rental restrictions apply"]},"source":"dvf","url":"https://app.dvf.etalab.gouv.fr/"}