{"id":"dvf-2024-1208398","address":{"raw":"7 Rue Pecquay, 75004 Paris","normalized":"7 Rue Pecquay 75004 Paris","lat":48.859879,"lng":2.355821,"district":"75004"},"characteristics":{"surface_m2":21,"rooms":1,"floor":0},"pricing":{"current_price":210000,"price_per_m2":10000,"initial_price":210000},"timeline":{"first_seen":"2026-06-29","last_seen":"2026-07-02","days_on_market":3},"price_history":[{"date":"2026-06-29","price":210000,"source":"dvf"}],"status":"active","dvf":{"avg_price_m2_100m":12471,"avg_price_m2_500m":12701,"comparable_sales":[{"price":1150000,"date":"2024-09-26","distance_m":24},{"price":1038800,"date":"2024-11-29","distance_m":24},{"price":271425,"date":"2024-08-29","distance_m":25},{"price":297800,"date":"2024-10-24","distance_m":36},{"price":674600,"date":"2024-09-20","distance_m":39},{"price":368000,"date":"2024-10-02","distance_m":47},{"price":350000,"date":"2024-10-11","distance_m":47},{"price":952000,"date":"2024-07-08","distance_m":59}]},"risks":{"flood":0.14,"clay":0.61,"noise":0.47},"transport_score":79,"neighborhood":{"walk_score":88,"schools_500m":9,"income":38000,"velib_400m":9,"trees_150m":58,"amenities":{"food":17,"health":5,"green":3,"culture":5}},"rent":{"ref_m2":34,"max_m2":40.8,"min_m2":23.8,"quartier":"Saint-Merri","monthly_est":857},"investment":{"gross_yield":4.9,"net_yield":3.44,"ppm2_percentile":8,"negotiation_margin_pct":0.1,"dpe_risk_score":75,"value_add_flag":false},"pois":[{"type":"transport","lat":48.86120499033039,"lng":2.353495741491146,"label":"Rambuteau · METRO 11"},{"type":"transport","lat":48.857477982529346,"lng":2.3515775629949967,"label":"Hôtel de Ville · METRO 1"},{"type":"transport","lat":48.85745183174312,"lng":2.3510084614060265,"label":"Hôtel de Ville · METRO 11"},{"type":"transport","lat":48.86532271167806,"lng":2.356729869173701,"label":"Arts et Métiers · METRO 11"},{"type":"transport","lat":48.85763141070005,"lng":2.3480365654004016,"label":"Châtelet · METRO 11"},{"type":"park","lat":48.858614978289566,"lng":2.356505654906898,"label":"JARDIN DU CLOS DES BLANCS MANTEAUX-FRANCESCA DANDOLO"},{"type":"park","lat":48.85847731167387,"lng":2.3564317547492526,"label":"JARDIN PARTAGE DU CLOS DES BLANCS MANTEAUX"},{"type":"park","lat":48.86169078060718,"lng":2.355352853654225,"label":"JARDIN PARTAGE ANNE FRANK"},{"type":"velib","lat":48.85941800703,"lng":2.3559471219778,"label":"Blancs-Manteaux - Archives"},{"type":"velib","lat":48.861636880212,"lng":2.3566960206458,"label":"Temple - Haudriettes"},{"type":"velib","lat":48.858256413365815,"lng":2.35821794718504,"label":"Vieille du Temple - Francs Bourgeois"},{"type":"velib","lat":48.861419,"lng":2.352581,"label":"Centre Georges Pompidou"}],"dpe":{"energy_class":"D","ghg_class":"D"},"images":["https://images.unsplash.com/photo-1493809842364-78817add7ffb?w=1200&h=750&q=66&auto=format&fit=crop&crop=entropy","https://images.unsplash.com/photo-1554995207-c18c203602cb?w=1200&h=750&q=66&auto=format&fit=crop&crop=entropy","https://images.unsplash.com/photo-1560448204-e02f11c3d0e2?w=1200&h=750&q=66&auto=format&fit=crop&crop=entropy","https://images.unsplash.com/photo-1505691938895-1758d7feb511?w=1200&h=750&q=66&auto=format&fit=crop&crop=entropy","https://images.unsplash.com/photo-1484154218962-a197022b5858?w=1200&h=750&q=66&auto=format&fit=crop&crop=entropy"],"thumb":"https://images.unsplash.com/photo-1493809842364-78817add7ffb?w=480&h=300&q=55&auto=format&fit=crop&crop=entropy","score":{"opportunity_score":68,"value_score":100,"yield_score":98,"negotiation_score":1,"liquidity_score":88,"gentrification_score":45},"signals":{"price_drops":0,"total_drop_percent":0,"long_time_on_market":false,"explanations":["3.4% net rental yield (gross 4.9%)","20.4% below DVF average (12 563 €/m²)","Cheaper than 92% of the arrondissement","3 days on market"]},"source":"dvf","url":"https://app.dvf.etalab.gouv.fr/"}