{"id":"dvf-2024-1210421","address":{"raw":"207 Rue Du Fbg St Martin, 75010 Paris","normalized":"207 Rue du Faubourg Saint-Martin 75010 Paris","lat":48.880247,"lng":2.363899,"district":"75010"},"characteristics":{"surface_m2":15,"rooms":1,"floor":0},"pricing":{"current_price":150000,"price_per_m2":10000,"initial_price":150000},"timeline":{"first_seen":"2026-06-29","last_seen":"2026-07-01","days_on_market":2},"price_history":[{"date":"2026-06-29","price":150000,"source":"dvf"}],"status":"active","dvf":{"avg_price_m2_100m":9198,"avg_price_m2_500m":9205,"comparable_sales":[{"price":505000,"date":"2024-06-24","distance_m":21},{"price":444000,"date":"2024-08-02","distance_m":21},{"price":182000,"date":"2024-09-05","distance_m":21},{"price":422400,"date":"2024-07-04","distance_m":27},{"price":220000,"date":"2024-12-20","distance_m":27},{"price":141350,"date":"2024-05-31","distance_m":29},{"price":187090,"date":"2024-10-24","distance_m":29},{"price":416000,"date":"2024-01-10","distance_m":38}]},"risks":{"flood":0.05,"clay":0.19,"noise":0.44},"transport_score":100,"neighborhood":{"walk_score":85,"schools_500m":5,"income":29000,"velib_400m":6,"trees_150m":101,"amenities":{"food":25,"health":12,"green":2,"culture":4}},"rent":{"ref_m2":31.1,"max_m2":37.3,"min_m2":21.8,"quartier":"Saint-Vincent-de-Paul","monthly_est":560},"investment":{"gross_yield":4.48,"net_yield":3.05,"ppm2_percentile":56,"negotiation_margin_pct":0.1,"dpe_risk_score":55,"value_add_flag":false},"pois":[{"type":"transport","lat":48.881192119070995,"lng":2.364378741179748,"label":"Louis Blanc · METRO 7bis"},{"type":"transport","lat":48.88094656356074,"lng":2.3649934724001813,"label":"Louis Blanc · METRO 7"},{"type":"transport","lat":48.87844430039445,"lng":2.3619653022299603,"label":"Château-Landon · METRO 7"},{"type":"transport","lat":48.88077520479297,"lng":2.3587329590878596,"label":"Magenta · RER E"},{"type":"transport","lat":48.877375619879636,"lng":2.3594566169442075,"label":"Gare de l'Est · TRAIN P"},{"type":"park","lat":48.88042258054138,"lng":2.3621892464466105,"label":"JARDINET DE LA STATUE DE LA MATERNITE"},{"type":"park","lat":48.87808354908699,"lng":2.365894152536582,"label":"SQUARE EUGENE VARLIN"},{"type":"park","lat":48.882794051804666,"lng":2.3623244893977158,"label":"JARDINET DE LA STATUE DU FAUNE"},{"type":"velib","lat":48.879305,"lng":2.362424,"label":"Gare de l'Est - Chateau Landon"},{"type":"velib","lat":48.882030182599,"lng":2.363561578095,"label":"Louis Blanc - Aqueduc"},{"type":"velib","lat":48.879359419425,"lng":2.3665961623192,"label":"Alexandre Parodi - Quai de Valmy"},{"type":"velib","lat":48.881269515794,"lng":2.3681860417128,"label":"Quai de Valmy"}],"dpe":{"energy_class":"E","ghg_class":"B"},"images":["https://images.unsplash.com/photo-1556912173-3bb406ef7e77?w=1200&h=750&q=66&auto=format&fit=crop&crop=entropy","https://images.unsplash.com/photo-1493809842364-78817add7ffb?w=1200&h=750&q=66&auto=format&fit=crop&crop=entropy","https://images.unsplash.com/photo-1493663284031-b7e3aefcae8e?w=1200&h=750&q=66&auto=format&fit=crop&crop=entropy","https://images.unsplash.com/photo-1484154218962-a197022b5858?w=1200&h=750&q=66&auto=format&fit=crop&crop=entropy","https://images.unsplash.com/photo-1502672260266-1c1ef2d93688?w=1200&h=750&q=66&auto=format&fit=crop&crop=entropy"],"thumb":"https://images.unsplash.com/photo-1556912173-3bb406ef7e77?w=480&h=300&q=55&auto=format&fit=crop&crop=entropy","score":{"opportunity_score":43,"value_score":44,"yield_score":84,"negotiation_score":0,"liquidity_score":83,"gentrification_score":46},"signals":{"price_drops":0,"total_drop_percent":0,"long_time_on_market":false,"explanations":["3.0% net rental yield (gross 4.5%)","8.7% above DVF average","2 days on market"]},"source":"dvf","url":"https://app.dvf.etalab.gouv.fr/"}