{"id":"dvf-2024-1209868","address":{"raw":"12 Rue Caffarelli, 75003 Paris","normalized":"12 Rue Caffarelli 75003 Paris","lat":48.863714,"lng":2.362087,"district":"75003"},"characteristics":{"surface_m2":11,"rooms":1,"floor":3},"pricing":{"current_price":137090,"price_per_m2":12463,"initial_price":137090},"timeline":{"first_seen":"2026-06-29","last_seen":"2026-07-02","days_on_market":3},"price_history":[{"date":"2026-06-29","price":137090,"source":"dvf"}],"status":"active","dvf":{"avg_price_m2_100m":13791,"avg_price_m2_500m":12272,"comparable_sales":[{"price":273500,"date":"2024-03-25","distance_m":11},{"price":373000,"date":"2024-06-25","distance_m":20},{"price":410500,"date":"2024-08-23","distance_m":23},{"price":1120000,"date":"2024-05-30","distance_m":25},{"price":192000,"date":"2024-03-28","distance_m":50},{"price":218500,"date":"2024-05-31","distance_m":50},{"price":260000,"date":"2024-09-19","distance_m":50},{"price":255000,"date":"2024-10-18","distance_m":52}]},"risks":{"flood":0.06,"clay":0.2,"noise":0.37},"transport_score":88,"neighborhood":{"walk_score":74,"schools_500m":21,"income":35000,"velib_400m":7,"trees_150m":137,"amenities":{"food":11,"health":9,"green":0,"culture":3}},"rent":{"ref_m2":32.9,"max_m2":39.5,"min_m2":23,"quartier":"Enfants-Rouges","monthly_est":435},"investment":{"gross_yield":3.8,"net_yield":2.42,"ppm2_percentile":50,"negotiation_margin_pct":0.1,"dpe_risk_score":88,"value_add_flag":false},"pois":[{"type":"transport","lat":48.866514461743,"lng":2.3608035032752688,"label":"Temple · METRO 3"},{"type":"transport","lat":48.8632579449589,"lng":2.3666610933534518,"label":"Filles du Calvaire · METRO 8"},{"type":"transport","lat":48.86702678847436,"lng":2.364247995104706,"label":"République · METRO 3"},{"type":"transport","lat":48.86532271167806,"lng":2.356729869173701,"label":"Arts et Métiers · METRO 11"},{"type":"transport","lat":48.867600880102444,"lng":2.3627573800027633,"label":"République · METRO 8"},{"type":"park","lat":48.86385775513695,"lng":2.361728173311372,"label":"JARDINETS DE LA MAIRIE DE PARIS CENTRE"},{"type":"park","lat":48.86306513083119,"lng":2.3616418938473718,"label":"JARDINET MADELEINE DE SCUDERY"},{"type":"park","lat":48.862991808092225,"lng":2.361786917948169,"label":"JARDIN PARTAGE MADELEINE SCUDERY-LES OISEAUX"},{"type":"velib","lat":48.864461781391,"lng":2.3617628216743,"label":"Mairie du 3ème"},{"type":"velib","lat":48.8623615,"lng":2.3595041,"label":"Archives - Pastourelle"},{"type":"velib","lat":48.86210505412563,"lng":2.3649600148200993,"label":"Fille du Calvaire - Turenne"},{"type":"velib","lat":48.86446597201,"lng":2.3660597205162,"label":"Temple - Jean-Pierre Timbaud"}],"dpe":{"energy_class":"C","ghg_class":"A"},"images":["https://images.unsplash.com/photo-1554995207-c18c203602cb?w=1200&h=750&q=66&auto=format&fit=crop&crop=entropy","https://images.unsplash.com/photo-1493809842364-78817add7ffb?w=1200&h=750&q=66&auto=format&fit=crop&crop=entropy","https://images.unsplash.com/photo-1560448204-e02f11c3d0e2?w=1200&h=750&q=66&auto=format&fit=crop&crop=entropy","https://images.unsplash.com/photo-1556912173-3bb406ef7e77?w=1200&h=750&q=66&auto=format&fit=crop&crop=entropy","https://images.unsplash.com/photo-1502672260266-1c1ef2d93688?w=1200&h=750&q=66&auto=format&fit=crop&crop=entropy"],"thumb":"https://images.unsplash.com/photo-1554995207-c18c203602cb?w=480&h=300&q=55&auto=format&fit=crop&crop=entropy","score":{"opportunity_score":49,"value_score":64,"yield_score":52,"negotiation_score":1,"liquidity_score":86,"gentrification_score":46},"signals":{"price_drops":0,"total_drop_percent":0,"long_time_on_market":false,"explanations":["2.4% net rental yield (gross 3.8%)","5.5% below DVF average (13 183 €/m²)","3 days on market"]},"source":"dvf","url":"https://app.dvf.etalab.gouv.fr/"}