{"id":"dvf-2024-1209604","address":{"raw":"23 Rue Aux Ours, 75003 Paris","normalized":"23 Rue aux Ours 75003 Paris","lat":48.863186,"lng":2.351365,"district":"75003"},"characteristics":{"surface_m2":27,"rooms":2,"floor":4},"pricing":{"current_price":230000,"price_per_m2":8519,"initial_price":230000},"timeline":{"first_seen":"2026-06-29","last_seen":"2026-07-01","days_on_market":2},"price_history":[{"date":"2026-06-29","price":230000,"source":"dvf"}],"status":"active","dvf":{"avg_price_m2_100m":10903,"avg_price_m2_500m":11939,"comparable_sales":[{"price":330050,"date":"2024-06-27","distance_m":9},{"price":1010000,"date":"2024-06-13","distance_m":14},{"price":207500,"date":"2024-04-29","distance_m":27},{"price":435000,"date":"2024-12-18","distance_m":35},{"price":429100,"date":"2024-10-28","distance_m":62},{"price":623100,"date":"2024-12-20","distance_m":62},{"price":950000,"date":"2024-10-04","distance_m":64},{"price":1400000,"date":"2024-02-23","distance_m":67}]},"risks":{"flood":0.12,"clay":0.45,"noise":0.42},"transport_score":100,"neighborhood":{"walk_score":79,"schools_500m":9,"income":35000,"velib_400m":11,"trees_150m":27,"amenities":{"food":29,"health":6,"green":3,"culture":2}},"rent":{"ref_m2":29.2,"max_m2":35,"min_m2":20.4,"quartier":"Sainte-Avoie","monthly_est":945},"investment":{"gross_yield":4.93,"net_yield":3.47,"ppm2_percentile":2,"negotiation_margin_pct":0.1,"dpe_risk_score":88,"value_add_flag":false},"pois":[{"type":"transport","lat":48.863972478817246,"lng":2.3496175641598405,"label":"Étienne Marcel · METRO 4"},{"type":"transport","lat":48.86120499033039,"lng":2.353495741491146,"label":"Rambuteau · METRO 11"},{"type":"transport","lat":48.86182227279812,"lng":2.3470126872387564,"label":"Châtelet-Les Halles · RER B"},{"type":"transport","lat":48.86182227279812,"lng":2.3470126872387564,"label":"Châtelet-Les Halles · RER D"},{"type":"transport","lat":48.86182227279812,"lng":2.3470126872387564,"label":"Châtelet-Les Halles · RER A"},{"type":"park","lat":48.861653404320585,"lng":2.3548705734451483,"label":"JARDIN ANNE FRANK (HOTEL SAINT-AIGNAN)"},{"type":"park","lat":48.86169078060718,"lng":2.355352853654225,"label":"JARDIN PARTAGE ANNE FRANK"},{"type":"park","lat":48.86673388844411,"lng":2.3498762921994794,"label":"JARDINET REAUMUR"},{"type":"velib","lat":48.863933319493,"lng":2.352406270802,"label":"Bourg l'Abbé - Saint-Martin"},{"type":"velib","lat":48.8626302,"lng":2.3498075,"label":"Grande Truanderie - Saint-Denis"},{"type":"velib","lat":48.86181809267,"lng":2.3501381278038,"label":"Sebastopol - Rambuteau"},{"type":"velib","lat":48.861419,"lng":2.352581,"label":"Centre Georges Pompidou"}],"dpe":{"energy_class":"C","ghg_class":"B"},"images":["https://images.unsplash.com/photo-1484154218962-a197022b5858?w=1200&h=750&q=66&auto=format&fit=crop&crop=entropy","https://images.unsplash.com/photo-1493809842364-78817add7ffb?w=1200&h=750&q=66&auto=format&fit=crop&crop=entropy","https://images.unsplash.com/photo-1554995207-c18c203602cb?w=1200&h=750&q=66&auto=format&fit=crop&crop=entropy","https://images.unsplash.com/photo-1567496898669-ee935f5f647a?w=1200&h=750&q=66&auto=format&fit=crop&crop=entropy","https://images.unsplash.com/photo-1493663284031-b7e3aefcae8e?w=1200&h=750&q=66&auto=format&fit=crop&crop=entropy"],"thumb":"https://images.unsplash.com/photo-1484154218962-a197022b5858?w=480&h=300&q=55&auto=format&fit=crop&crop=entropy","score":{"opportunity_score":73,"value_score":100,"yield_score":99,"negotiation_score":0,"liquidity_score":89,"gentrification_score":46},"signals":{"price_drops":0,"total_drop_percent":0,"long_time_on_market":false,"explanations":["3.5% net rental yield (gross 4.9%)","24.7% below DVF average (11 317 €/m²)","Cheaper than 98% of the arrondissement","2 days on market"]},"source":"dvf","url":"https://app.dvf.etalab.gouv.fr/"}