{"id":"dvf-2024-1210337","address":{"raw":"7 Rue Beaurepaire, 75010 Paris","normalized":"7 Rue Beaurepaire 75010 Paris","lat":48.869542,"lng":2.363348,"district":"75010"},"characteristics":{"surface_m2":25,"rooms":2,"floor":1},"pricing":{"current_price":227000,"price_per_m2":9080,"initial_price":227000},"timeline":{"first_seen":"2026-06-29","last_seen":"2026-07-01","days_on_market":2},"price_history":[{"date":"2026-06-29","price":227000,"source":"dvf"}],"status":"active","dvf":{"avg_price_m2_100m":10544,"avg_price_m2_500m":10363,"comparable_sales":[{"price":322000,"date":"2024-06-24","distance_m":10},{"price":226270,"date":"2024-07-30","distance_m":10},{"price":524000,"date":"2024-08-26","distance_m":27},{"price":300000,"date":"2024-04-11","distance_m":31},{"price":479040,"date":"2024-11-19","distance_m":35},{"price":342000,"date":"2024-11-06","distance_m":35},{"price":635000,"date":"2024-02-13","distance_m":36},{"price":422330,"date":"2024-03-29","distance_m":36}]},"risks":{"flood":0.03,"clay":0.18,"noise":0.52},"transport_score":99,"neighborhood":{"walk_score":87,"schools_500m":9,"income":29000,"velib_400m":10,"trees_150m":118,"amenities":{"food":9,"health":11,"green":4,"culture":4}},"rent":{"ref_m2":25.4,"max_m2":30.5,"min_m2":17.8,"quartier":"Porte-Saint-Martin","monthly_est":763},"investment":{"gross_yield":4.03,"net_yield":2.63,"ppm2_percentile":42,"negotiation_margin_pct":0.1,"dpe_risk_score":75,"value_add_flag":false},"pois":[{"type":"transport","lat":48.87039638922484,"lng":2.3614002104327776,"label":"Jacques Bonsergent · METRO 5"},{"type":"transport","lat":48.86782709972698,"lng":2.3637404371950392,"label":"République · METRO 5"},{"type":"transport","lat":48.86778030055016,"lng":2.3629287001561123,"label":"République · METRO 9"},{"type":"transport","lat":48.86799910892294,"lng":2.3650748610827645,"label":"République · METRO 11"},{"type":"transport","lat":48.867600880102444,"lng":2.3627573800027633,"label":"République · METRO 8"},{"type":"park","lat":48.86927407136047,"lng":2.366917000791045,"label":"SQUARE FREDERICK LEMAITRE"},{"type":"park","lat":48.872538121101215,"lng":2.3613590780735745,"label":"JARDINET DE LA RUE LEGOUVE"},{"type":"park","lat":48.86772891459736,"lng":2.3681171530038503,"label":"SQUARE DOMINIQUE BERNARD"},{"type":"velib","lat":48.868976638826,"lng":2.3623438552022,"label":"Bourse du Travail"},{"type":"velib","lat":48.867872484749,"lng":2.3648982158072,"label":"Faubourg Du Temple - Republique"},{"type":"velib","lat":48.870948218595,"lng":2.3612049221992,"label":"Place Jacques Bonsergent"},{"type":"velib","lat":48.871624306962985,"lng":2.3639265082738348,"label":"Marseille - Beaurepaire"}],"dpe":{"energy_class":"D","ghg_class":"B"},"images":["https://images.unsplash.com/photo-1493809842364-78817add7ffb?w=1200&h=750&q=66&auto=format&fit=crop&crop=entropy","https://images.unsplash.com/photo-1540518614846-7eded433c457?w=1200&h=750&q=66&auto=format&fit=crop&crop=entropy","https://images.unsplash.com/photo-1502672260266-1c1ef2d93688?w=1200&h=750&q=66&auto=format&fit=crop&crop=entropy","https://images.unsplash.com/photo-1505691938895-1758d7feb511?w=1200&h=750&q=66&auto=format&fit=crop&crop=entropy","https://images.unsplash.com/photo-1493663284031-b7e3aefcae8e?w=1200&h=750&q=66&auto=format&fit=crop&crop=entropy"],"thumb":"https://images.unsplash.com/photo-1493809842364-78817add7ffb?w=480&h=300&q=55&auto=format&fit=crop&crop=entropy","score":{"opportunity_score":53,"value_score":83,"yield_score":63,"negotiation_score":0,"liquidity_score":83,"gentrification_score":46},"signals":{"price_drops":0,"total_drop_percent":0,"long_time_on_market":false,"explanations":["2.6% net rental yield (gross 4.0%)","13.3% below DVF average (10 472 €/m²)","2 days on market"]},"source":"dvf","url":"https://app.dvf.etalab.gouv.fr/"}