{"id":"dvf-2024-1209793","address":{"raw":"86 Rue Quincampoix, 75003 Paris","normalized":"86 Rue Quincampoix 75003 Paris","lat":48.862672,"lng":2.351409,"district":"75003"},"characteristics":{"surface_m2":44,"rooms":2,"floor":2},"pricing":{"current_price":623100,"price_per_m2":14161,"initial_price":623100},"timeline":{"first_seen":"2026-06-29","last_seen":"2026-07-01","days_on_market":2},"price_history":[{"date":"2026-06-29","price":623100,"source":"dvf"}],"status":"active","dvf":{"avg_price_m2_100m":10067,"avg_price_m2_500m":11836,"comparable_sales":[{"price":385000,"date":"2024-03-22","distance_m":31},{"price":210000,"date":"2024-05-30","distance_m":31},{"price":514570,"date":"2024-12-17","distance_m":31},{"price":435000,"date":"2024-12-18","distance_m":32},{"price":286465,"date":"2024-09-03","distance_m":38},{"price":950000,"date":"2024-10-04","distance_m":43},{"price":230000,"date":"2024-12-18","distance_m":45},{"price":330050,"date":"2024-06-27","distance_m":49}]},"risks":{"flood":0.15,"clay":0.3,"noise":0.35},"transport_score":97,"neighborhood":{"walk_score":88,"schools_500m":5,"income":35000,"velib_400m":11,"trees_150m":138,"amenities":{"food":21,"health":6,"green":3,"culture":5}},"rent":{"ref_m2":29.2,"max_m2":35,"min_m2":20.4,"quartier":"Sainte-Avoie","monthly_est":1540},"investment":{"gross_yield":2.97,"net_yield":1.64,"ppm2_percentile":78,"negotiation_margin_pct":0.1,"dpe_risk_score":30,"value_add_flag":false},"pois":[{"type":"transport","lat":48.863972478817246,"lng":2.3496175641598405,"label":"Étienne Marcel · METRO 4"},{"type":"transport","lat":48.86120499033039,"lng":2.353495741491146,"label":"Rambuteau · METRO 11"},{"type":"transport","lat":48.86182227279812,"lng":2.3470126872387564,"label":"Châtelet-Les Halles · RER B"},{"type":"transport","lat":48.86182227279812,"lng":2.3470126872387564,"label":"Châtelet-Les Halles · RER D"},{"type":"transport","lat":48.86182227279812,"lng":2.3470126872387564,"label":"Châtelet-Les Halles · RER A"},{"type":"park","lat":48.861653404320585,"lng":2.3548705734451483,"label":"JARDIN ANNE FRANK (HOTEL SAINT-AIGNAN)"},{"type":"park","lat":48.86169078060718,"lng":2.355352853654225,"label":"JARDIN PARTAGE ANNE FRANK"},{"type":"park","lat":48.86673388844411,"lng":2.3498762921994794,"label":"JARDINET REAUMUR"},{"type":"velib","lat":48.8626302,"lng":2.3498075,"label":"Grande Truanderie - Saint-Denis"},{"type":"velib","lat":48.86181809267,"lng":2.3501381278038,"label":"Sebastopol - Rambuteau"},{"type":"velib","lat":48.863933319493,"lng":2.352406270802,"label":"Bourg l'Abbé - Saint-Martin"},{"type":"velib","lat":48.861419,"lng":2.352581,"label":"Centre Georges Pompidou"}],"dpe":{"energy_class":"F","ghg_class":"F"},"images":["https://images.unsplash.com/photo-1502672260266-1c1ef2d93688?w=1200&h=750&q=66&auto=format&fit=crop&crop=entropy","https://images.unsplash.com/photo-1493809842364-78817add7ffb?w=1200&h=750&q=66&auto=format&fit=crop&crop=entropy","https://images.unsplash.com/photo-1540518614846-7eded433c457?w=1200&h=750&q=66&auto=format&fit=crop&crop=entropy","https://images.unsplash.com/photo-1560448204-e02f11c3d0e2?w=1200&h=750&q=66&auto=format&fit=crop&crop=entropy","https://images.unsplash.com/photo-1567496898669-ee935f5f647a?w=1200&h=750&q=66&auto=format&fit=crop&crop=entropy"],"thumb":"https://images.unsplash.com/photo-1502672260266-1c1ef2d93688?w=480&h=300&q=55&auto=format&fit=crop&crop=entropy","score":{"opportunity_score":18,"value_score":22,"yield_score":12,"negotiation_score":0,"liquidity_score":86,"gentrification_score":46},"signals":{"price_drops":0,"total_drop_percent":0,"long_time_on_market":false,"explanations":["1.6% net rental yield (gross 3.0%)","31.4% above DVF average","2 days on market","Energy class F — rental restrictions apply"]},"source":"dvf","url":"https://app.dvf.etalab.gouv.fr/"}