{"id":"dvf-2024-1209797","address":{"raw":"32 Av Marceau, 75008 Paris","normalized":"32 Avenue Marceau 75008 Paris","lat":48.867417,"lng":2.299553,"district":"75008"},"characteristics":{"surface_m2":35,"rooms":1,"floor":3},"pricing":{"current_price":350000,"price_per_m2":10000,"initial_price":350000},"timeline":{"first_seen":"2026-06-29","last_seen":"2026-07-02","days_on_market":3},"price_history":[{"date":"2026-06-29","price":350000,"source":"dvf"}],"status":"active","dvf":{"avg_price_m2_100m":13696,"avg_price_m2_500m":15421,"comparable_sales":[{"price":1465238,"date":"2024-12-16","distance_m":66},{"price":700000,"date":"2024-12-13","distance_m":86},{"price":4207700,"date":"2024-01-31","distance_m":103},{"price":825000,"date":"2024-04-30","distance_m":113},{"price":500000,"date":"2024-11-18","distance_m":113},{"price":463000,"date":"2024-10-24","distance_m":113},{"price":4200000,"date":"2024-10-28","distance_m":121},{"price":1655000,"date":"2024-02-13","distance_m":131}]},"risks":{"flood":0.04,"clay":0.51,"noise":0.25},"transport_score":81,"neighborhood":{"walk_score":58,"schools_500m":9,"income":45000,"velib_400m":7,"trees_150m":16,"amenities":{"food":17,"health":1,"green":0,"culture":1}},"rent":{"ref_m2":34,"max_m2":40.8,"min_m2":23.8,"quartier":"Champs-Elysées","monthly_est":1428},"investment":{"gross_yield":4.9,"net_yield":3.44,"ppm2_percentile":18,"negotiation_margin_pct":0.1,"dpe_risk_score":55,"value_add_flag":false},"pois":[{"type":"transport","lat":48.86476684497177,"lng":2.3009910034955845,"label":"Alma-Marceau · METRO 9"},{"type":"transport","lat":48.8647940649002,"lng":2.2941620153942797,"label":"Iéna · METRO 9"},{"type":"transport","lat":48.872023810399725,"lng":2.3005604512367213,"label":"George V · METRO 1"},{"type":"transport","lat":48.86266245169435,"lng":2.300989969386769,"label":"Pont de l'Alma · RER C"},{"type":"transport","lat":48.87126214446096,"lng":2.2932406499473137,"label":"Kléber · METRO 6"},{"type":"park","lat":48.86541511303681,"lng":2.2966949417795264,"label":"SQUARE BRIGNOLE - MUSEE GALLIERA"},{"type":"park","lat":48.86454896035015,"lng":2.2971453429371027,"label":"JARDIN DU MUSEE D'ART MODERNE"},{"type":"park","lat":48.86491841602704,"lng":2.3029111933359894,"label":"JARDINET DE LA PLACE DE LA REINE ASTRID"},{"type":"velib","lat":48.868834023334,"lng":2.2986030816809,"label":"Marceau - Chaillot"},{"type":"velib","lat":48.8652359,"lng":2.3002513,"label":"Marceau - Président Wilson"},{"type":"velib","lat":48.868144510482075,"lng":2.296149600985935,"label":"Bassano -  Iéna"},{"type":"velib","lat":48.869517979344,"lng":2.3024262188416,"label":"François 1er - Lincoln"}],"dpe":{"energy_class":"E","ghg_class":"D"},"images":["https://images.unsplash.com/photo-1493663284031-b7e3aefcae8e?w=1200&h=750&q=66&auto=format&fit=crop&crop=entropy","https://images.unsplash.com/photo-1522708323590-d24dbb6b0267?w=1200&h=750&q=66&auto=format&fit=crop&crop=entropy","https://images.unsplash.com/photo-1493809842364-78817add7ffb?w=1200&h=750&q=66&auto=format&fit=crop&crop=entropy","https://images.unsplash.com/photo-1540518614846-7eded433c457?w=1200&h=750&q=66&auto=format&fit=crop&crop=entropy","https://images.unsplash.com/photo-1560448204-e02f11c3d0e2?w=1200&h=750&q=66&auto=format&fit=crop&crop=entropy"],"thumb":"https://images.unsplash.com/photo-1493663284031-b7e3aefcae8e?w=480&h=300&q=55&auto=format&fit=crop&crop=entropy","score":{"opportunity_score":60,"value_score":100,"yield_score":98,"negotiation_score":1,"liquidity_score":80,"gentrification_score":61},"signals":{"price_drops":0,"total_drop_percent":0,"long_time_on_market":false,"explanations":["3.4% net rental yield (gross 4.9%)","30.5% below DVF average (14 386 €/m²)","Cheaper than 82% of the arrondissement","3 days on market"]},"source":"dvf","url":"https://app.dvf.etalab.gouv.fr/"}