{"id":"dvf-2024-1209976","address":{"raw":"22 Rue Michel Le Comte, 75003 Paris","normalized":"22 Rue Michel Le Comte 75003 Paris","lat":48.862388,"lng":2.3557,"district":"75003"},"characteristics":{"surface_m2":28,"rooms":1,"floor":1},"pricing":{"current_price":330000,"price_per_m2":11786,"initial_price":330000},"timeline":{"first_seen":"2026-06-29","last_seen":"2026-07-01","days_on_market":2},"price_history":[{"date":"2026-06-29","price":330000,"source":"dvf"}],"status":"active","dvf":{"avg_price_m2_100m":12894,"avg_price_m2_500m":12436,"comparable_sales":[{"price":795000,"date":"2024-03-21","distance_m":32},{"price":560000,"date":"2024-06-26","distance_m":42},{"price":800000,"date":"2024-10-30","distance_m":49},{"price":602000,"date":"2024-09-20","distance_m":50},{"price":400000,"date":"2024-04-03","distance_m":78},{"price":220000,"date":"2024-09-04","distance_m":82},{"price":625000,"date":"2024-02-12","distance_m":83},{"price":1392000,"date":"2024-04-22","distance_m":83}]},"risks":{"flood":0.19,"clay":0.49,"noise":0.46},"transport_score":96,"neighborhood":{"walk_score":90,"schools_500m":7,"income":35000,"velib_400m":7,"trees_150m":48,"amenities":{"food":21,"health":12,"green":3,"culture":6}},"rent":{"ref_m2":32.9,"max_m2":39.5,"min_m2":23,"quartier":"Sainte-Avoie","monthly_est":1106},"investment":{"gross_yield":4.02,"net_yield":2.62,"ppm2_percentile":42,"negotiation_margin_pct":0.1,"dpe_risk_score":88,"value_add_flag":false},"pois":[{"type":"transport","lat":48.86120499033039,"lng":2.353495741491146,"label":"Rambuteau · METRO 11"},{"type":"transport","lat":48.86532271167806,"lng":2.356729869173701,"label":"Arts et Métiers · METRO 11"},{"type":"transport","lat":48.86558647849898,"lng":2.356736756794993,"label":"Arts et Métiers · METRO 3"},{"type":"transport","lat":48.863972478817246,"lng":2.3496175641598405,"label":"Étienne Marcel · METRO 4"},{"type":"transport","lat":48.86673355595668,"lng":2.352829461254394,"label":"Réaumur Sébastopol · METRO 4"},{"type":"park","lat":48.86169078060718,"lng":2.355352853654225,"label":"JARDIN PARTAGE ANNE FRANK"},{"type":"park","lat":48.861653404320585,"lng":2.3548705734451483,"label":"JARDIN ANNE FRANK (HOTEL SAINT-AIGNAN)"},{"type":"park","lat":48.858614978289566,"lng":2.356505654906898,"label":"JARDIN DU CLOS DES BLANCS MANTEAUX-FRANCESCA DANDOLO"},{"type":"velib","lat":48.862534941806,"lng":2.3543103039265,"label":"Beaubourg - Michel-le-Comte"},{"type":"velib","lat":48.861636880212,"lng":2.3566960206458,"label":"Temple - Haudriettes"},{"type":"velib","lat":48.861419,"lng":2.352581,"label":"Centre Georges Pompidou"},{"type":"velib","lat":48.8623615,"lng":2.3595041,"label":"Archives - Pastourelle"}],"dpe":{"energy_class":"C","ghg_class":"B"},"images":["https://images.unsplash.com/photo-1567496898669-ee935f5f647a?w=1200&h=750&q=66&auto=format&fit=crop&crop=entropy","https://images.unsplash.com/photo-1540518614846-7eded433c457?w=1200&h=750&q=66&auto=format&fit=crop&crop=entropy","https://images.unsplash.com/photo-1505691938895-1758d7feb511?w=1200&h=750&q=66&auto=format&fit=crop&crop=entropy","https://images.unsplash.com/photo-1522708323590-d24dbb6b0267?w=1200&h=750&q=66&auto=format&fit=crop&crop=entropy","https://images.unsplash.com/photo-1493663284031-b7e3aefcae8e?w=1200&h=750&q=66&auto=format&fit=crop&crop=entropy"],"thumb":"https://images.unsplash.com/photo-1567496898669-ee935f5f647a?w=480&h=300&q=55&auto=format&fit=crop&crop=entropy","score":{"opportunity_score":54,"value_score":68,"yield_score":62,"negotiation_score":0,"liquidity_score":90,"gentrification_score":46},"signals":{"price_drops":0,"total_drop_percent":0,"long_time_on_market":false,"explanations":["2.6% net rental yield (gross 4.0%)","7.3% below DVF average (12 711 €/m²)","2 days on market"]},"source":"dvf","url":"https://app.dvf.etalab.gouv.fr/"}