{"id":"dvf-2024-1228992","address":{"raw":"85 Bd Brune, 75014 Paris","normalized":"85 Boulevard Brune 75014 Paris","lat":48.826083,"lng":2.313562,"district":"75014"},"characteristics":{"surface_m2":70,"rooms":3,"floor":4},"pricing":{"current_price":490000,"price_per_m2":7000,"initial_price":490000},"timeline":{"first_seen":"2026-06-29","last_seen":"2026-07-02","days_on_market":3},"price_history":[{"date":"2026-06-29","price":490000,"source":"dvf"}],"status":"active","dvf":{"avg_price_m2_100m":8444,"avg_price_m2_500m":8571,"comparable_sales":[{"price":340000,"date":"2024-02-28","distance_m":20},{"price":420000,"date":"2024-08-29","distance_m":20},{"price":439750,"date":"2024-02-28","distance_m":68},{"price":419750,"date":"2024-03-15","distance_m":68},{"price":515000,"date":"2024-01-04","distance_m":69},{"price":371429,"date":"2024-01-26","distance_m":69},{"price":538000,"date":"2024-09-12","distance_m":78},{"price":430000,"date":"2024-11-04","distance_m":78}]},"risks":{"flood":0.03,"clay":0.29,"noise":0.25},"transport_score":84,"neighborhood":{"walk_score":75,"schools_500m":9,"income":32000,"velib_400m":5,"trees_150m":56,"amenities":{"food":11,"health":3,"green":2,"culture":6}},"rent":{"ref_m2":23.9,"max_m2":28.7,"min_m2":16.7,"quartier":"Plaisance","monthly_est":2009},"investment":{"gross_yield":4.92,"net_yield":3.46,"ppm2_percentile":0,"negotiation_margin_pct":0.1,"dpe_risk_score":75,"value_add_flag":false},"pois":[{"type":"transport","lat":48.82592054697146,"lng":2.3133800873660437,"label":"Didot · TRAM 3a"},{"type":"transport","lat":48.82471101880376,"lng":2.318829692620226,"label":"Jean Moulin · TRAM 3a"},{"type":"transport","lat":48.82741485955381,"lng":2.306635926501743,"label":"Porte de Vanves · TRAM 3a"},{"type":"transport","lat":48.82779554349536,"lng":2.305534669653895,"label":"Porte de Vanves · METRO 13"},{"type":"transport","lat":48.83182565048563,"lng":2.3141223234590225,"label":"Plaisance · METRO 13"},{"type":"park","lat":48.82423426431816,"lng":2.314825590740608,"label":"JARDIN JULES NOEL"},{"type":"park","lat":48.82785800306453,"lng":2.3108712665472666,"label":"JARDIN PARTAGE DU SQUARE AUGUSTE RENOIR"},{"type":"park","lat":48.823931522058274,"lng":2.3115200518803163,"label":"JARDIN DU GROUPE SCOLAIRE MAURICE D’OCAGNE"},{"type":"velib","lat":48.82650543613106,"lng":2.313136198271666,"label":"Didot - Mariniers"},{"type":"velib","lat":48.825218683556734,"lng":2.3107116669416428,"label":"Marc Sangnier - Porte de Vanves"},{"type":"velib","lat":48.82414282524159,"lng":2.3158789426088333,"label":"Maurice d'Ocagne - General Maudhuy"},{"type":"velib","lat":48.82650293311,"lng":2.3092747998272,"label":"Colonel Monteil - Brune"}],"dpe":{"energy_class":"D","ghg_class":"A"},"images":["https://images.unsplash.com/photo-1493663284031-b7e3aefcae8e?w=1200&h=750&q=66&auto=format&fit=crop&crop=entropy","https://images.unsplash.com/photo-1540518614846-7eded433c457?w=1200&h=750&q=66&auto=format&fit=crop&crop=entropy","https://images.unsplash.com/photo-1502672260266-1c1ef2d93688?w=1200&h=750&q=66&auto=format&fit=crop&crop=entropy","https://images.unsplash.com/photo-1567496898669-ee935f5f647a?w=1200&h=750&q=66&auto=format&fit=crop&crop=entropy","https://images.unsplash.com/photo-1522708323590-d24dbb6b0267?w=1200&h=750&q=66&auto=format&fit=crop&crop=entropy"],"thumb":"https://images.unsplash.com/photo-1493663284031-b7e3aefcae8e?w=480&h=300&q=55&auto=format&fit=crop&crop=entropy","score":{"opportunity_score":66,"value_score":100,"yield_score":99,"negotiation_score":1,"liquidity_score":73,"gentrification_score":51},"signals":{"price_drops":0,"total_drop_percent":0,"long_time_on_market":false,"explanations":["3.5% net rental yield (gross 4.9%)","17.6% below DVF average (8 495 €/m²)","Cheaper than 100% of the arrondissement","3 days on market"]},"source":"dvf","url":"https://app.dvf.etalab.gouv.fr/"}