{"id":"dvf-2024-1210132","address":{"raw":"177 Rue Du Fg Poissonniere, 75009 Paris","normalized":"177 Rue du Faubourg Poissonnière 75009 Paris","lat":48.882079,"lng":2.349629,"district":"75009"},"characteristics":{"surface_m2":130,"rooms":5,"floor":0},"pricing":{"current_price":1162000,"price_per_m2":8938,"initial_price":1162000},"timeline":{"first_seen":"2026-06-29","last_seen":"2026-07-01","days_on_market":2},"price_history":[{"date":"2026-06-29","price":1162000,"source":"dvf"}],"status":"active","dvf":{"avg_price_m2_100m":9707,"avg_price_m2_500m":10043,"comparable_sales":[{"price":660000,"date":"2024-03-04","distance_m":25},{"price":395000,"date":"2024-01-09","distance_m":39},{"price":245000,"date":"2024-10-14","distance_m":39},{"price":625000,"date":"2024-04-24","distance_m":53},{"price":410000,"date":"2024-05-14","distance_m":56},{"price":692000,"date":"2024-03-06","distance_m":66},{"price":650000,"date":"2024-10-29","distance_m":66},{"price":400000,"date":"2024-11-28","distance_m":66}]},"risks":{"flood":0.03,"clay":0.28,"noise":0.55},"transport_score":100,"neighborhood":{"walk_score":88,"schools_500m":18,"income":34000,"velib_400m":12,"trees_150m":36,"amenities":{"food":22,"health":10,"green":3,"culture":4}},"rent":{"ref_m2":21.2,"max_m2":25.4,"min_m2":14.8,"quartier":"Rochechouart","monthly_est":3302},"investment":{"gross_yield":3.41,"net_yield":2.06,"ppm2_percentile":20,"negotiation_margin_pct":0.1,"dpe_risk_score":55,"value_add_flag":false},"pois":[{"type":"transport","lat":48.8834180885266,"lng":2.349674832582202,"label":"Barbès-Rochechouart · METRO 4"},{"type":"transport","lat":48.88380394240113,"lng":2.3506129993253224,"label":"Barbès-Rochechouart · METRO 2"},{"type":"transport","lat":48.882972767827276,"lng":2.3446670737483,"label":"Anvers · METRO 2"},{"type":"transport","lat":48.88092200667149,"lng":2.356328543670162,"label":"Gare du Nord · TRAIN K"},{"type":"transport","lat":48.88092200667149,"lng":2.356328543670162,"label":"Gare du Nord · TRAIN H"},{"type":"park","lat":48.88217494781604,"lng":2.3443762611147774,"label":"SQUARE D'ANVERS-JEAN-CLAUDE CARRIERE"},{"type":"park","lat":48.878960793257036,"lng":2.351921096782042,"label":"JARDINET SAINT VINCENT DE PAUL"},{"type":"park","lat":48.885678177377486,"lng":2.351899739332651,"label":"JARDIN PARTAGE DE LA RUE POLONCEAU"},{"type":"velib","lat":48.882555807626765,"lng":2.3497482016682625,"label":"Faubourg Poissonniere - Delta"},{"type":"velib","lat":48.880883445404436,"lng":2.349934279918671,"label":"Faubourg Poissonnière - Dunkerque"},{"type":"velib","lat":48.881949,"lng":2.352339,"label":"Gare du Nord - Hôpital Lariboisière"},{"type":"velib","lat":48.880726,"lng":2.351464,"label":"Dunkerque - Rocroy"}],"dpe":{"energy_class":"E","ghg_class":"C"},"images":["https://images.unsplash.com/photo-1560448204-e02f11c3d0e2?w=1200&h=750&q=66&auto=format&fit=crop&crop=entropy","https://images.unsplash.com/photo-1484154218962-a197022b5858?w=1200&h=750&q=66&auto=format&fit=crop&crop=entropy","https://images.unsplash.com/photo-1522708323590-d24dbb6b0267?w=1200&h=750&q=66&auto=format&fit=crop&crop=entropy","https://images.unsplash.com/photo-1502672260266-1c1ef2d93688?w=1200&h=750&q=66&auto=format&fit=crop&crop=entropy","https://images.unsplash.com/photo-1505691938895-1758d7feb511?w=1200&h=750&q=66&auto=format&fit=crop&crop=entropy"],"thumb":"https://images.unsplash.com/photo-1560448204-e02f11c3d0e2?w=480&h=300&q=55&auto=format&fit=crop&crop=entropy","score":{"opportunity_score":38,"value_score":80,"yield_score":33,"negotiation_score":0,"liquidity_score":72,"gentrification_score":48},"signals":{"price_drops":0,"total_drop_percent":0,"long_time_on_market":false,"explanations":["2.1% net rental yield (gross 3.4%)","9.2% below DVF average (9 841 €/m²)","Cheaper than 80% of the arrondissement","2 days on market"]},"source":"dvf","url":"https://app.dvf.etalab.gouv.fr/"}