{"id":"dvf-2024-1228937","address":{"raw":"48 Rue Saint Placide, 75006 Paris","normalized":"48 Rue Saint-Placide 75006 Paris","lat":48.84784,"lng":2.326001,"district":"75006"},"characteristics":{"surface_m2":38,"rooms":2,"floor":2},"pricing":{"current_price":422840,"price_per_m2":11127,"initial_price":422840},"timeline":{"first_seen":"2026-06-29","last_seen":"2026-07-01","days_on_market":2},"price_history":[{"date":"2026-06-29","price":422840,"source":"dvf"}],"status":"active","dvf":{"avg_price_m2_100m":16740,"avg_price_m2_500m":15784,"comparable_sales":[{"price":401294,"date":"2024-02-05","distance_m":20},{"price":3100000,"date":"2024-01-23","distance_m":25},{"price":1125000,"date":"2024-01-15","distance_m":29},{"price":681500,"date":"2024-02-22","distance_m":29},{"price":260000,"date":"2024-03-21","distance_m":35},{"price":445000,"date":"2024-04-19","distance_m":37},{"price":3115000,"date":"2024-11-15","distance_m":56},{"price":898662,"date":"2024-01-25","distance_m":72}]},"risks":{"flood":0.04,"clay":0.43,"noise":0.36},"transport_score":100,"neighborhood":{"walk_score":69,"schools_500m":21,"income":43000,"velib_400m":8,"trees_150m":23,"amenities":{"food":21,"health":2,"green":2,"culture":2}},"rent":{"ref_m2":29.6,"max_m2":35.5,"min_m2":20.7,"quartier":"Notre-Dame-des-Champs","monthly_est":1349},"investment":{"gross_yield":3.83,"net_yield":2.45,"ppm2_percentile":6,"negotiation_margin_pct":0.1,"dpe_risk_score":30,"value_add_flag":true},"pois":[{"type":"transport","lat":48.84687823885142,"lng":2.3267927850276813,"label":"Saint-Placide · METRO 4"},{"type":"transport","lat":48.84845784944872,"lng":2.3277821284985807,"label":"Rennes · METRO 12"},{"type":"transport","lat":48.851031751239304,"lng":2.3261023128241907,"label":"Sèvres-Babylone · METRO 10"},{"type":"transport","lat":48.848816373369594,"lng":2.3212578628937472,"label":"Vaneau · METRO 10"},{"type":"transport","lat":48.84494263342596,"lng":2.3287780268900797,"label":"Notre-Dame-des-Champs · METRO 12"},{"type":"park","lat":48.84779534321633,"lng":2.322149154962363,"label":"JARDIN DU PERE ARMAND DAVID"},{"type":"park","lat":48.85136901553345,"lng":2.3257624160189767,"label":"SQUARE BOUCICAUT"},{"type":"park","lat":48.84472518377036,"lng":2.3290922317139247,"label":"JARDIN DE LA PLACE PIERRE LAFUE"},{"type":"velib","lat":48.847385404956,"lng":2.3268555477262,"label":"Regard - Rennes"},{"type":"velib","lat":48.8490535919234,"lng":2.325317971408367,"label":"Saint-Placide - Cherche Midi"},{"type":"velib","lat":48.846128877747,"lng":2.3242672160268,"label":"Blaise-Desgoffe - Vaugirard"},{"type":"velib","lat":48.8492084999386,"lng":2.32851454623001,"label":"Assas - Rennes"}],"dpe":{"energy_class":"F","ghg_class":"C"},"images":["https://images.unsplash.com/photo-1502672260266-1c1ef2d93688?w=1200&h=750&q=66&auto=format&fit=crop&crop=entropy","https://images.unsplash.com/photo-1554995207-c18c203602cb?w=1200&h=750&q=66&auto=format&fit=crop&crop=entropy","https://images.unsplash.com/photo-1560448204-e02f11c3d0e2?w=1200&h=750&q=66&auto=format&fit=crop&crop=entropy","https://images.unsplash.com/photo-1567496898669-ee935f5f647a?w=1200&h=750&q=66&auto=format&fit=crop&crop=entropy","https://images.unsplash.com/photo-1493809842364-78817add7ffb?w=1200&h=750&q=66&auto=format&fit=crop&crop=entropy"],"thumb":"https://images.unsplash.com/photo-1502672260266-1c1ef2d93688?w=480&h=300&q=55&auto=format&fit=crop&crop=entropy","score":{"opportunity_score":64,"value_score":100,"yield_score":53,"negotiation_score":0,"liquidity_score":91,"gentrification_score":48},"signals":{"price_drops":0,"total_drop_percent":0,"long_time_on_market":false,"explanations":["2.5% net rental yield (gross 3.8%)","32% below DVF average (16 358 €/m²)","Cheaper than 94% of the arrondissement","2 days on market","Value-add: discount exceeds renovation cost (F/G arbitrage)"]},"source":"dvf","url":"https://app.dvf.etalab.gouv.fr/"}