{"id":"dvf-2024-1209605","address":{"raw":"199 Rue De Crimee, 75019 Paris","normalized":"199 Rue de Crimée 75019 Paris","lat":48.89141,"lng":2.375727,"district":"75019"},"characteristics":{"surface_m2":32,"rooms":2,"floor":3},"pricing":{"current_price":220000,"price_per_m2":6875,"initial_price":220000},"timeline":{"first_seen":"2026-06-29","last_seen":"2026-07-02","days_on_market":3},"price_history":[{"date":"2026-06-29","price":220000,"source":"dvf"}],"status":"active","dvf":{"avg_price_m2_100m":6743,"avg_price_m2_500m":7157,"comparable_sales":[{"price":181000,"date":"2024-01-16","distance_m":19},{"price":182500,"date":"2024-01-31","distance_m":28},{"price":535000,"date":"2024-01-29","distance_m":41},{"price":85000,"date":"2024-06-20","distance_m":42},{"price":260000,"date":"2024-09-13","distance_m":42},{"price":198500,"date":"2024-11-18","distance_m":59},{"price":238950,"date":"2024-08-26","distance_m":77},{"price":205000,"date":"2024-03-20","distance_m":82}]},"risks":{"flood":0.07,"clay":0.28,"noise":0.27},"transport_score":92,"neighborhood":{"walk_score":70,"schools_500m":29,"income":23000,"velib_400m":3,"trees_150m":119,"amenities":{"food":17,"health":4,"green":0,"culture":2}},"rent":{"ref_m2":23.4,"max_m2":28.1,"min_m2":16.4,"quartier":"Villette","monthly_est":899},"investment":{"gross_yield":4.9,"net_yield":3.45,"ppm2_percentile":14,"negotiation_margin_pct":0.1,"dpe_risk_score":55,"value_add_flag":false},"pois":[{"type":"transport","lat":48.890906449558166,"lng":2.377090439088876,"label":"Crimée · METRO 7"},{"type":"transport","lat":48.88796756174982,"lng":2.3734568878525493,"label":"Riquet · METRO 7"},{"type":"transport","lat":48.89658112861537,"lng":2.373819005403212,"label":"Rosa Parks · RER E"},{"type":"transport","lat":48.89465585833331,"lng":2.382160158371538,"label":"Corentin Cariou · METRO 7"},{"type":"transport","lat":48.897552809900425,"lng":2.3733837959986004,"label":"Rosa Parks · TRAM 3b"},{"type":"park","lat":48.889597655428396,"lng":2.373410580983131,"label":"JARDIN DE L'ILOT RIQUET"},{"type":"park","lat":48.88888464747256,"lng":2.3784018626727077,"label":"ESPACE VERT DE LA PLACE DE L'EDIT DE NANTES"},{"type":"park","lat":48.88895743622902,"lng":2.379131764616389,"label":"SQUARE SERGE REGGIANI"},{"type":"velib","lat":48.89260159189023,"lng":2.3790915682911873,"label":"Flandre - Ourcq"},{"type":"velib","lat":48.88879,"lng":2.3785,"label":"Place de l'Édit de Nantes"},{"type":"velib","lat":48.894104140316,"lng":2.3729460884673,"label":"Crimée - Ourcq"}],"dpe":{"energy_class":"E","ghg_class":"C"},"images":["https://images.unsplash.com/photo-1502672260266-1c1ef2d93688?w=1200&h=750&q=66&auto=format&fit=crop&crop=entropy","https://images.unsplash.com/photo-1567496898669-ee935f5f647a?w=1200&h=750&q=66&auto=format&fit=crop&crop=entropy","https://images.unsplash.com/photo-1554995207-c18c203602cb?w=1200&h=750&q=66&auto=format&fit=crop&crop=entropy","https://images.unsplash.com/photo-1560448204-e02f11c3d0e2?w=1200&h=750&q=66&auto=format&fit=crop&crop=entropy","https://images.unsplash.com/photo-1556912173-3bb406ef7e77?w=1200&h=750&q=66&auto=format&fit=crop&crop=entropy"],"thumb":"https://images.unsplash.com/photo-1502672260266-1c1ef2d93688?w=480&h=300&q=55&auto=format&fit=crop&crop=entropy","score":{"opportunity_score":55,"value_score":86,"yield_score":98,"negotiation_score":1,"liquidity_score":74,"gentrification_score":45},"signals":{"price_drops":0,"total_drop_percent":0,"long_time_on_market":false,"explanations":["3.5% net rental yield (gross 4.9%)","Cheaper than 86% of the arrondissement","3 days on market"]},"source":"dvf","url":"https://app.dvf.etalab.gouv.fr/"}