{"id":"dvf-2024-1228400","address":{"raw":"18 Rue Louis Bonnet, 75011 Paris","normalized":"18 Rue Louis Bonnet 75011 Paris","lat":48.871517,"lng":2.376885,"district":"75011"},"characteristics":{"surface_m2":39,"rooms":2,"floor":1},"pricing":{"current_price":377000,"price_per_m2":9667,"initial_price":377000},"timeline":{"first_seen":"2026-06-29","last_seen":"2026-07-02","days_on_market":3},"price_history":[{"date":"2026-06-29","price":377000,"source":"dvf"}],"status":"active","dvf":{"avg_price_m2_100m":9286,"avg_price_m2_500m":9412,"comparable_sales":[{"price":262000,"date":"2024-07-09","distance_m":13},{"price":161850,"date":"2024-04-15","distance_m":56},{"price":495000,"date":"2024-07-05","distance_m":58},{"price":465000,"date":"2024-03-01","distance_m":71},{"price":585000,"date":"2024-08-30","distance_m":71},{"price":345000,"date":"2024-02-16","distance_m":77},{"price":430000,"date":"2024-09-03","distance_m":77},{"price":330000,"date":"2024-03-07","distance_m":85}]},"risks":{"flood":0.05,"clay":0.42,"noise":0.38},"transport_score":92,"neighborhood":{"walk_score":86,"schools_500m":23,"income":30000,"velib_400m":5,"trees_150m":85,"amenities":{"food":28,"health":7,"green":5,"culture":0}},"rent":{"ref_m2":25.4,"max_m2":30.5,"min_m2":17.8,"quartier":"Folie-Méricourt","monthly_est":1190},"investment":{"gross_yield":3.79,"net_yield":2.41,"ppm2_percentile":24,"negotiation_margin_pct":0.1,"dpe_risk_score":55,"value_add_flag":false},"pois":[{"type":"transport","lat":48.87184879466127,"lng":2.3765936840968225,"label":"Belleville · METRO 11"},{"type":"transport","lat":48.87228310892801,"lng":2.37673072170184,"label":"Belleville · METRO 2"},{"type":"transport","lat":48.8690911620257,"lng":2.380542586000037,"label":"Couronnes · METRO 2"},{"type":"transport","lat":48.86995751270301,"lng":2.3710948397312004,"label":"Goncourt · METRO 11"},{"type":"transport","lat":48.87388185415816,"lng":2.385316215101792,"label":"Pyrénées · METRO 11"},{"type":"park","lat":48.8724302737896,"lng":2.3772732152852836,"label":"JARDINET PLACE DU GENERAL INGOLD"},{"type":"park","lat":48.87063912375901,"lng":2.3749035839795742,"label":"JARDIN PARTAGE DU SQUARE JULES VERNE"},{"type":"park","lat":48.870258026164,"lng":2.3750806972978045,"label":"SQUARE JULES VERNE"},{"type":"velib","lat":48.8726877314,"lng":2.376461327076,"label":"Villette - Belleville"},{"type":"velib","lat":48.871031137596,"lng":2.379056852114,"label":"Ramponeau - Belleville"},{"type":"velib","lat":48.872274029222,"lng":2.3733284860819,"label":"Buisson Saint-Louis - Saint-Maur"},{"type":"velib","lat":48.873114661405,"lng":2.3798409114805,"label":"Rampal - Belleville"}],"dpe":{"energy_class":"E","ghg_class":"B"},"images":["https://images.unsplash.com/photo-1502005097973-6a7082348e28?w=1200&h=750&q=66&auto=format&fit=crop&crop=entropy","https://images.unsplash.com/photo-1484154218962-a197022b5858?w=1200&h=750&q=66&auto=format&fit=crop&crop=entropy","https://images.unsplash.com/photo-1556912173-3bb406ef7e77?w=1200&h=750&q=66&auto=format&fit=crop&crop=entropy","https://images.unsplash.com/photo-1540518614846-7eded433c457?w=1200&h=750&q=66&auto=format&fit=crop&crop=entropy","https://images.unsplash.com/photo-1505691938895-1758d7feb511?w=1200&h=750&q=66&auto=format&fit=crop&crop=entropy"],"thumb":"https://images.unsplash.com/photo-1502005097973-6a7082348e28?w=480&h=300&q=55&auto=format&fit=crop&crop=entropy","score":{"opportunity_score":42,"value_score":76,"yield_score":51,"negotiation_score":1,"liquidity_score":77,"gentrification_score":45},"signals":{"price_drops":0,"total_drop_percent":0,"long_time_on_market":false,"explanations":["2.4% net rental yield (gross 3.8%)","3.5% above DVF average","Cheaper than 76% of the arrondissement","3 days on market"]},"source":"dvf","url":"https://app.dvf.etalab.gouv.fr/"}