{"id":"dvf-2024-1206264","address":{"raw":"14 Quai De La Megisserie, 75001 Paris","normalized":"14 Quai de la Mégisserie 75001 Paris","lat":48.858134,"lng":2.344247,"district":"75001"},"characteristics":{"surface_m2":80,"rooms":4,"floor":2},"pricing":{"current_price":951691,"price_per_m2":11896,"initial_price":951691},"timeline":{"first_seen":"2026-06-29","last_seen":"2026-07-01","days_on_market":2},"price_history":[{"date":"2026-06-29","price":951691,"source":"dvf"}],"status":"active","dvf":{"avg_price_m2_100m":11722,"avg_price_m2_500m":13833,"comparable_sales":[{"price":1080000,"date":"2024-10-31","distance_m":54},{"price":415000,"date":"2024-05-03","distance_m":80},{"price":1405000,"date":"2024-02-16","distance_m":85},{"price":857000,"date":"2024-01-23","distance_m":93},{"price":1215800,"date":"2024-08-20","distance_m":107},{"price":600000,"date":"2024-08-02","distance_m":136},{"price":1120000,"date":"2024-03-29","distance_m":140},{"price":1036550,"date":"2024-06-20","distance_m":140}]},"risks":{"flood":0.82,"clay":0.48,"noise":0.52},"transport_score":100,"neighborhood":{"walk_score":46,"schools_500m":3,"income":36000,"velib_400m":8,"trees_150m":17,"amenities":{"food":6,"health":4,"green":2,"culture":2}},"rent":{"ref_m2":26.4,"max_m2":31.7,"min_m2":18.5,"quartier":"St-Germain-l'Auxerrois","monthly_est":2536},"investment":{"gross_yield":3.2,"net_yield":1.86,"ppm2_percentile":46,"negotiation_margin_pct":0.1,"dpe_risk_score":10,"value_add_flag":false},"pois":[{"type":"transport","lat":48.85855382636669,"lng":2.342232759368107,"label":"Pont Neuf · METRO 7"},{"type":"transport","lat":48.859287325170946,"lng":2.345803056189527,"label":"Châtelet · METRO 1"},{"type":"transport","lat":48.859589655582816,"lng":2.346478183587595,"label":"Châtelet · METRO 14"},{"type":"transport","lat":48.8597186619952,"lng":2.346768285736699,"label":"Châtelet · METRO 4"},{"type":"transport","lat":48.85763141070005,"lng":2.3480365654004016,"label":"Châtelet · METRO 11"},{"type":"park","lat":48.85650670999989,"lng":2.3425780510000465,"label":"SQUARE DE LA PLACE DAUPHINE"},{"type":"park","lat":48.85740086444881,"lng":2.340269741832003,"label":"SQUARE DU VERT GALANT"},{"type":"park","lat":48.85992497594794,"lng":2.3406756331125718,"label":"SQUARE MICHEL CALDAGUES"},{"type":"velib","lat":48.857992591527,"lng":2.3469167947769,"label":"Victoria - Place du Chatelet"},{"type":"velib","lat":48.857058739111,"lng":2.3417982839439,"label":"Quai de l'Horloge - Pont Neuf"},{"type":"velib","lat":48.859279702476,"lng":2.3466217517853,"label":"Lavandieres Sainte Opportune - Rivoli"},{"type":"velib","lat":48.860089892617,"lng":2.344057559967,"label":"Pont Neuf - Rivoli"}],"dpe":{"energy_class":"G","ghg_class":"C"},"images":["https://images.unsplash.com/photo-1560448204-e02f11c3d0e2?w=1200&h=750&q=66&auto=format&fit=crop&crop=entropy","https://images.unsplash.com/photo-1567496898669-ee935f5f647a?w=1200&h=750&q=66&auto=format&fit=crop&crop=entropy","https://images.unsplash.com/photo-1502005097973-6a7082348e28?w=1200&h=750&q=66&auto=format&fit=crop&crop=entropy","https://images.unsplash.com/photo-1493809842364-78817add7ffb?w=1200&h=750&q=66&auto=format&fit=crop&crop=entropy","https://images.unsplash.com/photo-1505691938895-1758d7feb511?w=1200&h=750&q=66&auto=format&fit=crop&crop=entropy"],"thumb":"https://images.unsplash.com/photo-1560448204-e02f11c3d0e2?w=480&h=300&q=55&auto=format&fit=crop&crop=entropy","score":{"opportunity_score":23,"value_score":63,"yield_score":23,"negotiation_score":0,"liquidity_score":76,"gentrification_score":45},"signals":{"price_drops":0,"total_drop_percent":0,"long_time_on_market":false,"explanations":["1.9% net rental yield (gross 3.2%)","5.3% below DVF average (12 566 €/m²)","2 days on market","Energy class G — rental restrictions apply"]},"source":"dvf","url":"https://app.dvf.etalab.gouv.fr/"}