{"id":"dvf-2024-1228383","address":{"raw":"20 Rue Rousselet, 75007 Paris","normalized":"20 Rue Rousselet 75007 Paris","lat":48.848649,"lng":2.318488,"district":"75007"},"characteristics":{"surface_m2":30,"rooms":2,"floor":2},"pricing":{"current_price":516255,"price_per_m2":17209,"initial_price":516255},"timeline":{"first_seen":"2026-06-29","last_seen":"2026-07-01","days_on_market":2},"price_history":[{"date":"2026-06-29","price":516255,"source":"dvf"}],"status":"active","dvf":{"avg_price_m2_100m":12673,"avg_price_m2_500m":14687,"comparable_sales":[{"price":470000,"date":"2024-07-23","distance_m":20},{"price":410000,"date":"2024-10-14","distance_m":20},{"price":330000,"date":"2024-06-19","distance_m":22},{"price":600000,"date":"2024-09-12","distance_m":33},{"price":308000,"date":"2024-02-26","distance_m":42},{"price":219253,"date":"2024-04-08","distance_m":45},{"price":325000,"date":"2024-11-21","distance_m":45},{"price":570000,"date":"2024-04-11","distance_m":51}]},"risks":{"flood":0.06,"clay":0.36,"noise":0.48},"transport_score":96,"neighborhood":{"walk_score":65,"schools_500m":17,"income":47000,"velib_400m":3,"trees_150m":73,"amenities":{"food":8,"health":7,"green":2,"culture":1}},"rent":{"ref_m2":29.6,"max_m2":35.5,"min_m2":20.7,"quartier":"Ecole-Militaire","monthly_est":1065},"investment":{"gross_yield":2.48,"net_yield":1.19,"ppm2_percentile":78,"negotiation_margin_pct":0.1,"dpe_risk_score":10,"value_add_flag":false},"pois":[{"type":"transport","lat":48.848816373369594,"lng":2.3212578628937472,"label":"Vaneau · METRO 10"},{"type":"transport","lat":48.84698910613954,"lng":2.3170052357372453,"label":"Duroc · METRO 10"},{"type":"transport","lat":48.84705255542817,"lng":2.3164243520508925,"label":"Duroc · METRO 13"},{"type":"transport","lat":48.85144170744032,"lng":2.314408121472487,"label":"Saint-François-Xavier · METRO 13"},{"type":"transport","lat":48.84447014129587,"lng":2.317852783041332,"label":"Falguière · METRO 12"},{"type":"park","lat":48.84684490617847,"lng":2.3158004479746577,"label":"JARDIN HELEN KELLER ( INSTITUT NATIONAL DES JEUNES AVEUGLES)"},{"type":"park","lat":48.84779534321633,"lng":2.322149154962363,"label":"JARDIN DU PERE ARMAND DAVID"},{"type":"park","lat":48.85063025767801,"lng":2.321412373857342,"label":"JARDIN DU POTAGER (ANCIEN HOPITAL LAENNEC)"},{"type":"velib","lat":48.848563233059,"lng":2.3204218259346,"label":"Vaneau - Sèvres"},{"type":"velib","lat":48.848283157236,"lng":2.315749520203,"label":"Constant Coquelin - Invalides"},{"type":"velib","lat":48.84708159081946,"lng":2.321374788880348,"label":"Saint-Romain - Cherche-Midi"}],"dpe":{"energy_class":"G","ghg_class":"C"},"images":["https://images.unsplash.com/photo-1484154218962-a197022b5858?w=1200&h=750&q=66&auto=format&fit=crop&crop=entropy","https://images.unsplash.com/photo-1554995207-c18c203602cb?w=1200&h=750&q=66&auto=format&fit=crop&crop=entropy","https://images.unsplash.com/photo-1493663284031-b7e3aefcae8e?w=1200&h=750&q=66&auto=format&fit=crop&crop=entropy","https://images.unsplash.com/photo-1505691938895-1758d7feb511?w=1200&h=750&q=66&auto=format&fit=crop&crop=entropy","https://images.unsplash.com/photo-1502005097973-6a7082348e28?w=1200&h=750&q=66&auto=format&fit=crop&crop=entropy"],"thumb":"https://images.unsplash.com/photo-1484154218962-a197022b5858?w=480&h=300&q=55&auto=format&fit=crop&crop=entropy","score":{"opportunity_score":14,"value_score":22,"yield_score":0,"negotiation_score":0,"liquidity_score":92,"gentrification_score":56},"signals":{"price_drops":0,"total_drop_percent":0,"long_time_on_market":false,"explanations":["1.2% net rental yield (gross 2.5%)","27.7% above DVF average","2 days on market","Energy class G — rental restrictions apply"]},"source":"dvf","url":"https://app.dvf.etalab.gouv.fr/"}