{"id":"dvf-2024-1228188","address":{"raw":"5 Rue Pleyel, 75012 Paris","normalized":"5 Rue Pleyel 75012 Paris","lat":48.840124,"lng":2.39123,"district":"75012"},"characteristics":{"surface_m2":28,"rooms":2,"floor":1},"pricing":{"current_price":320000,"price_per_m2":11429,"initial_price":320000},"timeline":{"first_seen":"2026-06-29","last_seen":"2026-07-01","days_on_market":2},"price_history":[{"date":"2026-06-29","price":320000,"source":"dvf"}],"status":"active","dvf":{"avg_price_m2_100m":9245,"avg_price_m2_500m":8793,"comparable_sales":[{"price":353850,"date":"2024-12-23","distance_m":14},{"price":1005000,"date":"2024-07-04","distance_m":28},{"price":978935,"date":"2024-09-24","distance_m":28},{"price":240000,"date":"2024-03-11","distance_m":34},{"price":325000,"date":"2024-07-18","distance_m":39},{"price":296923,"date":"2024-11-18","distance_m":56},{"price":270450,"date":"2024-11-19","distance_m":60},{"price":220000,"date":"2024-07-02","distance_m":64}]},"risks":{"flood":0.36,"clay":0.28,"noise":0.4},"transport_score":91,"neighborhood":{"walk_score":50,"schools_500m":16,"income":31000,"velib_400m":5,"trees_150m":20,"amenities":{"food":1,"health":7,"green":2,"culture":1}},"rent":{"ref_m2":24.6,"max_m2":29.5,"min_m2":17.2,"quartier":"Picpus","monthly_est":826},"investment":{"gross_yield":3.1,"net_yield":1.77,"ppm2_percentile":92,"negotiation_margin_pct":0.1,"dpe_risk_score":30,"value_add_flag":false},"pois":[{"type":"transport","lat":48.83904114371398,"lng":2.389620014061439,"label":"Dugommier · METRO 6"},{"type":"transport","lat":48.83954964556868,"lng":2.3957032894363937,"label":"Daumesnil · METRO 6"},{"type":"transport","lat":48.83944542837951,"lng":2.3961828864526327,"label":"Daumesnil · METRO 8"},{"type":"transport","lat":48.84406559730793,"lng":2.390482133980388,"label":"Montgallet · METRO 8"},{"type":"transport","lat":48.83908128024196,"lng":2.383028081146452,"label":"Paris-Bercy · GL"},{"type":"park","lat":48.840563298014956,"lng":2.392447022499142,"label":"JARDIN PARTAGE DE LA MAISON DES ASSOCIATIONS DU 12EME"},{"type":"park","lat":48.84095976234427,"lng":2.3923463960618,"label":"JARDIN DE LA GARE DE REUILLY - JULIEN LAUPRETRE"},{"type":"park","lat":48.84161334174448,"lng":2.3906033986065798,"label":"COULEE VERTE RENE DUMONT - MAIL DE REUILLY - ALLEE VIVALDI"},{"type":"velib","lat":48.838811048815,"lng":2.3896577954292,"label":"Dugommier"},{"type":"velib","lat":48.841923663276546,"lng":2.389728979467376,"label":"Vivaldi - Antoine-Julien Hénard"},{"type":"velib","lat":48.84030274499962,"lng":2.394630398715453,"label":"Reuilly - Place Felix Eboue"},{"type":"velib","lat":48.840855311763,"lng":2.3875549435616,"label":"Mairie du 12ème"}],"dpe":{"energy_class":"F","ghg_class":"C"},"images":["https://images.unsplash.com/photo-1505691938895-1758d7feb511?w=1200&h=750&q=66&auto=format&fit=crop&crop=entropy","https://images.unsplash.com/photo-1540518614846-7eded433c457?w=1200&h=750&q=66&auto=format&fit=crop&crop=entropy","https://images.unsplash.com/photo-1522708323590-d24dbb6b0267?w=1200&h=750&q=66&auto=format&fit=crop&crop=entropy","https://images.unsplash.com/photo-1484154218962-a197022b5858?w=1200&h=750&q=66&auto=format&fit=crop&crop=entropy","https://images.unsplash.com/photo-1556912173-3bb406ef7e77?w=1200&h=750&q=66&auto=format&fit=crop&crop=entropy"],"thumb":"https://images.unsplash.com/photo-1505691938895-1758d7feb511?w=480&h=300&q=55&auto=format&fit=crop&crop=entropy","score":{"opportunity_score":16,"value_score":8,"yield_score":18,"negotiation_score":0,"liquidity_score":75,"gentrification_score":52},"signals":{"price_drops":0,"total_drop_percent":0,"long_time_on_market":false,"explanations":["1.8% net rental yield (gross 3.1%)","26.1% above DVF average","2 days on market","Energy class F — rental restrictions apply"]},"source":"dvf","url":"https://app.dvf.etalab.gouv.fr/"}