{"id":"dvf-2024-1229311","address":{"raw":"66 Av De Breteuil, 75007 Paris","normalized":"66 Avenue de Breteuil 75007 Paris","lat":48.848577,"lng":2.311285,"district":"75007"},"characteristics":{"surface_m2":22,"rooms":1,"floor":2},"pricing":{"current_price":281063,"price_per_m2":12776,"initial_price":281063},"timeline":{"first_seen":"2026-06-29","last_seen":"2026-07-01","days_on_market":2},"price_history":[{"date":"2026-06-29","price":281063,"source":"dvf"}],"status":"active","dvf":{"avg_price_m2_100m":15314,"avg_price_m2_500m":13418,"comparable_sales":[{"price":945000,"date":"2024-02-13","distance_m":30},{"price":345000,"date":"2024-12-23","distance_m":30},{"price":665000,"date":"2024-09-05","distance_m":61},{"price":1400000,"date":"2024-07-05","distance_m":73},{"price":1139640,"date":"2024-03-05","distance_m":84},{"price":2211540,"date":"2024-06-11","distance_m":121},{"price":3093700,"date":"2024-07-31","distance_m":121},{"price":4041700,"date":"2024-02-16","distance_m":122}]},"risks":{"flood":0.19,"clay":0.13,"noise":0.24},"transport_score":87,"neighborhood":{"walk_score":61,"schools_500m":13,"income":47000,"velib_400m":6,"trees_150m":92,"amenities":{"food":8,"health":3,"green":2,"culture":0}},"rent":{"ref_m2":33.4,"max_m2":40.1,"min_m2":23.4,"quartier":"Ecole-Militaire","monthly_est":882},"investment":{"gross_yield":3.77,"net_yield":2.39,"ppm2_percentile":38,"negotiation_margin_pct":0.1,"dpe_risk_score":55,"value_add_flag":false},"pois":[{"type":"transport","lat":48.84706613315245,"lng":2.3074022406196404,"label":"Ségur · METRO 10"},{"type":"transport","lat":48.84562696674718,"lng":2.3095314914609446,"label":"Sèvres-Lecourbe · METRO 6"},{"type":"transport","lat":48.85144170744032,"lng":2.314408121472487,"label":"Saint-François-Xavier · METRO 13"},{"type":"transport","lat":48.84705255542817,"lng":2.3164243520508925,"label":"Duroc · METRO 13"},{"type":"transport","lat":48.84698910613954,"lng":2.3170052357372453,"label":"Duroc · METRO 10"},{"type":"park","lat":48.8504359569525,"lng":2.3119986657846727,"label":"PROMENADE DE L'AVENUE DE BRETEUIL"},{"type":"park","lat":48.850389233708974,"lng":2.3128702249425395,"label":"JARDINET DE l'EGLISE SAINT FRANCOIS XAVIER"},{"type":"park","lat":48.85031459139678,"lng":2.3136514743631094,"label":"SQUARE DE L'ABBE ESQUERRE"},{"type":"velib","lat":48.847460641142,"lng":2.3126140236855,"label":"Duroc - Place de Breteuil"},{"type":"velib","lat":48.846043490118454,"lng":2.313245013356209,"label":"Hôpital Necker"},{"type":"velib","lat":48.848283157236,"lng":2.315749520203,"label":"Constant Coquelin - Invalides"},{"type":"velib","lat":48.851419978983,"lng":2.3097044974566,"label":"Ségur - d'Estrées"}],"dpe":{"energy_class":"E","ghg_class":"D"},"images":["https://images.unsplash.com/photo-1567496898669-ee935f5f647a?w=1200&h=750&q=66&auto=format&fit=crop&crop=entropy","https://images.unsplash.com/photo-1493809842364-78817add7ffb?w=1200&h=750&q=66&auto=format&fit=crop&crop=entropy","https://images.unsplash.com/photo-1493663284031-b7e3aefcae8e?w=1200&h=750&q=66&auto=format&fit=crop&crop=entropy","https://images.unsplash.com/photo-1522708323590-d24dbb6b0267?w=1200&h=750&q=66&auto=format&fit=crop&crop=entropy","https://images.unsplash.com/photo-1502005097973-6a7082348e28?w=1200&h=750&q=66&auto=format&fit=crop&crop=entropy"],"thumb":"https://images.unsplash.com/photo-1567496898669-ee935f5f647a?w=480&h=300&q=55&auto=format&fit=crop&crop=entropy","score":{"opportunity_score":45,"value_score":81,"yield_score":50,"negotiation_score":0,"liquidity_score":89,"gentrification_score":56},"signals":{"price_drops":0,"total_drop_percent":0,"long_time_on_market":false,"explanations":["2.4% net rental yield (gross 3.8%)","12.2% below DVF average (14 556 €/m²)","2 days on market"]},"source":"dvf","url":"https://app.dvf.etalab.gouv.fr/"}