{"id":"dvf-2024-1228405","address":{"raw":"17 Rue Claude Terrasse, 75016 Paris","normalized":"17 Rue Claude Terrasse 75016 Paris","lat":48.839171,"lng":2.262927,"district":"75016"},"characteristics":{"surface_m2":49,"rooms":2,"floor":0},"pricing":{"current_price":392500,"price_per_m2":8010,"initial_price":392500},"timeline":{"first_seen":"2026-06-29","last_seen":"2026-07-02","days_on_market":3},"price_history":[{"date":"2026-06-29","price":392500,"source":"dvf"}],"status":"active","dvf":{"avg_price_m2_100m":9283,"avg_price_m2_500m":9381,"comparable_sales":[{"price":155000,"date":"2024-11-22","distance_m":24},{"price":315000,"date":"2024-03-14","distance_m":45},{"price":178290,"date":"2024-04-19","distance_m":45},{"price":680000,"date":"2024-06-21","distance_m":45},{"price":1076050,"date":"2024-06-05","distance_m":45},{"price":189000,"date":"2024-07-30","distance_m":49},{"price":565000,"date":"2024-10-14","distance_m":53},{"price":520700,"date":"2024-04-18","distance_m":66}]},"risks":{"flood":0.04,"clay":0.46,"noise":0.34},"transport_score":64,"neighborhood":{"walk_score":38,"schools_500m":2,"income":44000,"velib_400m":3,"trees_150m":10,"amenities":{"food":9,"health":3,"green":0,"culture":2}},"rent":{"ref_m2":25.4,"max_m2":30.5,"min_m2":17.8,"quartier":"Auteuil","monthly_est":1495},"investment":{"gross_yield":4.57,"net_yield":3.13,"ppm2_percentile":10,"negotiation_margin_pct":0.1,"dpe_risk_score":75,"value_add_flag":false},"pois":[{"type":"transport","lat":48.84241277035873,"lng":2.259608472752572,"label":"Exelmans · METRO 9"},{"type":"transport","lat":48.83796121443632,"lng":2.2571222298326203,"label":"Porte de Saint-Cloud · METRO 9"},{"type":"transport","lat":48.83908975542996,"lng":2.2704582437872425,"label":"Pont du Garigliano · RER C"},{"type":"transport","lat":48.838075890559814,"lng":2.271174403433847,"label":"Pont du Garigliano · TRAM 3a"},{"type":"transport","lat":48.84505817231375,"lng":2.2617451249636717,"label":"Michel Ange-Molitor · METRO 9"},{"type":"park","lat":48.84104262813402,"lng":2.2593532621906807,"label":"CIMETIERE D'AUTEUIL"},{"type":"park","lat":48.837937820893366,"lng":2.2569786554879454,"label":"JARDIN DE LA PLACE DE LA PORTE DE SAINT-CLOUD"},{"type":"park","lat":48.83607096106172,"lng":2.2585376864519247,"label":"PROMENADE PLANTEE DODE DE LA BRUNERIE"},{"type":"velib","lat":48.840219338074,"lng":2.263834191153,"label":"Versailles - Claude Terrasse"},{"type":"velib","lat":48.84097491091973,"lng":2.264390252530575,"label":"Exelmans - Versailles"},{"type":"velib","lat":48.840579923690115,"lng":2.2584119439125065,"label":"Michel-Ange - Parent de Rosan"}],"dpe":{"energy_class":"D","ghg_class":"D"},"images":["https://images.unsplash.com/photo-1502672260266-1c1ef2d93688?w=1200&h=750&q=66&auto=format&fit=crop&crop=entropy","https://images.unsplash.com/photo-1522708323590-d24dbb6b0267?w=1200&h=750&q=66&auto=format&fit=crop&crop=entropy","https://images.unsplash.com/photo-1556912173-3bb406ef7e77?w=1200&h=750&q=66&auto=format&fit=crop&crop=entropy","https://images.unsplash.com/photo-1484154218962-a197022b5858?w=1200&h=750&q=66&auto=format&fit=crop&crop=entropy","https://images.unsplash.com/photo-1493663284031-b7e3aefcae8e?w=1200&h=750&q=66&auto=format&fit=crop&crop=entropy"],"thumb":"https://images.unsplash.com/photo-1502672260266-1c1ef2d93688?w=480&h=300&q=55&auto=format&fit=crop&crop=entropy","score":{"opportunity_score":61,"value_score":90,"yield_score":87,"negotiation_score":1,"liquidity_score":66,"gentrification_score":64},"signals":{"price_drops":0,"total_drop_percent":0,"long_time_on_market":false,"explanations":["3.1% net rental yield (gross 4.6%)","14.1% below DVF average (9 322 €/m²)","Cheaper than 90% of the arrondissement","3 days on market"]},"source":"dvf","url":"https://app.dvf.etalab.gouv.fr/"}