{"id":"dvf-2024-1229070","address":{"raw":"30 Rue De Verneuil, 75007 Paris","normalized":"30 Rue de Verneuil 75007 Paris","lat":48.857774,"lng":2.330002,"district":"75007"},"characteristics":{"surface_m2":108,"rooms":4,"floor":4},"pricing":{"current_price":1845237,"price_per_m2":17086,"initial_price":1845237},"timeline":{"first_seen":"2026-06-29","last_seen":"2026-07-01","days_on_market":2},"price_history":[{"date":"2026-06-29","price":1845237,"source":"dvf"}],"status":"active","dvf":{"avg_price_m2_100m":16522,"avg_price_m2_500m":17828,"comparable_sales":[{"price":738000,"date":"2024-06-24","distance_m":41},{"price":1123095,"date":"2024-05-13","distance_m":43},{"price":580000,"date":"2024-03-11","distance_m":44},{"price":892500,"date":"2024-11-15","distance_m":48},{"price":491380,"date":"2024-07-24","distance_m":51},{"price":348000,"date":"2024-02-05","distance_m":54},{"price":408000,"date":"2024-06-26","distance_m":74},{"price":895000,"date":"2024-05-07","distance_m":81}]},"risks":{"flood":0.57,"clay":0.36,"noise":0.47},"transport_score":76,"neighborhood":{"walk_score":46,"schools_500m":3,"income":47000,"velib_400m":5,"trees_150m":61,"amenities":{"food":7,"health":6,"green":0,"culture":1}},"rent":{"ref_m2":29.4,"max_m2":35.3,"min_m2":20.6,"quartier":"Saint-Thomas-d'Aquin","monthly_est":3812},"investment":{"gross_yield":2.48,"net_yield":1.19,"ppm2_percentile":76,"negotiation_margin_pct":0.1,"dpe_risk_score":75,"value_add_flag":false},"pois":[{"type":"transport","lat":48.860351434026214,"lng":2.3267597744418103,"label":"Musée d'Orsay · RER C"},{"type":"transport","lat":48.85519632481491,"lng":2.325815566511529,"label":"Rue du Bac · METRO 12"},{"type":"transport","lat":48.85849912371638,"lng":2.323167611246745,"label":"Solférino · METRO 12"},{"type":"transport","lat":48.853718934000206,"lng":2.3337761382184676,"label":"Saint-Germain-des-Prés · METRO 4"},{"type":"transport","lat":48.8530167679172,"lng":2.335502051727558,"label":"Mabillon · METRO 10"},{"type":"park","lat":48.854597182449275,"lng":2.330849197730943,"label":"SQUARE TARAS CHEVTCHENKO"},{"type":"park","lat":48.85425852790087,"lng":2.333938934064321,"label":"SQUARE LAURENT PRACHE"},{"type":"park","lat":48.85581098821477,"lng":2.335937364948714,"label":"JARDIN VISCONTI-ALICE SAUNIER SEITE"},{"type":"velib","lat":48.858942986179,"lng":2.3314182047146,"label":"Quai Voltaire"},{"type":"velib","lat":48.85545136013941,"lng":2.3334722220897675,"label":"Saint-Benoît - Jacob"},{"type":"velib","lat":48.859726157909,"lng":2.3258604481816,"label":"Musée d'Orsay"},{"type":"velib","lat":48.856451985396,"lng":2.3348518833518,"label":"Beaux-Arts - Bonaparte"}],"dpe":{"energy_class":"D","ghg_class":"B"},"images":["https://images.unsplash.com/photo-1484154218962-a197022b5858?w=1200&h=750&q=66&auto=format&fit=crop&crop=entropy","https://images.unsplash.com/photo-1556912173-3bb406ef7e77?w=1200&h=750&q=66&auto=format&fit=crop&crop=entropy","https://images.unsplash.com/photo-1560448204-e02f11c3d0e2?w=1200&h=750&q=66&auto=format&fit=crop&crop=entropy","https://images.unsplash.com/photo-1567496898669-ee935f5f647a?w=1200&h=750&q=66&auto=format&fit=crop&crop=entropy","https://images.unsplash.com/photo-1505691938895-1758d7feb511?w=1200&h=750&q=66&auto=format&fit=crop&crop=entropy"],"thumb":"https://images.unsplash.com/photo-1484154218962-a197022b5858?w=480&h=300&q=55&auto=format&fit=crop&crop=entropy","score":{"opportunity_score":27,"value_score":49,"yield_score":0,"negotiation_score":0,"liquidity_score":74,"gentrification_score":56},"signals":{"price_drops":0,"total_drop_percent":0,"long_time_on_market":false,"explanations":["1.2% net rental yield (gross 2.5%)","2 days on market"]},"source":"dvf","url":"https://app.dvf.etalab.gouv.fr/"}