{"id":"dvf-2024-1209720","address":{"raw":"47 Rue De Laborde, 75008 Paris","normalized":"47 Rue de Laborde 75008 Paris","lat":48.875485,"lng":2.3178,"district":"75008"},"characteristics":{"surface_m2":25,"rooms":2,"floor":3},"pricing":{"current_price":310000,"price_per_m2":12400,"initial_price":310000},"timeline":{"first_seen":"2026-06-29","last_seen":"2026-07-01","days_on_market":2},"price_history":[{"date":"2026-06-29","price":310000,"source":"dvf"}],"status":"active","dvf":{"avg_price_m2_100m":11981,"avg_price_m2_500m":12044,"comparable_sales":[{"price":250000,"date":"2024-02-29","distance_m":14},{"price":783500,"date":"2024-07-05","distance_m":42},{"price":552500,"date":"2024-08-05","distance_m":71},{"price":975000,"date":"2024-01-22","distance_m":77},{"price":2227800,"date":"2024-05-02","distance_m":80},{"price":1677570,"date":"2024-01-18","distance_m":93},{"price":100000,"date":"2024-07-18","distance_m":93},{"price":482000,"date":"2024-09-05","distance_m":93}]},"risks":{"flood":0.03,"clay":0.43,"noise":0.34},"transport_score":90,"neighborhood":{"walk_score":74,"schools_500m":11,"income":45000,"velib_400m":9,"trees_150m":67,"amenities":{"food":18,"health":3,"green":0,"culture":4}},"rent":{"ref_m2":26.9,"max_m2":32.3,"min_m2":18.8,"quartier":"Europe","monthly_est":807},"investment":{"gross_yield":3.13,"net_yield":1.79,"ppm2_percentile":48,"negotiation_margin_pct":0.1,"dpe_risk_score":88,"value_add_flag":false},"pois":[{"type":"transport","lat":48.873733165607064,"lng":2.314743542030632,"label":"Miromesnil · METRO 9"},{"type":"transport","lat":48.87376998959543,"lng":2.31445603617697,"label":"Miromesnil · METRO 13"},{"type":"transport","lat":48.87447567664767,"lng":2.322001788877926,"label":"Saint-Augustin · METRO 9"},{"type":"transport","lat":48.87571908982334,"lng":2.324224580938853,"label":"Saint-Lazare · METRO 14"},{"type":"transport","lat":48.87515128791023,"lng":2.324380555428912,"label":"Saint-Lazare · METRO 3"},{"type":"park","lat":48.87594892297221,"lng":2.320387806991248,"label":"SQUARE MARCEL PAGNOL"},{"type":"park","lat":48.877613223644985,"lng":2.3179233218542294,"label":"JARDIN DE LA MAIRIE DU VIIIEME"},{"type":"park","lat":48.87381991558385,"lng":2.3232157507919675,"label":"SQUARE LOUIS XVI"},{"type":"velib","lat":48.8762009747008,"lng":2.319786250591278,"label":"Saint-Augustin"},{"type":"velib","lat":48.875448033960744,"lng":2.315508019010038,"label":"Messine - Place Du Pérou"},{"type":"velib","lat":48.873722412917,"lng":2.3158480972052,"label":"Miromesnil - La Boétie"},{"type":"velib","lat":48.877932,"lng":2.318264,"label":"Mairie du 8ème"}],"dpe":{"energy_class":"C","ghg_class":"B"},"images":["https://images.unsplash.com/photo-1502005097973-6a7082348e28?w=1200&h=750&q=66&auto=format&fit=crop&crop=entropy","https://images.unsplash.com/photo-1567496898669-ee935f5f647a?w=1200&h=750&q=66&auto=format&fit=crop&crop=entropy","https://images.unsplash.com/photo-1560448204-e02f11c3d0e2?w=1200&h=750&q=66&auto=format&fit=crop&crop=entropy","https://images.unsplash.com/photo-1502672260266-1c1ef2d93688?w=1200&h=750&q=66&auto=format&fit=crop&crop=entropy","https://images.unsplash.com/photo-1505691938895-1758d7feb511?w=1200&h=750&q=66&auto=format&fit=crop&crop=entropy"],"thumb":"https://images.unsplash.com/photo-1502005097973-6a7082348e28?w=480&h=300&q=55&auto=format&fit=crop&crop=entropy","score":{"opportunity_score":38,"value_score":52,"yield_score":20,"negotiation_score":0,"liquidity_score":85,"gentrification_score":61},"signals":{"price_drops":0,"total_drop_percent":0,"long_time_on_market":false,"explanations":["1.8% net rental yield (gross 3.1%)","3.3% above DVF average","2 days on market"]},"source":"dvf","url":"https://app.dvf.etalab.gouv.fr/"}