{"id":"dvf-2024-1228573","address":{"raw":"56 Av De Suffren, 75015 Paris","normalized":"56 Avenue de Suffren 75015 Paris","lat":48.853513,"lng":2.296961,"district":"75015"},"characteristics":{"surface_m2":84,"rooms":3,"floor":2},"pricing":{"current_price":1150000,"price_per_m2":13690,"initial_price":1150000},"timeline":{"first_seen":"2026-06-29","last_seen":"2026-07-01","days_on_market":2},"price_history":[{"date":"2026-06-29","price":1150000,"source":"dvf"}],"status":"active","dvf":{"avg_price_m2_100m":12248,"avg_price_m2_500m":11402,"comparable_sales":[{"price":937000,"date":"2024-04-04","distance_m":17},{"price":400000,"date":"2024-03-06","distance_m":62},{"price":580000,"date":"2024-07-31","distance_m":64},{"price":1180000,"date":"2024-09-09","distance_m":64},{"price":2171250,"date":"2024-07-09","distance_m":72},{"price":510000,"date":"2024-02-27","distance_m":75},{"price":650000,"date":"2024-03-14","distance_m":75},{"price":530000,"date":"2024-04-12","distance_m":75}]},"risks":{"flood":0.63,"clay":0.32,"noise":0.36},"transport_score":81,"neighborhood":{"walk_score":76,"schools_500m":4,"income":33000,"velib_400m":5,"trees_150m":122,"amenities":{"food":20,"health":4,"green":1,"culture":5}},"rent":{"ref_m2":24.6,"max_m2":29.5,"min_m2":17.2,"quartier":"Grenelle","monthly_est":2478},"investment":{"gross_yield":2.59,"net_yield":1.29,"ppm2_percentile":86,"negotiation_margin_pct":0.1,"dpe_risk_score":55,"value_add_flag":false},"pois":[{"type":"transport","lat":48.85043454901342,"lng":2.2936124371878033,"label":"Dupleix · METRO 6"},{"type":"transport","lat":48.84957521390955,"lng":2.298625127144874,"label":"La Motte Picquet-Grenelle · METRO 8"},{"type":"transport","lat":48.84957521390955,"lng":2.298625127144874,"label":"La Motte Picquet-Grenelle · METRO 10"},{"type":"transport","lat":48.848741665717824,"lng":2.2989309117480614,"label":"La Motte Picquet-Grenelle · METRO 6"},{"type":"transport","lat":48.85394260621378,"lng":2.2893345327788075,"label":"Bir-Hakeim · METRO 6"},{"type":"park","lat":48.8522054394932,"lng":2.29437980826793,"label":"SQUARE NICOLE DE HAUTECLOCQUE"},{"type":"park","lat":48.855655051074386,"lng":2.2985818973984062,"label":"JARDIN DU CHAMP DE MARS ET PELOUSES DE L'ECOLE MILITAIRE"},{"type":"park","lat":48.85120555873599,"lng":2.2957740174136734,"label":"SQUARE FRANCK BAUER"},{"type":"velib","lat":48.852828153442,"lng":2.2978776320815,"label":"Fédération - Suffren"},{"type":"velib","lat":48.8547194,"lng":2.2952168,"label":"Suffren - Champ de Mars"},{"type":"velib","lat":48.85147910413369,"lng":2.296709530055523,"label":"Dupleix - du Guesclin"},{"type":"velib","lat":48.852804604940296,"lng":2.293077029857222,"label":"Desaix - Edgar Faure"}],"dpe":{"energy_class":"E","ghg_class":"E"},"images":["https://images.unsplash.com/photo-1502005097973-6a7082348e28?w=1200&h=750&q=66&auto=format&fit=crop&crop=entropy","https://images.unsplash.com/photo-1567496898669-ee935f5f647a?w=1200&h=750&q=66&auto=format&fit=crop&crop=entropy","https://images.unsplash.com/photo-1484154218962-a197022b5858?w=1200&h=750&q=66&auto=format&fit=crop&crop=entropy","https://images.unsplash.com/photo-1560448204-e02f11c3d0e2?w=1200&h=750&q=66&auto=format&fit=crop&crop=entropy","https://images.unsplash.com/photo-1540518614846-7eded433c457?w=1200&h=750&q=66&auto=format&fit=crop&crop=entropy"],"thumb":"https://images.unsplash.com/photo-1502005097973-6a7082348e28?w=480&h=300&q=55&auto=format&fit=crop&crop=entropy","score":{"opportunity_score":15,"value_score":14,"yield_score":1,"negotiation_score":0,"liquidity_score":68,"gentrification_score":52},"signals":{"price_drops":0,"total_drop_percent":0,"long_time_on_market":false,"explanations":["1.3% net rental yield (gross 2.6%)","14.9% above DVF average","2 days on market"]},"source":"dvf","url":"https://app.dvf.etalab.gouv.fr/"}