{"id":"dvf-2024-1228780","address":{"raw":"37 Rue Traversiere, 75012 Paris","normalized":"37 Rue Traversière 75012 Paris","lat":48.847506,"lng":2.372989,"district":"75012"},"characteristics":{"surface_m2":29,"rooms":1,"floor":0},"pricing":{"current_price":285000,"price_per_m2":9828,"initial_price":285000},"timeline":{"first_seen":"2026-06-29","last_seen":"2026-07-02","days_on_market":3},"price_history":[{"date":"2026-06-29","price":285000,"source":"dvf"}],"status":"active","dvf":{"avg_price_m2_100m":10424,"avg_price_m2_500m":9881,"comparable_sales":[{"price":757900,"date":"2024-02-08","distance_m":46},{"price":512000,"date":"2024-08-29","distance_m":56},{"price":925000,"date":"2024-11-12","distance_m":56},{"price":657369,"date":"2024-02-12","distance_m":60},{"price":532000,"date":"2024-03-13","distance_m":61},{"price":180000,"date":"2024-01-26","distance_m":95},{"price":820000,"date":"2024-10-15","distance_m":97},{"price":750000,"date":"2024-05-06","distance_m":101}]},"risks":{"flood":0.39,"clay":0.17,"noise":0.46},"transport_score":97,"neighborhood":{"walk_score":73,"schools_500m":7,"income":31000,"velib_400m":7,"trees_150m":24,"amenities":{"food":17,"health":0,"green":3,"culture":4}},"rent":{"ref_m2":29.6,"max_m2":35.5,"min_m2":20.7,"quartier":"Quinze-Vingts","monthly_est":1030},"investment":{"gross_yield":4.33,"net_yield":2.92,"ppm2_percentile":64,"negotiation_margin_pct":0.1,"dpe_risk_score":55,"value_add_flag":false},"pois":[{"type":"transport","lat":48.84586897868619,"lng":2.373774422563834,"label":"Gare de Lyon · METRO 1"},{"type":"transport","lat":48.84476017126674,"lng":2.373593653262281,"label":"Gare de Lyon · TRAIN R"},{"type":"transport","lat":48.84413934985302,"lng":2.373259976710645,"label":"Gare de Lyon · RER A"},{"type":"transport","lat":48.843772576851464,"lng":2.3739164698064985,"label":"Gare de Lyon · RER D"},{"type":"transport","lat":48.843486761806766,"lng":2.3739225903167545,"label":"Gare de Lyon · METRO 14"},{"type":"park","lat":48.84711352081558,"lng":2.376913555769563,"label":"JARDIN CHARLOTTE VALANDREY"},{"type":"park","lat":48.84599129465848,"lng":2.3785824372507114,"label":"COULEE VERTE RENE DUMONT - PROMENADE DU VIADUC DES ARTS"},{"type":"park","lat":48.850424415044664,"lng":2.3771179957314406,"label":"SQUARE TROUSSEAU"},{"type":"velib","lat":48.845666194202,"lng":2.3741452395916,"label":"Gare de Lyon - Chalon"},{"type":"velib","lat":48.845515089794,"lng":2.3726498446286,"label":"Gare de Lyon - Place Louis Armand"},{"type":"velib","lat":48.846192642574,"lng":2.3703800886869,"label":"Bercy - Traversiére"},{"type":"velib","lat":48.848175129981,"lng":2.3763584494312,"label":"Charenton - Prague"}],"dpe":{"energy_class":"E","ghg_class":"E"},"images":["https://images.unsplash.com/photo-1502005097973-6a7082348e28?w=1200&h=750&q=66&auto=format&fit=crop&crop=entropy","https://images.unsplash.com/photo-1493809842364-78817add7ffb?w=1200&h=750&q=66&auto=format&fit=crop&crop=entropy","https://images.unsplash.com/photo-1484154218962-a197022b5858?w=1200&h=750&q=66&auto=format&fit=crop&crop=entropy","https://images.unsplash.com/photo-1556912173-3bb406ef7e77?w=1200&h=750&q=66&auto=format&fit=crop&crop=entropy","https://images.unsplash.com/photo-1502672260266-1c1ef2d93688?w=1200&h=750&q=66&auto=format&fit=crop&crop=entropy"],"thumb":"https://images.unsplash.com/photo-1502005097973-6a7082348e28?w=480&h=300&q=55&auto=format&fit=crop&crop=entropy","score":{"opportunity_score":45,"value_score":59,"yield_score":77,"negotiation_score":1,"liquidity_score":79,"gentrification_score":52},"signals":{"price_drops":0,"total_drop_percent":0,"long_time_on_market":false,"explanations":["2.9% net rental yield (gross 4.3%)","3.7% below DVF average (10 207 €/m²)","3 days on market"]},"source":"dvf","url":"https://app.dvf.etalab.gouv.fr/"}