{"id":"dvf-2024-1228534","address":{"raw":"33 Rue Rottembourg, 75012 Paris","normalized":"33 Rue Rottembourg 75012 Paris","lat":48.838799,"lng":2.407728,"district":"75012"},"characteristics":{"surface_m2":46,"rooms":2,"floor":2},"pricing":{"current_price":411000,"price_per_m2":8935,"initial_price":411000},"timeline":{"first_seen":"2026-06-29","last_seen":"2026-07-01","days_on_market":2},"price_history":[{"date":"2026-06-29","price":411000,"source":"dvf"}],"status":"active","dvf":{"avg_price_m2_100m":7986,"avg_price_m2_500m":9024,"comparable_sales":[{"price":1347000,"date":"2024-12-20","distance_m":56},{"price":515050,"date":"2024-04-29","distance_m":93},{"price":486400,"date":"2024-05-16","distance_m":93},{"price":822650,"date":"2024-06-17","distance_m":93},{"price":1319700,"date":"2024-07-08","distance_m":93},{"price":552745,"date":"2024-07-18","distance_m":93},{"price":610000,"date":"2024-07-15","distance_m":93},{"price":408397,"date":"2024-10-10","distance_m":93}]},"risks":{"flood":0.03,"clay":0.41,"noise":0.35},"transport_score":100,"neighborhood":{"walk_score":56,"schools_500m":15,"income":31000,"velib_400m":4,"trees_150m":46,"amenities":{"food":9,"health":4,"green":1,"culture":0}},"rent":{"ref_m2":23.8,"max_m2":28.6,"min_m2":16.7,"quartier":"Bel-Air","monthly_est":1316},"investment":{"gross_yield":3.84,"net_yield":2.46,"ppm2_percentile":38,"negotiation_margin_pct":0.1,"dpe_risk_score":55,"value_add_flag":false},"pois":[{"type":"transport","lat":48.83986483182992,"lng":2.408874539222469,"label":"Montempoivre · TRAM 3a"},{"type":"transport","lat":48.83552220834931,"lng":2.4066571471351024,"label":"Porte Dorée · TRAM 3a"},{"type":"transport","lat":48.83711700698872,"lng":2.4023331645551855,"label":"Michel Bizot · METRO 8"},{"type":"transport","lat":48.83478515808142,"lng":2.4053832106267716,"label":"Porte Dorée · METRO 8"},{"type":"transport","lat":48.843700739992194,"lng":2.410109555597318,"label":"Alexandra David-Néel · TRAM 3a"},{"type":"park","lat":48.838468901488596,"lng":2.406751045033287,"label":"PROMENADE PC 12 - DAUMESNIL - SAHEL"},{"type":"park","lat":48.83769615422683,"lng":2.406189086900914,"label":"JARDIN PARTAGE BEL-AIR"},{"type":"park","lat":48.84113164604244,"lng":2.4098094999982083,"label":"SQUARE GEORGES MELIES"},{"type":"velib","lat":48.84070239213081,"lng":2.409667745232582,"label":"Square Georges Melies"},{"type":"velib","lat":48.83787825992554,"lng":2.4044052511453633,"label":"Rottembourg - Général Michel Bizot"},{"type":"velib","lat":48.840872964793355,"lng":2.4044444784522057,"label":"Sahel - Général Michel Bizot"},{"type":"velib","lat":48.8354337,"lng":2.4077132,"label":"Porte Dorée"}],"dpe":{"energy_class":"E","ghg_class":"E"},"images":["https://images.unsplash.com/photo-1484154218962-a197022b5858?w=1200&h=750&q=66&auto=format&fit=crop&crop=entropy","https://images.unsplash.com/photo-1556912173-3bb406ef7e77?w=1200&h=750&q=66&auto=format&fit=crop&crop=entropy","https://images.unsplash.com/photo-1493663284031-b7e3aefcae8e?w=1200&h=750&q=66&auto=format&fit=crop&crop=entropy","https://images.unsplash.com/photo-1540518614846-7eded433c457?w=1200&h=750&q=66&auto=format&fit=crop&crop=entropy","https://images.unsplash.com/photo-1502672260266-1c1ef2d93688?w=1200&h=750&q=66&auto=format&fit=crop&crop=entropy"],"thumb":"https://images.unsplash.com/photo-1484154218962-a197022b5858?w=480&h=300&q=55&auto=format&fit=crop&crop=entropy","score":{"opportunity_score":39,"value_score":62,"yield_score":54,"negotiation_score":0,"liquidity_score":73,"gentrification_score":52},"signals":{"price_drops":0,"total_drop_percent":0,"long_time_on_market":false,"explanations":["2.5% net rental yield (gross 3.8%)","6.4% above DVF average","2 days on market"]},"source":"dvf","url":"https://app.dvf.etalab.gouv.fr/"}