{"id":"dvf-2024-1210413","address":{"raw":"4 Rue Gerando, 75009 Paris","normalized":"4 Rue Gérando 75009 Paris","lat":48.882046,"lng":2.345428,"district":"75009"},"characteristics":{"surface_m2":41,"rooms":3,"floor":3},"pricing":{"current_price":450000,"price_per_m2":10976,"initial_price":450000},"timeline":{"first_seen":"2026-06-29","last_seen":"2026-07-01","days_on_market":2},"price_history":[{"date":"2026-06-29","price":450000,"source":"dvf"}],"status":"active","dvf":{"avg_price_m2_100m":11644,"avg_price_m2_500m":10763,"comparable_sales":[{"price":550000,"date":"2024-01-30","distance_m":31},{"price":591350,"date":"2024-10-10","distance_m":31},{"price":110000,"date":"2024-01-16","distance_m":33},{"price":588000,"date":"2024-01-31","distance_m":36},{"price":617000,"date":"2024-10-24","distance_m":46},{"price":503500,"date":"2024-06-21","distance_m":47},{"price":636500,"date":"2024-09-26","distance_m":47},{"price":690000,"date":"2024-10-15","distance_m":47}]},"risks":{"flood":0.02,"clay":0.22,"noise":0.44},"transport_score":100,"neighborhood":{"walk_score":80,"schools_500m":22,"income":34000,"velib_400m":12,"trees_150m":112,"amenities":{"food":23,"health":2,"green":3,"culture":2}},"rent":{"ref_m2":23.7,"max_m2":28.4,"min_m2":16.6,"quartier":"Rochechouart","monthly_est":1164},"investment":{"gross_yield":3.11,"net_yield":1.77,"ppm2_percentile":50,"negotiation_margin_pct":0.1,"dpe_risk_score":55,"value_add_flag":false},"pois":[{"type":"transport","lat":48.882972767827276,"lng":2.3446670737483,"label":"Anvers · METRO 2"},{"type":"transport","lat":48.8834180885266,"lng":2.349674832582202,"label":"Barbès-Rochechouart · METRO 4"},{"type":"transport","lat":48.884680973727825,"lng":2.342660037336352,"label":"Funiculaire Montmartre Station Basse · FUNICULAIRE MONTMARTRE"},{"type":"transport","lat":48.88380394240113,"lng":2.3506129993253224,"label":"Barbès-Rochechouart · METRO 2"},{"type":"transport","lat":48.885661112701506,"lng":2.3425496532584886,"label":"Funiculaire Montmartre Station Haute · FUNICULAIRE MONTMARTRE"},{"type":"park","lat":48.88217494781604,"lng":2.3443762611147774,"label":"SQUARE D'ANVERS-JEAN-CLAUDE CARRIERE"},{"type":"park","lat":48.885395633655946,"lng":2.343638652502033,"label":"SQUARE LOUISE MICHEL"},{"type":"park","lat":48.87771229681209,"lng":2.3460372839515125,"label":"JARDIN PARTAGE DU TEP VALEYRE"},{"type":"velib","lat":48.88215166773376,"lng":2.3463253676891327,"label":"Dunkerque - Trudaine"},{"type":"velib","lat":48.882633484311,"lng":2.3448844062122,"label":"Square d'Anvers"},{"type":"velib","lat":48.88294340845,"lng":2.3464846238494,"label":"Gérando - Rochechouart"},{"type":"velib","lat":48.87985155789093,"lng":2.345232367515564,"label":"Condorcet - Turgot"}],"dpe":{"energy_class":"E","ghg_class":"C"},"images":["https://images.unsplash.com/photo-1554995207-c18c203602cb?w=1200&h=750&q=66&auto=format&fit=crop&crop=entropy","https://images.unsplash.com/photo-1540518614846-7eded433c457?w=1200&h=750&q=66&auto=format&fit=crop&crop=entropy","https://images.unsplash.com/photo-1522708323590-d24dbb6b0267?w=1200&h=750&q=66&auto=format&fit=crop&crop=entropy","https://images.unsplash.com/photo-1502672260266-1c1ef2d93688?w=1200&h=750&q=66&auto=format&fit=crop&crop=entropy","https://images.unsplash.com/photo-1493809842364-78817add7ffb?w=1200&h=750&q=66&auto=format&fit=crop&crop=entropy"],"thumb":"https://images.unsplash.com/photo-1554995207-c18c203602cb?w=480&h=300&q=55&auto=format&fit=crop&crop=entropy","score":{"opportunity_score":31,"value_score":57,"yield_score":19,"negotiation_score":0,"liquidity_score":81,"gentrification_score":48},"signals":{"price_drops":0,"total_drop_percent":0,"long_time_on_market":false,"explanations":["1.8% net rental yield (gross 3.1%)","2.8% below DVF average (11 292 €/m²)","2 days on market"]},"source":"dvf","url":"https://app.dvf.etalab.gouv.fr/"}