{"id":"dvf-2024-1228788","address":{"raw":"4 Bd De Port-Royal, 75005 Paris","normalized":"4 Boulevard de Port-Royal 75005 Paris","lat":48.837055,"lng":2.350919,"district":"75005"},"characteristics":{"surface_m2":20,"rooms":2,"floor":1},"pricing":{"current_price":219000,"price_per_m2":10950,"initial_price":219000},"timeline":{"first_seen":"2026-06-29","last_seen":"2026-07-02","days_on_market":3},"price_history":[{"date":"2026-06-29","price":219000,"source":"dvf"}],"status":"active","dvf":{"avg_price_m2_100m":11465,"avg_price_m2_500m":10875,"comparable_sales":[{"price":350700,"date":"2024-11-08","distance_m":11},{"price":345000,"date":"2024-04-17","distance_m":72},{"price":312000,"date":"2024-11-15","distance_m":72},{"price":565000,"date":"2024-09-23","distance_m":80},{"price":450000,"date":"2024-02-09","distance_m":84},{"price":234000,"date":"2024-09-17","distance_m":90},{"price":200000,"date":"2024-11-26","distance_m":90},{"price":163000,"date":"2024-07-22","distance_m":100}]},"risks":{"flood":0.02,"clay":0.26,"noise":0.22},"transport_score":82,"neighborhood":{"walk_score":71,"schools_500m":15,"income":37000,"velib_400m":4,"trees_150m":47,"amenities":{"food":12,"health":9,"green":2,"culture":0}},"rent":{"ref_m2":26.3,"max_m2":31.6,"min_m2":18.4,"quartier":"Jardin-des-Plantes","monthly_est":632},"investment":{"gross_yield":3.46,"net_yield":2.11,"ppm2_percentile":22,"negotiation_margin_pct":0.1,"dpe_risk_score":55,"value_add_flag":false},"pois":[{"type":"transport","lat":48.83593030287887,"lng":2.3525422662627022,"label":"Les Gobelins · METRO 7"},{"type":"transport","lat":48.84023383632875,"lng":2.3516064753021904,"label":"Censier-Daubenton · METRO 7"},{"type":"transport","lat":48.835152535740804,"lng":2.3585662563494667,"label":"Campo Formio · METRO 5"},{"type":"transport","lat":48.84286683068267,"lng":2.352224728183084,"label":"Place Monge · METRO 7"},{"type":"transport","lat":48.83143363013256,"lng":2.355643643033711,"label":"Place d'Italie · METRO 7"},{"type":"park","lat":48.839329660493014,"lng":2.350072401383808,"label":"JARDINET DE LA FONTAINE SAINT-MEDARD"},{"type":"park","lat":48.834658044127785,"lng":2.350089091847215,"label":"JARDIN PARTAGE DU SQUARE RENE LE GALL"},{"type":"park","lat":48.83876418659765,"lng":2.353757908862067,"label":"SQUARE THEODORE MONOD"},{"type":"velib","lat":48.837135900263,"lng":2.3515201359987,"label":"Gobelins - Port-Royal"},{"type":"velib","lat":48.839061952159746,"lng":2.3499782010912895,"label":"Pascal - Claude Bernard"},{"type":"velib","lat":48.83548071896613,"lng":2.348572461702221,"label":"Cordelières - Arago"},{"type":"velib","lat":48.835092787824,"lng":2.3534681351338,"label":"Le Brun - Gobelins"}],"dpe":{"energy_class":"E","ghg_class":"C"},"images":["https://images.unsplash.com/photo-1560448204-e02f11c3d0e2?w=1200&h=750&q=66&auto=format&fit=crop&crop=entropy","https://images.unsplash.com/photo-1505691938895-1758d7feb511?w=1200&h=750&q=66&auto=format&fit=crop&crop=entropy","https://images.unsplash.com/photo-1502672260266-1c1ef2d93688?w=1200&h=750&q=66&auto=format&fit=crop&crop=entropy","https://images.unsplash.com/photo-1493663284031-b7e3aefcae8e?w=1200&h=750&q=66&auto=format&fit=crop&crop=entropy","https://images.unsplash.com/photo-1540518614846-7eded433c457?w=1200&h=750&q=66&auto=format&fit=crop&crop=entropy"],"thumb":"https://images.unsplash.com/photo-1560448204-e02f11c3d0e2?w=480&h=300&q=55&auto=format&fit=crop&crop=entropy","score":{"opportunity_score":40,"value_score":78,"yield_score":36,"negotiation_score":1,"liquidity_score":84,"gentrification_score":50},"signals":{"price_drops":0,"total_drop_percent":0,"long_time_on_market":false,"explanations":["2.1% net rental yield (gross 3.5%)","2.5% below DVF average (11 229 €/m²)","Cheaper than 78% of the arrondissement","3 days on market"]},"source":"dvf","url":"https://app.dvf.etalab.gouv.fr/"}