{"id":"dvf-2024-1210052","address":{"raw":"37 Rue Manin, 75019 Paris","normalized":"37 Rue Manin 75019 Paris","lat":48.879647,"lng":2.378792,"district":"75019"},"characteristics":{"surface_m2":46,"rooms":2,"floor":0},"pricing":{"current_price":380000,"price_per_m2":8261,"initial_price":380000},"timeline":{"first_seen":"2026-06-29","last_seen":"2026-07-02","days_on_market":3},"price_history":[{"date":"2026-06-29","price":380000,"source":"dvf"}],"status":"active","dvf":{"avg_price_m2_100m":9563,"avg_price_m2_500m":8896,"comparable_sales":[{"price":92000,"date":"2024-06-18","distance_m":15},{"price":785700,"date":"2024-10-21","distance_m":15},{"price":1257400,"date":"2024-06-06","distance_m":48},{"price":680000,"date":"2024-06-18","distance_m":48},{"price":744600,"date":"2024-10-21","distance_m":53},{"price":316000,"date":"2024-11-06","distance_m":59},{"price":152000,"date":"2024-11-15","distance_m":62},{"price":384000,"date":"2024-11-05","distance_m":108}]},"risks":{"flood":0.09,"clay":0.14,"noise":0.54},"transport_score":78,"neighborhood":{"walk_score":79,"schools_500m":29,"income":23000,"velib_400m":6,"trees_150m":103,"amenities":{"food":29,"health":3,"green":0,"culture":7}},"rent":{"ref_m2":23.8,"max_m2":28.6,"min_m2":16.7,"quartier":"Combat","monthly_est":1316},"investment":{"gross_yield":4.15,"net_yield":2.75,"ppm2_percentile":36,"negotiation_margin_pct":0.1,"dpe_risk_score":10,"value_add_flag":false},"pois":[{"type":"transport","lat":48.87851411402383,"lng":2.3816145119289653,"label":"Buttes-Chaumont · METRO 7bis"},{"type":"transport","lat":48.880667463456206,"lng":2.374495966260425,"label":"Bolivar · METRO 7bis"},{"type":"transport","lat":48.884970562766206,"lng":2.3787169232246455,"label":"Laumière · METRO 5"},{"type":"transport","lat":48.87761018741785,"lng":2.370811395312745,"label":"Colonel Fabien · METRO 2"},{"type":"transport","lat":48.883193321300105,"lng":2.371933128614294,"label":"Jaurès · METRO 5"},{"type":"park","lat":48.88004380225453,"lng":2.3828935462188348,"label":"PARC DES BUTTES CHAUMONT"},{"type":"park","lat":48.877164782881565,"lng":2.3757038996523776,"label":"JARDIN PARTAGE DE LA BUTTE BERGEYRE"},{"type":"park","lat":48.88252575872868,"lng":2.3822455287274975,"label":"JARDINET PLACE ARMAND CARREL"},{"type":"velib","lat":48.8791665,"lng":2.3787959,"label":"Manin - Secrétan"},{"type":"velib","lat":48.880516995482,"lng":2.3763902374411,"label":"Pailleron - Bouret"},{"type":"velib","lat":48.877951,"lng":2.381464,"label":"Botzaris - Parc des Buttes Chaumont"},{"type":"velib","lat":48.87979886049996,"lng":2.374839261174202,"label":"Edouard Pailleron - Simon Bolivar"}],"dpe":{"energy_class":"G","ghg_class":"C"},"images":["https://images.unsplash.com/photo-1556912173-3bb406ef7e77?w=1200&h=750&q=66&auto=format&fit=crop&crop=entropy","https://images.unsplash.com/photo-1554995207-c18c203602cb?w=1200&h=750&q=66&auto=format&fit=crop&crop=entropy","https://images.unsplash.com/photo-1567496898669-ee935f5f647a?w=1200&h=750&q=66&auto=format&fit=crop&crop=entropy","https://images.unsplash.com/photo-1484154218962-a197022b5858?w=1200&h=750&q=66&auto=format&fit=crop&crop=entropy","https://images.unsplash.com/photo-1493663284031-b7e3aefcae8e?w=1200&h=750&q=66&auto=format&fit=crop&crop=entropy"],"thumb":"https://images.unsplash.com/photo-1556912173-3bb406ef7e77?w=480&h=300&q=55&auto=format&fit=crop&crop=entropy","score":{"opportunity_score":32,"value_score":78,"yield_score":69,"negotiation_score":1,"liquidity_score":67,"gentrification_score":45},"signals":{"price_drops":0,"total_drop_percent":0,"long_time_on_market":false,"explanations":["2.8% net rental yield (gross 4.2%)","11.1% below DVF average (9 296 €/m²)","3 days on market","Energy class G — rental restrictions apply"]},"source":"dvf","url":"https://app.dvf.etalab.gouv.fr/"}