{"id":"dvf-2024-1228338","address":{"raw":"17 Rue Lagrange, 75005 Paris","normalized":"17 Rue Lagrange 75005 Paris","lat":48.850853,"lng":2.348496,"district":"75005"},"characteristics":{"surface_m2":60,"rooms":4,"floor":3},"pricing":{"current_price":845000,"price_per_m2":14083,"initial_price":845000},"timeline":{"first_seen":"2026-06-29","last_seen":"2026-07-01","days_on_market":2},"price_history":[{"date":"2026-06-29","price":845000,"source":"dvf"}],"status":"active","dvf":{"avg_price_m2_100m":13282,"avg_price_m2_500m":13454,"comparable_sales":[{"price":1397859,"date":"2024-01-24","distance_m":22},{"price":1500000,"date":"2024-02-29","distance_m":22},{"price":1370000,"date":"2024-09-12","distance_m":41},{"price":503560,"date":"2024-09-12","distance_m":41},{"price":1880000,"date":"2024-03-29","distance_m":43},{"price":830000,"date":"2024-10-18","distance_m":43},{"price":380000,"date":"2024-06-04","distance_m":52},{"price":290500,"date":"2024-06-21","distance_m":52}]},"risks":{"flood":0.3,"clay":0.51,"noise":0.42},"transport_score":100,"neighborhood":{"walk_score":69,"schools_500m":14,"income":37000,"velib_400m":12,"trees_150m":71,"amenities":{"food":10,"health":5,"green":1,"culture":3}},"rent":{"ref_m2":26.4,"max_m2":31.7,"min_m2":18.5,"quartier":"Sorbonne","monthly_est":1902},"investment":{"gross_yield":2.7,"net_yield":1.4,"ppm2_percentile":78,"negotiation_margin_pct":0.1,"dpe_risk_score":55,"value_add_flag":false},"pois":[{"type":"transport","lat":48.85008987805251,"lng":2.3482087741854687,"label":"Maubert-Mutualité · METRO 10"},{"type":"transport","lat":48.851050282314304,"lng":2.3442733454213514,"label":"Cluny-La Sorbonne · METRO 10"},{"type":"transport","lat":48.85211888263096,"lng":2.34402115205528,"label":"Saint-Michel · RER B"},{"type":"transport","lat":48.85353290071982,"lng":2.3452883321974305,"label":"Saint-Michel · RER C"},{"type":"transport","lat":48.85316798489062,"lng":2.343285978923924,"label":"Saint-Michel · METRO 4"},{"type":"park","lat":48.85149879468452,"lng":2.3492792584537034,"label":"SQUARE RESTIF DE LA BRETONNE"},{"type":"park","lat":48.85059081440788,"lng":2.35002361758125,"label":"SQUARE DANIELLE MITTERAND"},{"type":"park","lat":48.85215193028229,"lng":2.3475422148340597,"label":"SQUARE RENE VIVIANI-MONTEBELLO"},{"type":"velib","lat":48.850571,"lng":2.3471015,"label":"Saint-Germain - Thenard"},{"type":"velib","lat":48.851904891406,"lng":2.3478421568871,"label":"Square René Viviani - Montebello"},{"type":"velib","lat":48.848904447989,"lng":2.3473486304283,"label":"Ecoles - Carmes"},{"type":"velib","lat":48.850310432924,"lng":2.3450158352986,"label":"Sommerard - Saint-Jacques"}],"dpe":{"energy_class":"E","ghg_class":"C"},"images":["https://images.unsplash.com/photo-1502672260266-1c1ef2d93688?w=1200&h=750&q=66&auto=format&fit=crop&crop=entropy","https://images.unsplash.com/photo-1505691938895-1758d7feb511?w=1200&h=750&q=66&auto=format&fit=crop&crop=entropy","https://images.unsplash.com/photo-1493663284031-b7e3aefcae8e?w=1200&h=750&q=66&auto=format&fit=crop&crop=entropy","https://images.unsplash.com/photo-1493809842364-78817add7ffb?w=1200&h=750&q=66&auto=format&fit=crop&crop=entropy","https://images.unsplash.com/photo-1484154218962-a197022b5858?w=1200&h=750&q=66&auto=format&fit=crop&crop=entropy"],"thumb":"https://images.unsplash.com/photo-1502672260266-1c1ef2d93688?w=480&h=300&q=55&auto=format&fit=crop&crop=entropy","score":{"opportunity_score":23,"value_score":36,"yield_score":3,"negotiation_score":0,"liquidity_score":84,"gentrification_score":50},"signals":{"price_drops":0,"total_drop_percent":0,"long_time_on_market":false,"explanations":["1.4% net rental yield (gross 2.7%)","5.5% above DVF average","2 days on market"]},"source":"dvf","url":"https://app.dvf.etalab.gouv.fr/"}