{"id":"dvf-2024-1228540","address":{"raw":"11 Rue Oudinot, 75007 Paris","normalized":"11 Rue Oudinot 75007 Paris","lat":48.85025,"lng":2.3183,"district":"75007"},"characteristics":{"surface_m2":18,"rooms":1,"floor":3},"pricing":{"current_price":200000,"price_per_m2":11111,"initial_price":200000},"timeline":{"first_seen":"2026-06-29","last_seen":"2026-07-02","days_on_market":3},"price_history":[{"date":"2026-06-29","price":200000,"source":"dvf"}],"status":"active","dvf":{"avg_price_m2_100m":14485,"avg_price_m2_500m":15049,"comparable_sales":[{"price":210000,"date":"2024-04-05","distance_m":11},{"price":457150,"date":"2024-07-01","distance_m":11},{"price":267500,"date":"2024-10-03","distance_m":11},{"price":314453,"date":"2024-03-05","distance_m":24},{"price":560000,"date":"2024-04-10","distance_m":32},{"price":700000,"date":"2024-11-19","distance_m":34},{"price":1940000,"date":"2024-03-22","distance_m":42},{"price":1669500,"date":"2024-07-15","distance_m":48}]},"risks":{"flood":0.11,"clay":0.29,"noise":0.26},"transport_score":92,"neighborhood":{"walk_score":59,"schools_500m":17,"income":47000,"velib_400m":3,"trees_150m":26,"amenities":{"food":12,"health":3,"green":0,"culture":3}},"rent":{"ref_m2":33.4,"max_m2":40.1,"min_m2":23.4,"quartier":"Ecole-Militaire","monthly_est":722},"investment":{"gross_yield":4.33,"net_yield":2.91,"ppm2_percentile":12,"negotiation_margin_pct":0.1,"dpe_risk_score":55,"value_add_flag":false},"pois":[{"type":"transport","lat":48.848816373369594,"lng":2.3212578628937472,"label":"Vaneau · METRO 10"},{"type":"transport","lat":48.85144170744032,"lng":2.314408121472487,"label":"Saint-François-Xavier · METRO 13"},{"type":"transport","lat":48.84698910613954,"lng":2.3170052357372453,"label":"Duroc · METRO 10"},{"type":"transport","lat":48.84705255542817,"lng":2.3164243520508925,"label":"Duroc · METRO 13"},{"type":"transport","lat":48.851031751239304,"lng":2.3261023128241907,"label":"Sèvres-Babylone · METRO 10"},{"type":"park","lat":48.85112582655796,"lng":2.3205058231835114,"label":"JARDIN CATHERINE LABOURE"},{"type":"park","lat":48.85063025767801,"lng":2.321412373857342,"label":"JARDIN DU POTAGER (ANCIEN HOPITAL LAENNEC)"},{"type":"park","lat":48.85031459139678,"lng":2.3136514743631094,"label":"SQUARE DE L'ABBE ESQUERRE"},{"type":"velib","lat":48.848563233059,"lng":2.3204218259346,"label":"Vaneau - Sèvres"},{"type":"velib","lat":48.848283157236,"lng":2.315749520203,"label":"Constant Coquelin - Invalides"},{"type":"velib","lat":48.85154484769,"lng":2.3146149516106,"label":"Saint-François-Xavier"}],"dpe":{"energy_class":"E","ghg_class":"C"},"images":["https://images.unsplash.com/photo-1567496898669-ee935f5f647a?w=1200&h=750&q=66&auto=format&fit=crop&crop=entropy","https://images.unsplash.com/photo-1493809842364-78817add7ffb?w=1200&h=750&q=66&auto=format&fit=crop&crop=entropy","https://images.unsplash.com/photo-1560448204-e02f11c3d0e2?w=1200&h=750&q=66&auto=format&fit=crop&crop=entropy","https://images.unsplash.com/photo-1502005097973-6a7082348e28?w=1200&h=750&q=66&auto=format&fit=crop&crop=entropy","https://images.unsplash.com/photo-1554995207-c18c203602cb?w=1200&h=750&q=66&auto=format&fit=crop&crop=entropy"],"thumb":"https://images.unsplash.com/photo-1567496898669-ee935f5f647a?w=480&h=300&q=55&auto=format&fit=crop&crop=entropy","score":{"opportunity_score":56,"value_score":100,"yield_score":77,"negotiation_score":1,"liquidity_score":90,"gentrification_score":56},"signals":{"price_drops":0,"total_drop_percent":0,"long_time_on_market":false,"explanations":["2.9% net rental yield (gross 4.3%)","24.5% below DVF average (14 711 €/m²)","Cheaper than 88% of the arrondissement","3 days on market"]},"source":"dvf","url":"https://app.dvf.etalab.gouv.fr/"}