{"id":"dvf-2024-1228095","address":{"raw":"11 Rue Daubenton, 75005 Paris","normalized":"11 Rue Daubenton 75005 Paris","lat":48.841308,"lng":2.354517,"district":"75005"},"characteristics":{"surface_m2":52,"rooms":2,"floor":4},"pricing":{"current_price":448475,"price_per_m2":8625,"initial_price":448475},"timeline":{"first_seen":"2026-06-29","last_seen":"2026-07-02","days_on_market":3},"price_history":[{"date":"2026-06-29","price":448475,"source":"dvf"}],"status":"active","dvf":{"avg_price_m2_100m":12383,"avg_price_m2_500m":11771,"comparable_sales":[{"price":1195700,"date":"2024-04-22","distance_m":16},{"price":200000,"date":"2024-07-05","distance_m":16},{"price":526000,"date":"2024-07-23","distance_m":41},{"price":1075000,"date":"2024-12-17","distance_m":41},{"price":290000,"date":"2024-01-29","distance_m":62},{"price":315000,"date":"2024-07-19","distance_m":62},{"price":285000,"date":"2024-07-30","distance_m":62},{"price":575000,"date":"2024-10-02","distance_m":62}]},"risks":{"flood":0.14,"clay":0.28,"noise":0.49},"transport_score":94,"neighborhood":{"walk_score":95,"schools_500m":11,"income":37000,"velib_400m":8,"trees_150m":91,"amenities":{"food":20,"health":7,"green":3,"culture":5}},"rent":{"ref_m2":26.3,"max_m2":31.6,"min_m2":18.4,"quartier":"Jardin-des-Plantes","monthly_est":1643},"investment":{"gross_yield":4.4,"net_yield":2.97,"ppm2_percentile":0,"negotiation_margin_pct":0.1,"dpe_risk_score":75,"value_add_flag":false},"pois":[{"type":"transport","lat":48.84286683068267,"lng":2.352224728183084,"label":"Place Monge · METRO 7"},{"type":"transport","lat":48.84023383632875,"lng":2.3516064753021904,"label":"Censier-Daubenton · METRO 7"},{"type":"transport","lat":48.84595066575015,"lng":2.355050264434754,"label":"Jussieu · METRO 7"},{"type":"transport","lat":48.846151122181325,"lng":2.354917983707404,"label":"Jussieu · METRO 10"},{"type":"transport","lat":48.83842729696758,"lng":2.360967167698855,"label":"Saint-Marcel · METRO 5"},{"type":"park","lat":48.84228360839184,"lng":2.3540094346806604,"label":"SQUARE ROBERT MONTAGNE"},{"type":"park","lat":48.83876418659765,"lng":2.353757908862067,"label":"SQUARE THEODORE MONOD"},{"type":"park","lat":48.84107762964164,"lng":2.3503666023120786,"label":"JARDIN PARTAGE DU 3 PASSAGE DES PATRIARCHES"},{"type":"velib","lat":48.84107178161383,"lng":2.355475388467312,"label":"Censier - Jardin des Plantes"},{"type":"velib","lat":48.840658921385234,"lng":2.3537524044513702,"label":"Censier - Santeuil"},{"type":"velib","lat":48.842761803051,"lng":2.3524079471827,"label":"Place Monge"},{"type":"velib","lat":48.8437035476636,"lng":2.354651279747486,"label":"Lacépède - Linné"}],"dpe":{"energy_class":"D","ghg_class":"D"},"images":["https://images.unsplash.com/photo-1540518614846-7eded433c457?w=1200&h=750&q=66&auto=format&fit=crop&crop=entropy","https://images.unsplash.com/photo-1505691938895-1758d7feb511?w=1200&h=750&q=66&auto=format&fit=crop&crop=entropy","https://images.unsplash.com/photo-1493809842364-78817add7ffb?w=1200&h=750&q=66&auto=format&fit=crop&crop=entropy","https://images.unsplash.com/photo-1484154218962-a197022b5858?w=1200&h=750&q=66&auto=format&fit=crop&crop=entropy","https://images.unsplash.com/photo-1522708323590-d24dbb6b0267?w=1200&h=750&q=66&auto=format&fit=crop&crop=entropy"],"thumb":"https://images.unsplash.com/photo-1540518614846-7eded433c457?w=480&h=300&q=55&auto=format&fit=crop&crop=entropy","score":{"opportunity_score":63,"value_score":100,"yield_score":80,"negotiation_score":1,"liquidity_score":86,"gentrification_score":50},"signals":{"price_drops":0,"total_drop_percent":0,"long_time_on_market":false,"explanations":["3.0% net rental yield (gross 4.4%)","28.9% below DVF average (12 138 €/m²)","Cheaper than 100% of the arrondissement","3 days on market"]},"source":"dvf","url":"https://app.dvf.etalab.gouv.fr/"}