{"id":"dvf-2024-1210418","address":{"raw":"19 Rue Yves Toudic, 75010 Paris","normalized":"19 Rue Yves Toudic 75010 Paris","lat":48.870539,"lng":2.363157,"district":"75010"},"characteristics":{"surface_m2":104,"rooms":4,"floor":3},"pricing":{"current_price":925000,"price_per_m2":8894,"initial_price":925000},"timeline":{"first_seen":"2026-06-29","last_seen":"2026-07-01","days_on_market":2},"price_history":[{"date":"2026-06-29","price":925000,"source":"dvf"}],"status":"active","dvf":{"avg_price_m2_100m":10491,"avg_price_m2_500m":10299,"comparable_sales":[{"price":522000,"date":"2024-06-25","distance_m":44},{"price":1690000,"date":"2024-11-08","distance_m":45},{"price":746950,"date":"2024-11-13","distance_m":61},{"price":1285000,"date":"2024-11-15","distance_m":71},{"price":382500,"date":"2024-05-29","distance_m":77},{"price":365000,"date":"2024-01-09","distance_m":81},{"price":123000,"date":"2024-03-11","distance_m":81},{"price":970000,"date":"2024-06-07","distance_m":81}]},"risks":{"flood":0.04,"clay":0.39,"noise":0.59},"transport_score":100,"neighborhood":{"walk_score":67,"schools_500m":5,"income":29000,"velib_400m":9,"trees_150m":131,"amenities":{"food":27,"health":5,"green":1,"culture":0}},"rent":{"ref_m2":22.3,"max_m2":26.8,"min_m2":15.6,"quartier":"Porte-Saint-Martin","monthly_est":2787},"investment":{"gross_yield":3.62,"net_yield":2.25,"ppm2_percentile":40,"negotiation_margin_pct":0.1,"dpe_risk_score":30,"value_add_flag":false},"pois":[{"type":"transport","lat":48.87039638922484,"lng":2.3614002104327776,"label":"Jacques Bonsergent · METRO 5"},{"type":"transport","lat":48.86782709972698,"lng":2.3637404371950392,"label":"République · METRO 5"},{"type":"transport","lat":48.86778030055016,"lng":2.3629287001561123,"label":"République · METRO 9"},{"type":"transport","lat":48.86799910892294,"lng":2.3650748610827645,"label":"République · METRO 11"},{"type":"transport","lat":48.867600880102444,"lng":2.3627573800027633,"label":"République · METRO 8"},{"type":"park","lat":48.872538121101215,"lng":2.3613590780735745,"label":"JARDINET DE LA RUE LEGOUVE"},{"type":"park","lat":48.86927407136047,"lng":2.366917000791045,"label":"SQUARE FREDERICK LEMAITRE"},{"type":"park","lat":48.87355156595055,"lng":2.363603194832792,"label":"SQUARE DES RECOLLETS"},{"type":"velib","lat":48.871624306962985,"lng":2.3639265082738348,"label":"Marseille - Beaurepaire"},{"type":"velib","lat":48.870948218595,"lng":2.3612049221992,"label":"Place Jacques Bonsergent"},{"type":"velib","lat":48.868976638826,"lng":2.3623438552022,"label":"Bourse du Travail"},{"type":"velib","lat":48.871044051984,"lng":2.3661044619878,"label":"Alibert - Jemmapes"}],"dpe":{"energy_class":"F","ghg_class":"F"},"images":["https://images.unsplash.com/photo-1567496898669-ee935f5f647a?w=1200&h=750&q=66&auto=format&fit=crop&crop=entropy","https://images.unsplash.com/photo-1484154218962-a197022b5858?w=1200&h=750&q=66&auto=format&fit=crop&crop=entropy","https://images.unsplash.com/photo-1556912173-3bb406ef7e77?w=1200&h=750&q=66&auto=format&fit=crop&crop=entropy","https://images.unsplash.com/photo-1505691938895-1758d7feb511?w=1200&h=750&q=66&auto=format&fit=crop&crop=entropy","https://images.unsplash.com/photo-1540518614846-7eded433c457?w=1200&h=750&q=66&auto=format&fit=crop&crop=entropy"],"thumb":"https://images.unsplash.com/photo-1567496898669-ee935f5f647a?w=480&h=300&q=55&auto=format&fit=crop&crop=entropy","score":{"opportunity_score":35,"value_score":86,"yield_score":43,"negotiation_score":0,"liquidity_score":70,"gentrification_score":46},"signals":{"price_drops":0,"total_drop_percent":0,"long_time_on_market":false,"explanations":["2.3% net rental yield (gross 3.6%)","14.6% below DVF average (10 414 €/m²)","2 days on market","Energy class F — rental restrictions apply"]},"source":"dvf","url":"https://app.dvf.etalab.gouv.fr/"}