{"id":"dvf-2024-1210124","address":{"raw":"30 Rue Du Pressoir, 75020 Paris","normalized":"30 Rue du Pressoir 75020 Paris","lat":48.869346,"lng":2.382566,"district":"75020"},"characteristics":{"surface_m2":113,"rooms":6,"floor":2},"pricing":{"current_price":790000,"price_per_m2":6991,"initial_price":790000},"timeline":{"first_seen":"2026-06-29","last_seen":"2026-07-01","days_on_market":2},"price_history":[{"date":"2026-06-29","price":790000,"source":"dvf"}],"status":"active","dvf":{"avg_price_m2_100m":8080,"avg_price_m2_500m":9158,"comparable_sales":[{"price":480000,"date":"2024-07-12","distance_m":64},{"price":450000,"date":"2024-09-18","distance_m":64},{"price":181000,"date":"2024-10-10","distance_m":70},{"price":478140,"date":"2024-04-24","distance_m":92},{"price":387000,"date":"2024-04-30","distance_m":92},{"price":1108200,"date":"2024-05-15","distance_m":110},{"price":280000,"date":"2024-07-31","distance_m":110},{"price":618250,"date":"2024-02-28","distance_m":120}]},"risks":{"flood":0.09,"clay":0.31,"noise":0.74},"transport_score":100,"neighborhood":{"walk_score":97,"schools_500m":31,"income":25000,"velib_400m":7,"trees_150m":73,"amenities":{"food":23,"health":7,"green":5,"culture":8}},"rent":{"ref_m2":22.3,"max_m2":26.8,"min_m2":15.6,"quartier":"Belleville","monthly_est":3028},"investment":{"gross_yield":4.6,"net_yield":3.16,"ppm2_percentile":12,"negotiation_margin_pct":0.1,"dpe_risk_score":55,"value_add_flag":false},"pois":[{"type":"transport","lat":48.8690911620257,"lng":2.380542586000037,"label":"Couronnes · METRO 2"},{"type":"transport","lat":48.866446806067,"lng":2.383599109573657,"label":"Ménilmontant · METRO 2"},{"type":"transport","lat":48.87184879466127,"lng":2.3765936840968225,"label":"Belleville · METRO 11"},{"type":"transport","lat":48.87228310892801,"lng":2.37673072170184,"label":"Belleville · METRO 2"},{"type":"transport","lat":48.87388185415816,"lng":2.385316215101792,"label":"Pyrénées · METRO 11"},{"type":"park","lat":48.86837924822756,"lng":2.3836206777550206,"label":"JARDIN DES RUES MARONITES - PRESSOIR"},{"type":"park","lat":48.87075112727912,"lng":2.3832649907068735,"label":"JARDIN GABRIELE BUFFET"},{"type":"park","lat":48.87122750172725,"lng":2.384695599430617,"label":"PARC DE BELLEVILLE"},{"type":"velib","lat":48.868831082877,"lng":2.3809862136841,"label":"Belleville - Couronnes"},{"type":"velib","lat":48.8703459,"lng":2.3842214,"label":"Parc de Belleville - Julien Lacroix"},{"type":"velib","lat":48.86798303359366,"lng":2.3851405311143026,"label":"Etienne Dolet - Place Maurice Chevalier"},{"type":"velib","lat":48.866617658681,"lng":2.3830134404158,"label":"Ménilmontant - Oberkampf"}],"dpe":{"energy_class":"E","ghg_class":"D"},"images":["https://images.unsplash.com/photo-1484154218962-a197022b5858?w=1200&h=750&q=66&auto=format&fit=crop&crop=entropy","https://images.unsplash.com/photo-1505691938895-1758d7feb511?w=1200&h=750&q=66&auto=format&fit=crop&crop=entropy","https://images.unsplash.com/photo-1540518614846-7eded433c457?w=1200&h=750&q=66&auto=format&fit=crop&crop=entropy","https://images.unsplash.com/photo-1493809842364-78817add7ffb?w=1200&h=750&q=66&auto=format&fit=crop&crop=entropy","https://images.unsplash.com/photo-1560448204-e02f11c3d0e2?w=1200&h=750&q=66&auto=format&fit=crop&crop=entropy"],"thumb":"https://images.unsplash.com/photo-1484154218962-a197022b5858?w=480&h=300&q=55&auto=format&fit=crop&crop=entropy","score":{"opportunity_score":54,"value_score":95,"yield_score":88,"negotiation_score":0,"liquidity_score":67,"gentrification_score":45},"signals":{"price_drops":0,"total_drop_percent":0,"long_time_on_market":false,"explanations":["3.2% net rental yield (gross 4.6%)","17.9% below DVF average (8 511 €/m²)","Cheaper than 88% of the arrondissement","2 days on market"]},"source":"dvf","url":"https://app.dvf.etalab.gouv.fr/"}