{"id":"dvf-2024-1209661","address":{"raw":"11 Rue Portefoin, 75003 Paris","normalized":"11 Rue Portefoin 75003 Paris","lat":48.863704,"lng":2.359709,"district":"75003"},"characteristics":{"surface_m2":32,"rooms":2,"floor":0},"pricing":{"current_price":400000,"price_per_m2":12500,"initial_price":400000},"timeline":{"first_seen":"2026-06-29","last_seen":"2026-07-02","days_on_market":3},"price_history":[{"date":"2026-06-29","price":400000,"source":"dvf"}],"status":"active","dvf":{"avg_price_m2_100m":12550,"avg_price_m2_500m":12372,"comparable_sales":[{"price":416450,"date":"2024-11-27","distance_m":23},{"price":562000,"date":"2024-04-08","distance_m":33},{"price":2050000,"date":"2024-09-27","distance_m":51},{"price":450000,"date":"2024-06-21","distance_m":61},{"price":384000,"date":"2024-10-30","distance_m":61},{"price":421500,"date":"2024-04-29","distance_m":62},{"price":990000,"date":"2024-05-14","distance_m":65},{"price":569050,"date":"2024-11-05","distance_m":65}]},"risks":{"flood":0.02,"clay":0.47,"noise":0.32},"transport_score":91,"neighborhood":{"walk_score":88,"schools_500m":18,"income":35000,"velib_400m":5,"trees_150m":61,"amenities":{"food":26,"health":11,"green":3,"culture":3}},"rent":{"ref_m2":29.2,"max_m2":35,"min_m2":20.4,"quartier":"Enfants-Rouges","monthly_est":1120},"investment":{"gross_yield":3.36,"net_yield":2.01,"ppm2_percentile":52,"negotiation_margin_pct":0.1,"dpe_risk_score":75,"value_add_flag":false},"pois":[{"type":"transport","lat":48.86532271167806,"lng":2.356729869173701,"label":"Arts et Métiers · METRO 11"},{"type":"transport","lat":48.86558647849898,"lng":2.356736756794993,"label":"Arts et Métiers · METRO 3"},{"type":"transport","lat":48.866514461743,"lng":2.3608035032752688,"label":"Temple · METRO 3"},{"type":"transport","lat":48.867600880102444,"lng":2.3627573800027633,"label":"République · METRO 8"},{"type":"transport","lat":48.86702678847436,"lng":2.364247995104706,"label":"République · METRO 3"},{"type":"park","lat":48.86445796617997,"lng":2.3607552645262286,"label":"SQUARE DU TEMPLE - ELIE WIESEL"},{"type":"park","lat":48.86385775513695,"lng":2.361728173311372,"label":"JARDINETS DE LA MAIRIE DE PARIS CENTRE"},{"type":"park","lat":48.86306513083119,"lng":2.3616418938473718,"label":"JARDINET MADELEINE DE SCUDERY"},{"type":"velib","lat":48.8623615,"lng":2.3595041,"label":"Archives - Pastourelle"},{"type":"velib","lat":48.864461781391,"lng":2.3617628216743,"label":"Mairie du 3ème"},{"type":"velib","lat":48.86610337431,"lng":2.3596492409706,"label":"Sainte-Elisabeth - Turbigo"},{"type":"velib","lat":48.865574047531,"lng":2.3564198613167,"label":"Turbigo - Réaumur"}],"dpe":{"energy_class":"D","ghg_class":"D"},"images":["https://images.unsplash.com/photo-1567496898669-ee935f5f647a?w=1200&h=750&q=66&auto=format&fit=crop&crop=entropy","https://images.unsplash.com/photo-1522708323590-d24dbb6b0267?w=1200&h=750&q=66&auto=format&fit=crop&crop=entropy","https://images.unsplash.com/photo-1556912173-3bb406ef7e77?w=1200&h=750&q=66&auto=format&fit=crop&crop=entropy","https://images.unsplash.com/photo-1484154218962-a197022b5858?w=1200&h=750&q=66&auto=format&fit=crop&crop=entropy","https://images.unsplash.com/photo-1502672260266-1c1ef2d93688?w=1200&h=750&q=66&auto=format&fit=crop&crop=entropy"],"thumb":"https://images.unsplash.com/photo-1567496898669-ee935f5f647a?w=480&h=300&q=55&auto=format&fit=crop&crop=entropy","score":{"opportunity_score":37,"value_score":50,"yield_score":31,"negotiation_score":1,"liquidity_score":88,"gentrification_score":46},"signals":{"price_drops":0,"total_drop_percent":0,"long_time_on_market":false,"explanations":["2.0% net rental yield (gross 3.4%)","3 days on market"]},"source":"dvf","url":"https://app.dvf.etalab.gouv.fr/"}