{"id":"dvf-2024-1228077","address":{"raw":"6 Rue Jacob, 75006 Paris","normalized":"6 Rue Jacob 75006 Paris","lat":48.854777,"lng":2.336234,"district":"75006"},"characteristics":{"surface_m2":24,"rooms":1,"floor":2},"pricing":{"current_price":271000,"price_per_m2":11292,"initial_price":271000},"timeline":{"first_seen":"2026-06-29","last_seen":"2026-07-02","days_on_market":3},"price_history":[{"date":"2026-06-29","price":271000,"source":"dvf"}],"status":"active","dvf":{"avg_price_m2_100m":16864,"avg_price_m2_500m":16554,"comparable_sales":[{"price":385000,"date":"2024-05-22","distance_m":33},{"price":2480000,"date":"2024-08-30","distance_m":35},{"price":1240783,"date":"2024-01-12","distance_m":46},{"price":261000,"date":"2024-01-23","distance_m":50},{"price":1090000,"date":"2024-03-28","distance_m":50},{"price":231000,"date":"2024-03-29","distance_m":70},{"price":312500,"date":"2024-07-11","distance_m":70},{"price":666815,"date":"2024-06-25","distance_m":73}]},"risks":{"flood":0.31,"clay":0.23,"noise":0.53},"transport_score":96,"neighborhood":{"walk_score":91,"schools_500m":8,"income":43000,"velib_400m":9,"trees_150m":71,"amenities":{"food":18,"health":8,"green":2,"culture":6}},"rent":{"ref_m2":34,"max_m2":40.8,"min_m2":23.8,"quartier":"Saint-Germain-des-Prés","monthly_est":979},"investment":{"gross_yield":4.34,"net_yield":2.92,"ppm2_percentile":8,"negotiation_margin_pct":0.1,"dpe_risk_score":10,"value_add_flag":true},"pois":[{"type":"transport","lat":48.8530167679172,"lng":2.335502051727558,"label":"Mabillon · METRO 10"},{"type":"transport","lat":48.853718934000206,"lng":2.3337761382184676,"label":"Saint-Germain-des-Prés · METRO 4"},{"type":"transport","lat":48.852300763094235,"lng":2.3397277815930964,"label":"Odéon · METRO 4"},{"type":"transport","lat":48.85193594203498,"lng":2.340613006406504,"label":"Odéon · METRO 10"},{"type":"transport","lat":48.85316798489062,"lng":2.343285978923924,"label":"Saint-Michel · METRO 4"},{"type":"park","lat":48.85581098821477,"lng":2.335937364948714,"label":"JARDIN VISCONTI-ALICE SAUNIER SEITE"},{"type":"park","lat":48.85371512804107,"lng":2.334597522096189,"label":"SQUARE FELIX DESRUELLES"},{"type":"park","lat":48.85425852790087,"lng":2.333938934064321,"label":"SQUARE LAURENT PRACHE"},{"type":"velib","lat":48.855280175332,"lng":2.3375743255019,"label":"Jacques Callot - Mazarine"},{"type":"velib","lat":48.853305277595,"lng":2.3344654618827,"label":"Saint-Germain - Ciseaux"},{"type":"velib","lat":48.856451985396,"lng":2.3348518833518,"label":"Beaux-Arts - Bonaparte"},{"type":"velib","lat":48.85545136013941,"lng":2.3334722220897675,"label":"Saint-Benoît - Jacob"}],"dpe":{"energy_class":"G","ghg_class":"C"},"images":["https://images.unsplash.com/photo-1493809842364-78817add7ffb?w=1200&h=750&q=66&auto=format&fit=crop&crop=entropy","https://images.unsplash.com/photo-1505691938895-1758d7feb511?w=1200&h=750&q=66&auto=format&fit=crop&crop=entropy","https://images.unsplash.com/photo-1502005097973-6a7082348e28?w=1200&h=750&q=66&auto=format&fit=crop&crop=entropy","https://images.unsplash.com/photo-1484154218962-a197022b5858?w=1200&h=750&q=66&auto=format&fit=crop&crop=entropy","https://images.unsplash.com/photo-1560448204-e02f11c3d0e2?w=1200&h=750&q=66&auto=format&fit=crop&crop=entropy"],"thumb":"https://images.unsplash.com/photo-1493809842364-78817add7ffb?w=480&h=300&q=55&auto=format&fit=crop&crop=entropy","score":{"opportunity_score":73,"value_score":100,"yield_score":77,"negotiation_score":1,"liquidity_score":97,"gentrification_score":48},"signals":{"price_drops":0,"total_drop_percent":0,"long_time_on_market":false,"explanations":["2.9% net rental yield (gross 4.3%)","32.5% below DVF average (16 740 €/m²)","Cheaper than 92% of the arrondissement","3 days on market","Value-add: discount exceeds renovation cost (F/G arbitrage)"]},"source":"dvf","url":"https://app.dvf.etalab.gouv.fr/"}