{"id":"dvf-2024-1209081","address":{"raw":"38 Rue De La Sourdiere, 75001 Paris","normalized":"38 Rue de la Sourdière 75001 Paris","lat":48.866975,"lng":2.333044,"district":"75001"},"characteristics":{"surface_m2":40,"rooms":2,"floor":4},"pricing":{"current_price":540083,"price_per_m2":13502,"initial_price":540083},"timeline":{"first_seen":"2026-06-29","last_seen":"2026-07-01","days_on_market":2},"price_history":[{"date":"2026-06-29","price":540083,"source":"dvf"}],"status":"active","dvf":{"avg_price_m2_100m":14247,"avg_price_m2_500m":14556,"comparable_sales":[{"price":600350,"date":"2024-04-05","distance_m":4},{"price":341000,"date":"2024-12-16","distance_m":57},{"price":1169800,"date":"2024-05-24","distance_m":75},{"price":392000,"date":"2024-07-16","distance_m":84},{"price":1360000,"date":"2024-10-23","distance_m":108},{"price":447000,"date":"2024-01-03","distance_m":125},{"price":430000,"date":"2024-07-25","distance_m":127},{"price":564650,"date":"2024-04-30","distance_m":146}]},"risks":{"flood":0.17,"clay":0.29,"noise":0.42},"transport_score":100,"neighborhood":{"walk_score":61,"schools_500m":9,"income":36000,"velib_400m":12,"trees_150m":25,"amenities":{"food":19,"health":0,"green":1,"culture":1}},"rent":{"ref_m2":29.7,"max_m2":35.6,"min_m2":20.8,"quartier":"Place-Vendôme","monthly_est":1424},"investment":{"gross_yield":3.16,"net_yield":1.83,"ppm2_percentile":66,"negotiation_margin_pct":0.1,"dpe_risk_score":55,"value_add_flag":false},"pois":[{"type":"transport","lat":48.86590673959417,"lng":2.3341895419682497,"label":"Pyramides · METRO 14"},{"type":"transport","lat":48.86573786666654,"lng":2.3344377148655506,"label":"Pyramides · METRO 7"},{"type":"transport","lat":48.86993903518653,"lng":2.332592489355912,"label":"Opéra · METRO 7"},{"type":"transport","lat":48.86434377873392,"lng":2.330129877112862,"label":"Tuileries · METRO 1"},{"type":"transport","lat":48.869637996887164,"lng":2.3362327568689163,"label":"Quatre Septembre · METRO 3"},{"type":"park","lat":48.8679739908026,"lng":2.337574598692746,"label":"SQUARE LOUVOIS"},{"type":"park","lat":48.86709892848321,"lng":2.3387066699588135,"label":"JARDIN DE LA BIBLIOTHEQUE NATIONALE DE FRANCE"},{"type":"velib","lat":48.867643242297,"lng":2.3333894088864,"label":"Danielle Casanova - Opéra"},{"type":"velib","lat":48.866810653323,"lng":2.3343884482519,"label":"Ventadour - Opéra"},{"type":"velib","lat":48.866483514509,"lng":2.3344334212238,"label":"Thérèse - Opéra"},{"type":"velib","lat":48.868266498223,"lng":2.3304839059711,"label":"Danielle Casanova - Place Vendôme"}],"dpe":{"energy_class":"E","ghg_class":"B"},"images":["https://images.unsplash.com/photo-1540518614846-7eded433c457?w=1200&h=750&q=66&auto=format&fit=crop&crop=entropy","https://images.unsplash.com/photo-1554995207-c18c203602cb?w=1200&h=750&q=66&auto=format&fit=crop&crop=entropy","https://images.unsplash.com/photo-1560448204-e02f11c3d0e2?w=1200&h=750&q=66&auto=format&fit=crop&crop=entropy","https://images.unsplash.com/photo-1493663284031-b7e3aefcae8e?w=1200&h=750&q=66&auto=format&fit=crop&crop=entropy","https://images.unsplash.com/photo-1556912173-3bb406ef7e77?w=1200&h=750&q=66&auto=format&fit=crop&crop=entropy"],"thumb":"https://images.unsplash.com/photo-1540518614846-7eded433c457?w=480&h=300&q=55&auto=format&fit=crop&crop=entropy","score":{"opportunity_score":33,"value_score":65,"yield_score":21,"negotiation_score":0,"liquidity_score":84,"gentrification_score":45},"signals":{"price_drops":0,"total_drop_percent":0,"long_time_on_market":false,"explanations":["1.8% net rental yield (gross 3.2%)","6% below DVF average (14 371 €/m²)","2 days on market"]},"source":"dvf","url":"https://app.dvf.etalab.gouv.fr/"}