{"id":"dvf-2024-1228925","address":{"raw":"17 Rue De Belfort, 75011 Paris","normalized":"17 Rue de Belfort 75011 Paris","lat":48.856743,"lng":2.384094,"district":"75011"},"characteristics":{"surface_m2":24,"rooms":2,"floor":0},"pricing":{"current_price":399000,"price_per_m2":16625,"initial_price":399000},"timeline":{"first_seen":"2026-06-29","last_seen":"2026-07-02","days_on_market":3},"price_history":[{"date":"2026-06-29","price":399000,"source":"dvf"}],"status":"active","dvf":{"avg_price_m2_100m":9366,"avg_price_m2_500m":10012,"comparable_sales":[{"price":267150,"date":"2024-12-20","distance_m":29},{"price":450000,"date":"2024-09-25","distance_m":33},{"price":148000,"date":"2024-06-25","distance_m":39},{"price":372200,"date":"2024-07-11","distance_m":39},{"price":160000,"date":"2024-09-19","distance_m":39},{"price":360000,"date":"2024-10-24","distance_m":39},{"price":362500,"date":"2024-10-16","distance_m":39},{"price":170000,"date":"2024-01-31","distance_m":71}]},"risks":{"flood":0.09,"clay":0.29,"noise":0.35},"transport_score":81,"neighborhood":{"walk_score":85,"schools_500m":19,"income":30000,"velib_400m":8,"trees_150m":52,"amenities":{"food":26,"health":1,"green":4,"culture":6}},"rent":{"ref_m2":25.4,"max_m2":30.5,"min_m2":17.8,"quartier":"Roquette","monthly_est":732},"investment":{"gross_yield":2.2,"net_yield":0.93,"ppm2_percentile":96,"negotiation_margin_pct":0.1,"dpe_risk_score":55,"value_add_flag":false},"pois":[{"type":"transport","lat":48.855094494476994,"lng":2.3846997601328437,"label":"Charonne · METRO 9"},{"type":"transport","lat":48.85787849486676,"lng":2.3800206442479825,"label":"Voltaire · METRO 9"},{"type":"transport","lat":48.85806226176241,"lng":2.3908609523236084,"label":"Philippe Auguste · METRO 2"},{"type":"transport","lat":48.852168369650244,"lng":2.3896255399759547,"label":"Rue des Boulets · METRO 9"},{"type":"transport","lat":48.86218374787729,"lng":2.3878359564536575,"label":"Père Lachaise · METRO 2"},{"type":"park","lat":48.856682591663656,"lng":2.383435659595748,"label":"SQUARE JEAN ALLEMANE"},{"type":"park","lat":48.855890662388326,"lng":2.385562783674316,"label":"SQUARE EDMEE CHANDON"},{"type":"park","lat":48.85619897583923,"lng":2.380886390196503,"label":"SQUARE OLGA BANCIC"},{"type":"velib","lat":48.8563358,"lng":2.3829901,"label":"Belfort - Voltaire"},{"type":"velib","lat":48.858001906023,"lng":2.3817977026508,"label":"Roquette - Auguste Laurent"},{"type":"velib","lat":48.858688774063,"lng":2.3835539945715,"label":"Saint-Maur - Roquette"},{"type":"velib","lat":48.854284379935,"lng":2.3847674578428,"label":"Jules Vallès - Charonne"}],"dpe":{"energy_class":"E","ghg_class":"C"},"images":["https://images.unsplash.com/photo-1522708323590-d24dbb6b0267?w=1200&h=750&q=66&auto=format&fit=crop&crop=entropy","https://images.unsplash.com/photo-1493809842364-78817add7ffb?w=1200&h=750&q=66&auto=format&fit=crop&crop=entropy","https://images.unsplash.com/photo-1540518614846-7eded433c457?w=1200&h=750&q=66&auto=format&fit=crop&crop=entropy","https://images.unsplash.com/photo-1560448204-e02f11c3d0e2?w=1200&h=750&q=66&auto=format&fit=crop&crop=entropy","https://images.unsplash.com/photo-1554995207-c18c203602cb?w=1200&h=750&q=66&auto=format&fit=crop&crop=entropy"],"thumb":"https://images.unsplash.com/photo-1522708323590-d24dbb6b0267?w=480&h=300&q=55&auto=format&fit=crop&crop=entropy","score":{"opportunity_score":14,"value_score":4,"yield_score":0,"negotiation_score":1,"liquidity_score":79,"gentrification_score":45},"signals":{"price_drops":0,"total_drop_percent":0,"long_time_on_market":false,"explanations":["0.9% net rental yield (gross 2.2%)","72.7% above DVF average","3 days on market"]},"source":"dvf","url":"https://app.dvf.etalab.gouv.fr/"}