{"id":"dvf-2024-1228814","address":{"raw":"17 Rue De La Reine Blanche, 75013 Paris","normalized":"17 Rue de la Reine Blanche 75013 Paris","lat":48.836534,"lng":2.353916,"district":"75013"},"characteristics":{"surface_m2":62,"rooms":3,"floor":1},"pricing":{"current_price":603000,"price_per_m2":9726,"initial_price":603000},"timeline":{"first_seen":"2026-06-29","last_seen":"2026-07-02","days_on_market":3},"price_history":[{"date":"2026-06-29","price":603000,"source":"dvf"}],"status":"active","dvf":{"avg_price_m2_100m":10171,"avg_price_m2_500m":10476,"comparable_sales":[{"price":431650,"date":"2024-09-18","distance_m":25},{"price":185714,"date":"2024-12-16","distance_m":25},{"price":330000,"date":"2024-10-10","distance_m":43},{"price":528000,"date":"2024-01-31","distance_m":46},{"price":351730,"date":"2024-08-26","distance_m":46},{"price":215229,"date":"2024-03-06","distance_m":59},{"price":620000,"date":"2024-06-07","distance_m":59},{"price":404000,"date":"2024-05-21","distance_m":64}]},"risks":{"flood":0.06,"clay":0.38,"noise":0.4},"transport_score":100,"neighborhood":{"walk_score":64,"schools_500m":9,"income":27000,"velib_400m":5,"trees_150m":73,"amenities":{"food":27,"health":0,"green":1,"culture":0}},"rent":{"ref_m2":25,"max_m2":30,"min_m2":17.5,"quartier":"Salpêtrière","monthly_est":1860},"investment":{"gross_yield":3.7,"net_yield":2.33,"ppm2_percentile":74,"negotiation_margin_pct":0.1,"dpe_risk_score":55,"value_add_flag":false},"pois":[{"type":"transport","lat":48.83593030287887,"lng":2.3525422662627022,"label":"Les Gobelins · METRO 7"},{"type":"transport","lat":48.835152535740804,"lng":2.3585662563494667,"label":"Campo Formio · METRO 5"},{"type":"transport","lat":48.84023383632875,"lng":2.3516064753021904,"label":"Censier-Daubenton · METRO 7"},{"type":"transport","lat":48.83842729696758,"lng":2.360967167698855,"label":"Saint-Marcel · METRO 5"},{"type":"transport","lat":48.83143363013256,"lng":2.355643643033711,"label":"Place d'Italie · METRO 7"},{"type":"park","lat":48.83876418659765,"lng":2.353757908862067,"label":"SQUARE THEODORE MONOD"},{"type":"park","lat":48.83469613687367,"lng":2.3562863092413804,"label":"JARDIN YACINE KATEB"},{"type":"park","lat":48.834281146036524,"lng":2.3566954047881383,"label":"JARDIN PARTAGE DU BOULEVARD DE L'HOPITAL"},{"type":"velib","lat":48.835092787824,"lng":2.3534681351338,"label":"Le Brun - Gobelins"},{"type":"velib","lat":48.837135900263,"lng":2.3515201359987,"label":"Gobelins - Port-Royal"},{"type":"velib","lat":48.838151608087,"lng":2.3571084495564,"label":"Duméril - Jeanne d'Arc"},{"type":"velib","lat":48.835405,"lng":2.358218,"label":"Hôpital - Campo-Formio"}],"dpe":{"energy_class":"E","ghg_class":"D"},"images":["https://images.unsplash.com/photo-1484154218962-a197022b5858?w=1200&h=750&q=66&auto=format&fit=crop&crop=entropy","https://images.unsplash.com/photo-1522708323590-d24dbb6b0267?w=1200&h=750&q=66&auto=format&fit=crop&crop=entropy","https://images.unsplash.com/photo-1502005097973-6a7082348e28?w=1200&h=750&q=66&auto=format&fit=crop&crop=entropy","https://images.unsplash.com/photo-1554995207-c18c203602cb?w=1200&h=750&q=66&auto=format&fit=crop&crop=entropy","https://images.unsplash.com/photo-1493663284031-b7e3aefcae8e?w=1200&h=750&q=66&auto=format&fit=crop&crop=entropy"],"thumb":"https://images.unsplash.com/photo-1484154218962-a197022b5858?w=480&h=300&q=55&auto=format&fit=crop&crop=entropy","score":{"opportunity_score":38,"value_score":64,"yield_score":47,"negotiation_score":1,"liquidity_score":73,"gentrification_score":48},"signals":{"price_drops":0,"total_drop_percent":0,"long_time_on_market":false,"explanations":["2.3% net rental yield (gross 3.7%)","5.5% below DVF average (10 293 €/m²)","3 days on market"]},"source":"dvf","url":"https://app.dvf.etalab.gouv.fr/"}