{"id":"dvf-2024-1209993","address":{"raw":"34 Rue Poncelet, 75017 Paris","normalized":"34 Rue Poncelet 75017 Paris","lat":48.879783,"lng":2.298501,"district":"75017"},"characteristics":{"surface_m2":142,"rooms":5,"floor":0},"pricing":{"current_price":1529998,"price_per_m2":10775,"initial_price":1529998},"timeline":{"first_seen":"2026-06-29","last_seen":"2026-07-01","days_on_market":2},"price_history":[{"date":"2026-06-29","price":1529998,"source":"dvf"}],"status":"active","dvf":{"avg_price_m2_100m":11079,"avg_price_m2_500m":11691,"comparable_sales":[{"price":130000,"date":"2024-12-04","distance_m":19},{"price":303000,"date":"2024-04-29","distance_m":21},{"price":457000,"date":"2024-02-09","distance_m":30},{"price":571000,"date":"2024-06-04","distance_m":30},{"price":577000,"date":"2024-03-04","distance_m":36},{"price":614400,"date":"2024-06-20","distance_m":36},{"price":1315000,"date":"2024-06-17","distance_m":36},{"price":360000,"date":"2024-05-29","distance_m":44}]},"risks":{"flood":0.06,"clay":0.07,"noise":0.57},"transport_score":96,"neighborhood":{"walk_score":95,"schools_500m":9,"income":35000,"velib_400m":6,"trees_150m":107,"amenities":{"food":28,"health":6,"green":4,"culture":4}},"rent":{"ref_m2":24.7,"max_m2":29.6,"min_m2":17.3,"quartier":"Ternes","monthly_est":4203},"investment":{"gross_yield":3.3,"net_yield":1.95,"ppm2_percentile":58,"negotiation_margin_pct":0.1,"dpe_risk_score":10,"value_add_flag":false},"pois":[{"type":"transport","lat":48.87797270141956,"lng":2.2983103737615287,"label":"Ternes · METRO 2"},{"type":"transport","lat":48.87932978868225,"lng":2.3040703912187603,"label":"Courcelles · METRO 2"},{"type":"transport","lat":48.87514981972761,"lng":2.295904904713175,"label":"Charles De Gaulle-Étoile · METRO 1"},{"type":"transport","lat":48.884896255150515,"lng":2.2977243464801775,"label":"Pereire-Levallois · METRO 3"},{"type":"transport","lat":48.87481054112289,"lng":2.2958012223518693,"label":"Charles De Gaulle-Étoile · METRO 2"},{"type":"park","lat":48.88090849756162,"lng":2.293447067829303,"label":"SQUARE PIERRE DEMOURS"},{"type":"velib","lat":48.878438631226516,"lng":2.297727763652802,"label":"Place des Ternes."},{"type":"velib","lat":48.878199928923124,"lng":2.2992860188665043,"label":"Courcelles - Place des Ternes"},{"type":"velib","lat":48.881973298352,"lng":2.301132157445,"label":"Jouffroy d'Abbans - Wagram"},{"type":"velib","lat":48.8813072,"lng":2.294846,"label":"Pierre Demours - Laugier"}],"dpe":{"energy_class":"G","ghg_class":"C"},"images":["https://images.unsplash.com/photo-1493663284031-b7e3aefcae8e?w=1200&h=750&q=66&auto=format&fit=crop&crop=entropy","https://images.unsplash.com/photo-1556912173-3bb406ef7e77?w=1200&h=750&q=66&auto=format&fit=crop&crop=entropy","https://images.unsplash.com/photo-1554995207-c18c203602cb?w=1200&h=750&q=66&auto=format&fit=crop&crop=entropy","https://images.unsplash.com/photo-1493809842364-78817add7ffb?w=1200&h=750&q=66&auto=format&fit=crop&crop=entropy","https://images.unsplash.com/photo-1540518614846-7eded433c457?w=1200&h=750&q=66&auto=format&fit=crop&crop=entropy"],"thumb":"https://images.unsplash.com/photo-1493663284031-b7e3aefcae8e?w=480&h=300&q=55&auto=format&fit=crop&crop=entropy","score":{"opportunity_score":24,"value_score":62,"yield_score":28,"negotiation_score":0,"liquidity_score":71,"gentrification_score":55},"signals":{"price_drops":0,"total_drop_percent":0,"long_time_on_market":false,"explanations":["1.9% net rental yield (gross 3.3%)","4.8% below DVF average (11 324 €/m²)","2 days on market","Energy class G — rental restrictions apply"]},"source":"dvf","url":"https://app.dvf.etalab.gouv.fr/"}