{"id":"dvf-2024-1228629","address":{"raw":"54 Rue Merlin, 75011 Paris","normalized":"54 Rue Merlin 75011 Paris","lat":48.861833,"lng":2.38473,"district":"75011"},"characteristics":{"surface_m2":24,"rooms":2,"floor":1},"pricing":{"current_price":242800,"price_per_m2":10117,"initial_price":242800},"timeline":{"first_seen":"2026-06-29","last_seen":"2026-07-01","days_on_market":2},"price_history":[{"date":"2026-06-29","price":242800,"source":"dvf"}],"status":"active","dvf":{"avg_price_m2_100m":9957,"avg_price_m2_500m":10066,"comparable_sales":[{"price":137800,"date":"2024-12-11","distance_m":15},{"price":706750,"date":"2024-03-12","distance_m":24},{"price":702600,"date":"2024-05-06","distance_m":24},{"price":190000,"date":"2024-07-25","distance_m":24},{"price":295750,"date":"2024-10-17","distance_m":24},{"price":432500,"date":"2024-02-26","distance_m":25},{"price":1195000,"date":"2024-11-22","distance_m":25},{"price":598000,"date":"2024-12-27","distance_m":25}]},"risks":{"flood":0.08,"clay":0.35,"noise":0.49},"transport_score":99,"neighborhood":{"walk_score":83,"schools_500m":26,"income":30000,"velib_400m":5,"trees_150m":95,"amenities":{"food":26,"health":9,"green":2,"culture":1}},"rent":{"ref_m2":25.4,"max_m2":30.5,"min_m2":17.8,"quartier":"Roquette","monthly_est":732},"investment":{"gross_yield":3.62,"net_yield":2.25,"ppm2_percentile":34,"negotiation_margin_pct":0.1,"dpe_risk_score":75,"value_add_flag":false},"pois":[{"type":"transport","lat":48.86312321464208,"lng":2.3858824493261475,"label":"Père Lachaise · METRO 3"},{"type":"transport","lat":48.86218374787729,"lng":2.3878359564536575,"label":"Père Lachaise · METRO 2"},{"type":"transport","lat":48.864285758645295,"lng":2.379741893177554,"label":"Rue Saint-Maur · METRO 3"},{"type":"transport","lat":48.866446806067,"lng":2.383599109573657,"label":"Ménilmontant · METRO 2"},{"type":"transport","lat":48.85787849486676,"lng":2.3800206442479825,"label":"Voltaire · METRO 9"},{"type":"park","lat":48.86030200275757,"lng":2.384612073920467,"label":"JARDIN PARTAGE DU SQUARE DE LA ROQUETTE"},{"type":"park","lat":48.85968200657181,"lng":2.3846683511129285,"label":"SQUARE DE LA ROQUETTE"},{"type":"park","lat":48.86364551991712,"lng":2.389154799534925,"label":"SQUARE JACQUES GRYNBERG"},{"type":"velib","lat":48.863287291502,"lng":2.3869940266013,"label":"Ménilmontant - Père Lachaise"},{"type":"velib","lat":48.86112461407359,"lng":2.381299026310444,"label":"Chemin Vert - Saint-Maur"},{"type":"velib","lat":48.859246959155,"lng":2.3865536235787,"label":"Roquette - Folie Regnault"},{"type":"velib","lat":48.863825174341,"lng":2.380906377155,"label":"Guillaume Bertrand - République"}],"dpe":{"energy_class":"D","ghg_class":"B"},"images":["https://images.unsplash.com/photo-1493663284031-b7e3aefcae8e?w=1200&h=750&q=66&auto=format&fit=crop&crop=entropy","https://images.unsplash.com/photo-1502005097973-6a7082348e28?w=1200&h=750&q=66&auto=format&fit=crop&crop=entropy","https://images.unsplash.com/photo-1540518614846-7eded433c457?w=1200&h=750&q=66&auto=format&fit=crop&crop=entropy","https://images.unsplash.com/photo-1522708323590-d24dbb6b0267?w=1200&h=750&q=66&auto=format&fit=crop&crop=entropy","https://images.unsplash.com/photo-1556912173-3bb406ef7e77?w=1200&h=750&q=66&auto=format&fit=crop&crop=entropy"],"thumb":"https://images.unsplash.com/photo-1493663284031-b7e3aefcae8e?w=480&h=300&q=55&auto=format&fit=crop&crop=entropy","score":{"opportunity_score":43,"value_score":66,"yield_score":43,"negotiation_score":0,"liquidity_score":83,"gentrification_score":45},"signals":{"price_drops":0,"total_drop_percent":0,"long_time_on_market":false,"explanations":["2.3% net rental yield (gross 3.6%)","1.2% above DVF average","Cheaper than 66% of the arrondissement","2 days on market"]},"source":"dvf","url":"https://app.dvf.etalab.gouv.fr/"}