{"id":"dvf-2024-1208205","address":{"raw":"78 Rue St Louis En L Ile, 75004 Paris","normalized":"78 Rue Saint-Louis en l'Ile 75004 Paris","lat":48.852579,"lng":2.35461,"district":"75004"},"characteristics":{"surface_m2":22,"rooms":1,"floor":2},"pricing":{"current_price":327800,"price_per_m2":14900,"initial_price":327800},"timeline":{"first_seen":"2026-06-29","last_seen":"2026-07-02","days_on_market":3},"price_history":[{"date":"2026-06-29","price":327800,"source":"dvf"}],"status":"active","dvf":{"avg_price_m2_100m":13760,"avg_price_m2_500m":14260,"comparable_sales":[{"price":560000,"date":"2024-11-05","distance_m":11},{"price":357800,"date":"2024-05-03","distance_m":21},{"price":455000,"date":"2024-04-10","distance_m":25},{"price":180000,"date":"2024-12-11","distance_m":31},{"price":880000,"date":"2024-03-29","distance_m":33},{"price":247500,"date":"2024-06-04","distance_m":33},{"price":465000,"date":"2024-03-28","distance_m":36},{"price":270000,"date":"2024-10-16","distance_m":36}]},"risks":{"flood":0.87,"clay":0.33,"noise":0.45},"transport_score":95,"neighborhood":{"walk_score":46,"schools_500m":10,"income":38000,"velib_400m":6,"trees_150m":25,"amenities":{"food":3,"health":2,"green":2,"culture":1}},"rent":{"ref_m2":34,"max_m2":40.8,"min_m2":23.8,"quartier":"Notre-Dame","monthly_est":898},"investment":{"gross_yield":3.29,"net_yield":1.94,"ppm2_percentile":86,"negotiation_margin_pct":0.1,"dpe_risk_score":75,"value_add_flag":false},"pois":[{"type":"transport","lat":48.85357547250359,"lng":2.357162571618337,"label":"Pont Marie · METRO 7"},{"type":"transport","lat":48.85162059096899,"lng":2.3615249655078383,"label":"Sully-Morland · METRO 7"},{"type":"transport","lat":48.85008987805251,"lng":2.3482087741854687,"label":"Maubert-Mutualité · METRO 10"},{"type":"transport","lat":48.85523625280238,"lng":2.360956490023829,"label":"Saint-Paul · METRO 1"},{"type":"transport","lat":48.857477982529346,"lng":2.3515775629949967,"label":"Hôtel de Ville · METRO 1"},{"type":"park","lat":48.852028944577135,"lng":2.35221926355071,"label":"SQUARE DE L'ILE DE FRANCE"},{"type":"park","lat":48.854530255258496,"lng":2.3530025625519264,"label":"PARC DES RIVES DE SEINE"},{"type":"park","lat":48.85239470225956,"lng":2.350805065661851,"label":"SQUARE JEAN XXIII"},{"type":"velib","lat":48.852915956209,"lng":2.3521957173944,"label":"Quai aux Fleurs - Pont Saint-Louis"},{"type":"velib","lat":48.85097433194,"lng":2.3563072085381,"label":"Quai de Béthune - Pont de la Tournelle"},{"type":"velib","lat":48.853899645527,"lng":2.3569472506642,"label":"Hôtel de Ville - Pont-Marie"},{"type":"velib","lat":48.850458009188,"lng":2.3524542754922,"label":"Pontoise - La Tournelle"}],"dpe":{"energy_class":"D","ghg_class":"B"},"images":["https://images.unsplash.com/photo-1556912173-3bb406ef7e77?w=1200&h=750&q=66&auto=format&fit=crop&crop=entropy","https://images.unsplash.com/photo-1554995207-c18c203602cb?w=1200&h=750&q=66&auto=format&fit=crop&crop=entropy","https://images.unsplash.com/photo-1493663284031-b7e3aefcae8e?w=1200&h=750&q=66&auto=format&fit=crop&crop=entropy","https://images.unsplash.com/photo-1567496898669-ee935f5f647a?w=1200&h=750&q=66&auto=format&fit=crop&crop=entropy","https://images.unsplash.com/photo-1505691938895-1758d7feb511?w=1200&h=750&q=66&auto=format&fit=crop&crop=entropy"],"thumb":"https://images.unsplash.com/photo-1556912173-3bb406ef7e77?w=480&h=300&q=55&auto=format&fit=crop&crop=entropy","score":{"opportunity_score":31,"value_score":33,"yield_score":27,"negotiation_score":1,"liquidity_score":85,"gentrification_score":45},"signals":{"price_drops":0,"total_drop_percent":0,"long_time_on_market":false,"explanations":["1.9% net rental yield (gross 3.3%)","6.7% above DVF average","3 days on market"]},"source":"dvf","url":"https://app.dvf.etalab.gouv.fr/"}