{"id":"dvf-2024-1208063","address":{"raw":"5 Rue Moliere, 75001 Paris","normalized":"5 Rue Molière 75001 Paris","lat":48.864869,"lng":2.33555,"district":"75001"},"characteristics":{"surface_m2":22,"rooms":1,"floor":0},"pricing":{"current_price":197000,"price_per_m2":8955,"initial_price":197000},"timeline":{"first_seen":"2026-06-29","last_seen":"2026-07-02","days_on_market":3},"price_history":[{"date":"2026-06-29","price":197000,"source":"dvf"}],"status":"active","dvf":{"avg_price_m2_100m":14623,"avg_price_m2_500m":14397,"comparable_sales":[{"price":554500,"date":"2024-03-15","distance_m":29},{"price":400000,"date":"2024-03-15","distance_m":31},{"price":496183,"date":"2024-04-18","distance_m":31},{"price":245000,"date":"2024-03-19","distance_m":47},{"price":428571,"date":"2024-10-17","distance_m":52},{"price":895470,"date":"2024-03-28","distance_m":64},{"price":2536204,"date":"2024-02-01","distance_m":68},{"price":494235,"date":"2024-03-29","distance_m":77}]},"risks":{"flood":0.17,"clay":0.12,"noise":0.5},"transport_score":100,"neighborhood":{"walk_score":63,"schools_500m":7,"income":36000,"velib_400m":11,"trees_150m":10,"amenities":{"food":12,"health":6,"green":1,"culture":2}},"rent":{"ref_m2":34,"max_m2":40.8,"min_m2":23.8,"quartier":"Palais-Royal","monthly_est":898},"investment":{"gross_yield":5.47,"net_yield":3.97,"ppm2_percentile":4,"negotiation_margin_pct":0.1,"dpe_risk_score":75,"value_add_flag":false},"pois":[{"type":"transport","lat":48.86573786666654,"lng":2.3344377148655506,"label":"Pyramides · METRO 7"},{"type":"transport","lat":48.86590673959417,"lng":2.3341895419682497,"label":"Pyramides · METRO 14"},{"type":"transport","lat":48.86282967190577,"lng":2.3368784003341996,"label":"Palais Royal - Musée du Louvre · METRO 7"},{"type":"transport","lat":48.86234803084025,"lng":2.3364964609424774,"label":"Palais Royal - Musée du Louvre · METRO 1"},{"type":"transport","lat":48.86434377873392,"lng":2.330129877112862,"label":"Tuileries · METRO 1"},{"type":"park","lat":48.86709892848321,"lng":2.3387066699588135,"label":"JARDIN DE LA BIBLIOTHEQUE NATIONALE DE FRANCE"},{"type":"park","lat":48.863316922776185,"lng":2.3399238004101486,"label":"JARDINET PLACE DU LT HENRI KARCHER"},{"type":"park","lat":48.8679739908026,"lng":2.337574598692746,"label":"SQUARE LOUVOIS"},{"type":"velib","lat":48.863925158727,"lng":2.3356226831675,"label":"Place André Malraux"},{"type":"velib","lat":48.863443132848,"lng":2.3348781846405,"label":"Saint-Honoré - Musée du Louvre"},{"type":"velib","lat":48.86364636851945,"lng":2.33409583568573,"label":"Rivoli - Musée du Louvre"},{"type":"velib","lat":48.866483514509,"lng":2.3344334212238,"label":"Thérèse - Opéra"}],"dpe":{"energy_class":"D","ghg_class":"B"},"images":["https://images.unsplash.com/photo-1502672260266-1c1ef2d93688?w=1200&h=750&q=66&auto=format&fit=crop&crop=entropy","https://images.unsplash.com/photo-1484154218962-a197022b5858?w=1200&h=750&q=66&auto=format&fit=crop&crop=entropy","https://images.unsplash.com/photo-1560448204-e02f11c3d0e2?w=1200&h=750&q=66&auto=format&fit=crop&crop=entropy","https://images.unsplash.com/photo-1556912173-3bb406ef7e77?w=1200&h=750&q=66&auto=format&fit=crop&crop=entropy","https://images.unsplash.com/photo-1493809842364-78817add7ffb?w=1200&h=750&q=66&auto=format&fit=crop&crop=entropy"],"thumb":"https://images.unsplash.com/photo-1502672260266-1c1ef2d93688?w=480&h=300&q=55&auto=format&fit=crop&crop=entropy","score":{"opportunity_score":68,"value_score":100,"yield_score":100,"negotiation_score":1,"liquidity_score":88,"gentrification_score":45},"signals":{"price_drops":0,"total_drop_percent":0,"long_time_on_market":false,"explanations":["4.0% net rental yield (gross 5.5%)","38.4% below DVF average (14 533 €/m²)","Cheaper than 96% of the arrondissement","3 days on market"]},"source":"dvf","url":"https://app.dvf.etalab.gouv.fr/"}