{"id":"dvf-2024-1229314","address":{"raw":"288 Rue De Vaugirard, 75015 Paris","normalized":"288 Rue de Vaugirard 75015 Paris","lat":48.838543,"lng":2.298648,"district":"75015"},"characteristics":{"surface_m2":14,"rooms":1,"floor":1},"pricing":{"current_price":160000,"price_per_m2":11429,"initial_price":160000},"timeline":{"first_seen":"2026-06-29","last_seen":"2026-07-02","days_on_market":3},"price_history":[{"date":"2026-06-29","price":160000,"source":"dvf"}],"status":"active","dvf":{"avg_price_m2_100m":9563,"avg_price_m2_500m":9716,"comparable_sales":[{"price":605000,"date":"2024-01-05","distance_m":13},{"price":175000,"date":"2024-02-07","distance_m":25},{"price":285000,"date":"2024-03-11","distance_m":25},{"price":210300,"date":"2024-06-19","distance_m":25},{"price":109380,"date":"2024-08-22","distance_m":25},{"price":118000,"date":"2024-03-06","distance_m":29},{"price":348500,"date":"2024-05-07","distance_m":36},{"price":903000,"date":"2024-01-09","distance_m":37}]},"risks":{"flood":0.07,"clay":0.21,"noise":0.48},"transport_score":72,"neighborhood":{"walk_score":80,"schools_500m":14,"income":33000,"velib_400m":5,"trees_150m":17,"amenities":{"food":26,"health":7,"green":3,"culture":2}},"rent":{"ref_m2":28.3,"max_m2":34,"min_m2":19.8,"quartier":"Saint-Lambert","monthly_est":476},"investment":{"gross_yield":3.57,"net_yield":2.2,"ppm2_percentile":82,"negotiation_margin_pct":0.1,"dpe_risk_score":75,"value_add_flag":false},"pois":[{"type":"transport","lat":48.839516585402485,"lng":2.3011075162423964,"label":"Vaugirard · METRO 12"},{"type":"transport","lat":48.837099428223645,"lng":2.296231386803389,"label":"Convention · METRO 12"},{"type":"transport","lat":48.84274677979288,"lng":2.2919124133178745,"label":"Félix Faure · METRO 8"},{"type":"park","lat":48.83990417252549,"lng":2.2979771793222143,"label":"SQUARE GERBERT - BLOMET"},{"type":"park","lat":48.84019189579332,"lng":2.3006193513336326,"label":"SQUARE JEAN CHERIOUX"},{"type":"park","lat":48.84135883865651,"lng":2.2993907899750736,"label":"JARDINET DU MONUMENT AUX MORTS DE LA MAIRIE DU 15EME"},{"type":"velib","lat":48.83959442800459,"lng":2.3010657727718353,"label":"Place Adolphe Cherioux - Vaugirard"},{"type":"velib","lat":48.837676822332,"lng":2.2955869260203,"label":"Convention - Vaugirard"},{"type":"velib","lat":48.84044,"lng":2.294867,"label":"Charles Lecocq - Lecourbe"},{"type":"velib","lat":48.8417762,"lng":2.2986539,"label":"Mairie du 15ème"}],"dpe":{"energy_class":"D","ghg_class":"B"},"images":["https://images.unsplash.com/photo-1540518614846-7eded433c457?w=1200&h=750&q=66&auto=format&fit=crop&crop=entropy","https://images.unsplash.com/photo-1522708323590-d24dbb6b0267?w=1200&h=750&q=66&auto=format&fit=crop&crop=entropy","https://images.unsplash.com/photo-1567496898669-ee935f5f647a?w=1200&h=750&q=66&auto=format&fit=crop&crop=entropy","https://images.unsplash.com/photo-1560448204-e02f11c3d0e2?w=1200&h=750&q=66&auto=format&fit=crop&crop=entropy","https://images.unsplash.com/photo-1556912173-3bb406ef7e77?w=1200&h=750&q=66&auto=format&fit=crop&crop=entropy"],"thumb":"https://images.unsplash.com/photo-1540518614846-7eded433c457?w=480&h=300&q=55&auto=format&fit=crop&crop=entropy","score":{"opportunity_score":30,"value_score":18,"yield_score":41,"negotiation_score":1,"liquidity_score":76,"gentrification_score":52},"signals":{"price_drops":0,"total_drop_percent":0,"long_time_on_market":false,"explanations":["2.2% net rental yield (gross 3.6%)","18.8% above DVF average","3 days on market"]},"source":"dvf","url":"https://app.dvf.etalab.gouv.fr/"}