{"id":"dvf-2024-1229352","address":{"raw":"3 Rue De Madagascar, 75012 Paris","normalized":"3 Rue de Madagascar 75012 Paris","lat":48.834791,"lng":2.397036,"district":"75012"},"characteristics":{"surface_m2":24,"rooms":2,"floor":4},"pricing":{"current_price":258000,"price_per_m2":10750,"initial_price":258000},"timeline":{"first_seen":"2026-06-29","last_seen":"2026-07-01","days_on_market":2},"price_history":[{"date":"2026-06-29","price":258000,"source":"dvf"}],"status":"active","dvf":{"avg_price_m2_100m":8970,"avg_price_m2_500m":8871,"comparable_sales":[{"price":351070,"date":"2024-03-28","distance_m":17},{"price":255000,"date":"2024-03-26","distance_m":17},{"price":347250,"date":"2024-01-05","distance_m":25},{"price":245000,"date":"2024-06-25","distance_m":36},{"price":210000,"date":"2024-03-19","distance_m":52},{"price":305500,"date":"2024-07-11","distance_m":52},{"price":229000,"date":"2024-07-18","distance_m":64},{"price":362000,"date":"2024-02-09","distance_m":72}]},"risks":{"flood":0.3,"clay":0.19,"noise":0.38},"transport_score":88,"neighborhood":{"walk_score":64,"schools_500m":10,"income":31000,"velib_400m":4,"trees_150m":53,"amenities":{"food":9,"health":3,"green":2,"culture":2}},"rent":{"ref_m2":24.6,"max_m2":29.5,"min_m2":17.2,"quartier":"Picpus","monthly_est":708},"investment":{"gross_yield":3.29,"net_yield":1.95,"ppm2_percentile":88,"negotiation_margin_pct":0.1,"dpe_risk_score":10,"value_add_flag":false},"pois":[{"type":"transport","lat":48.83199308710852,"lng":2.398350103858007,"label":"Porte de Charenton · TRAM 3a"},{"type":"transport","lat":48.83273670175476,"lng":2.400310403025077,"label":"Porte de Charenton · METRO 8"},{"type":"transport","lat":48.83711700698872,"lng":2.4023331645551855,"label":"Michel Bizot · METRO 8"},{"type":"transport","lat":48.83944542837951,"lng":2.3961828864526327,"label":"Daumesnil · METRO 8"},{"type":"transport","lat":48.83954964556868,"lng":2.3957032894363937,"label":"Daumesnil · METRO 6"},{"type":"park","lat":48.832746777620436,"lng":2.3975367064466298,"label":"CIMETIERE DE BERCY"},{"type":"park","lat":48.83414083315834,"lng":2.4013588715879775,"label":"PROMENADE PC 12 - CHARENTON - DAUMESNIL"},{"type":"park","lat":48.83388094974647,"lng":2.4013006246372437,"label":"JARDIN PARTAGE DE LA RUE CLAUDE DECAEN"},{"type":"velib","lat":48.83460464474706,"lng":2.3970650508999825,"label":"Madagascar - Meuniers"},{"type":"velib","lat":48.834812629825,"lng":2.4009277881277,"label":"Général Michel Bizot - Claude Decaen"},{"type":"velib","lat":48.835478791995,"lng":2.392894725661,"label":"Nicolaï - Charenton"},{"type":"velib","lat":48.83761417037952,"lng":2.397253782195704,"label":"Claude Decaen - Cannebière"}],"dpe":{"energy_class":"G","ghg_class":"C"},"images":["https://images.unsplash.com/photo-1540518614846-7eded433c457?w=1200&h=750&q=66&auto=format&fit=crop&crop=entropy","https://images.unsplash.com/photo-1554995207-c18c203602cb?w=1200&h=750&q=66&auto=format&fit=crop&crop=entropy","https://images.unsplash.com/photo-1502005097973-6a7082348e28?w=1200&h=750&q=66&auto=format&fit=crop&crop=entropy","https://images.unsplash.com/photo-1505691938895-1758d7feb511?w=1200&h=750&q=66&auto=format&fit=crop&crop=entropy","https://images.unsplash.com/photo-1556912173-3bb406ef7e77?w=1200&h=750&q=66&auto=format&fit=crop&crop=entropy"],"thumb":"https://images.unsplash.com/photo-1540518614846-7eded433c457?w=480&h=300&q=55&auto=format&fit=crop&crop=entropy","score":{"opportunity_score":16,"value_score":12,"yield_score":28,"negotiation_score":0,"liquidity_score":76,"gentrification_score":52},"signals":{"price_drops":0,"total_drop_percent":0,"long_time_on_market":false,"explanations":["1.9% net rental yield (gross 3.3%)","20.4% above DVF average","2 days on market","Energy class G — rental restrictions apply"]},"source":"dvf","url":"https://app.dvf.etalab.gouv.fr/"}