{"id":"dvf-2024-1209352","address":{"raw":"80 Rue Doudeauville, 75018 Paris","normalized":"80 Rue Doudeauville 75018 Paris","lat":48.88837,"lng":2.351054,"district":"75018"},"characteristics":{"surface_m2":14,"rooms":1,"floor":2},"pricing":{"current_price":110000,"price_per_m2":7857,"initial_price":110000},"timeline":{"first_seen":"2026-06-29","last_seen":"2026-07-02","days_on_market":3},"price_history":[{"date":"2026-06-29","price":110000,"source":"dvf"}],"status":"active","dvf":{"avg_price_m2_100m":7455,"avg_price_m2_500m":8702,"comparable_sales":[{"price":447460,"date":"2024-05-17","distance_m":27},{"price":450000,"date":"2024-06-27","distance_m":35},{"price":104000,"date":"2024-04-18","distance_m":52},{"price":107800,"date":"2024-04-26","distance_m":54},{"price":687000,"date":"2024-06-28","distance_m":54},{"price":263000,"date":"2024-08-14","distance_m":54},{"price":168128,"date":"2024-04-30","distance_m":68},{"price":110000,"date":"2024-05-21","distance_m":68}]},"risks":{"flood":0.05,"clay":0.36,"noise":0.45},"transport_score":95,"neighborhood":{"walk_score":87,"schools_500m":19,"income":26000,"velib_400m":8,"trees_150m":137,"amenities":{"food":18,"health":5,"green":3,"culture":3}},"rent":{"ref_m2":28,"max_m2":33.6,"min_m2":19.6,"quartier":"Clignancourt","monthly_est":470},"investment":{"gross_yield":5.13,"net_yield":3.66,"ppm2_percentile":32,"negotiation_margin_pct":0.1,"dpe_risk_score":55,"value_add_flag":false},"pois":[{"type":"transport","lat":48.88671096804134,"lng":2.349559430194618,"label":"Château Rouge · METRO 4"},{"type":"transport","lat":48.89146500033268,"lng":2.3498154532183615,"label":"Marcadet-Poissonniers · METRO 12"},{"type":"transport","lat":48.89143955488239,"lng":2.349627158227453,"label":"Marcadet-Poissonniers · METRO 4"},{"type":"transport","lat":48.88380394240113,"lng":2.3506129993253224,"label":"Barbès-Rochechouart · METRO 2"},{"type":"transport","lat":48.8834180885266,"lng":2.349674832582202,"label":"Barbès-Rochechouart · METRO 4"},{"type":"park","lat":48.88615897836839,"lng":2.3508632074983677,"label":"JARDIN PARTAGE DE LA RUE RICHOMME"},{"type":"park","lat":48.88615781966764,"lng":2.35338898396052,"label":"SQUARE DU PASSAGE LEON"},{"type":"park","lat":48.885678177377486,"lng":2.351899739332651,"label":"JARDIN PARTAGE DE LA RUE POLONCEAU"},{"type":"velib","lat":48.888324218452,"lng":2.3535733726386,"label":"Léon - Doudeauville"},{"type":"velib","lat":48.88667396788626,"lng":2.353205569088459,"label":"Square Léon"},{"type":"velib","lat":48.890451120965,"lng":2.3490573929687,"label":"Marcadet - Barbès"},{"type":"velib","lat":48.888735896947,"lng":2.3469526693225,"label":"Custine - Ramey"}],"dpe":{"energy_class":"E","ghg_class":"E"},"images":["https://images.unsplash.com/photo-1502005097973-6a7082348e28?w=1200&h=750&q=66&auto=format&fit=crop&crop=entropy","https://images.unsplash.com/photo-1484154218962-a197022b5858?w=1200&h=750&q=66&auto=format&fit=crop&crop=entropy","https://images.unsplash.com/photo-1540518614846-7eded433c457?w=1200&h=750&q=66&auto=format&fit=crop&crop=entropy","https://images.unsplash.com/photo-1505691938895-1758d7feb511?w=1200&h=750&q=66&auto=format&fit=crop&crop=entropy","https://images.unsplash.com/photo-1567496898669-ee935f5f647a?w=1200&h=750&q=66&auto=format&fit=crop&crop=entropy"],"thumb":"https://images.unsplash.com/photo-1502005097973-6a7082348e28?w=480&h=300&q=55&auto=format&fit=crop&crop=entropy","score":{"opportunity_score":52,"value_score":68,"yield_score":100,"negotiation_score":1,"liquidity_score":80,"gentrification_score":44},"signals":{"price_drops":0,"total_drop_percent":0,"long_time_on_market":false,"explanations":["3.7% net rental yield (gross 5.1%)","1.2% below DVF average (7 954 €/m²)","Cheaper than 68% of the arrondissement","3 days on market"]},"source":"dvf","url":"https://app.dvf.etalab.gouv.fr/"}