{"id":"dvf-2024-1209716","address":{"raw":"34 B Rue D Aubervilliers, 75019 Paris","normalized":"34b Rue d'Aubervilliers 75019 Paris","lat":48.886019,"lng":2.366386,"district":"75019"},"characteristics":{"surface_m2":30,"rooms":2,"floor":3},"pricing":{"current_price":262000,"price_per_m2":8733,"initial_price":262000},"timeline":{"first_seen":"2026-06-29","last_seen":"2026-07-02","days_on_market":3},"price_history":[{"date":"2026-06-29","price":262000,"source":"dvf"}],"status":"active","dvf":{"avg_price_m2_100m":6798,"avg_price_m2_500m":8231,"comparable_sales":[{"price":325000,"date":"2024-02-22","distance_m":20},{"price":195000,"date":"2024-04-16","distance_m":20},{"price":180000,"date":"2024-11-20","distance_m":20},{"price":248820,"date":"2024-09-02","distance_m":51},{"price":180000,"date":"2024-11-19","distance_m":51},{"price":180000,"date":"2024-01-23","distance_m":59},{"price":160000,"date":"2024-03-04","distance_m":59},{"price":117000,"date":"2024-01-30","distance_m":70}]},"risks":{"flood":0.02,"clay":0.22,"noise":0.58},"transport_score":97,"neighborhood":{"walk_score":85,"schools_500m":18,"income":23000,"velib_400m":5,"trees_150m":114,"amenities":{"food":17,"health":9,"green":3,"culture":0}},"rent":{"ref_m2":23.4,"max_m2":28.1,"min_m2":16.4,"quartier":"Villette","monthly_est":843},"investment":{"gross_yield":3.86,"net_yield":2.48,"ppm2_percentile":52,"negotiation_margin_pct":0.1,"dpe_risk_score":55,"value_add_flag":false},"pois":[{"type":"transport","lat":48.88428415025653,"lng":2.365821546282089,"label":"Stalingrad · METRO 2"},{"type":"transport","lat":48.88432566304799,"lng":2.3673720385654686,"label":"Stalingrad · METRO 5"},{"type":"transport","lat":48.88479825198408,"lng":2.36958085557783,"label":"Stalingrad · METRO 7"},{"type":"transport","lat":48.8843996770653,"lng":2.360399500808732,"label":"La Chapelle · METRO 2"},{"type":"transport","lat":48.88246524557207,"lng":2.370157961739611,"label":"Jaurès · METRO 7bis"},{"type":"park","lat":48.886072559838944,"lng":2.3659861399811057,"label":"FERME PEDAGOGIQUE DES JARDINS D EOLE"},{"type":"park","lat":48.88458503435804,"lng":2.365567525732703,"label":"JARDIN PARTAGE 238-240 BOULEVARD DE LA VILLETTE"},{"type":"park","lat":48.88759642912773,"lng":2.366209229832536,"label":"JARDIN D'EOLE"},{"type":"velib","lat":48.8869703,"lng":2.3668488,"label":"Jardins d'Eole"},{"type":"velib","lat":48.8862524447104,"lng":2.3689296841621403,"label":"Tanger - Place du Maroc"},{"type":"velib","lat":48.883886063895,"lng":2.367198803315,"label":"Aqueduc - Villette"},{"type":"velib","lat":48.884492238408,"lng":2.3703941702843,"label":"Quai de la Seine"}],"dpe":{"energy_class":"E","ghg_class":"C"},"images":["https://images.unsplash.com/photo-1556912173-3bb406ef7e77?w=1200&h=750&q=66&auto=format&fit=crop&crop=entropy","https://images.unsplash.com/photo-1484154218962-a197022b5858?w=1200&h=750&q=66&auto=format&fit=crop&crop=entropy","https://images.unsplash.com/photo-1502672260266-1c1ef2d93688?w=1200&h=750&q=66&auto=format&fit=crop&crop=entropy","https://images.unsplash.com/photo-1505691938895-1758d7feb511?w=1200&h=750&q=66&auto=format&fit=crop&crop=entropy","https://images.unsplash.com/photo-1522708323590-d24dbb6b0267?w=1200&h=750&q=66&auto=format&fit=crop&crop=entropy"],"thumb":"https://images.unsplash.com/photo-1556912173-3bb406ef7e77?w=480&h=300&q=55&auto=format&fit=crop&crop=entropy","score":{"opportunity_score":37,"value_score":48,"yield_score":55,"negotiation_score":1,"liquidity_score":77,"gentrification_score":45},"signals":{"price_drops":0,"total_drop_percent":0,"long_time_on_market":false,"explanations":["2.5% net rental yield (gross 3.9%)","18.5% above DVF average","3 days on market"]},"source":"dvf","url":"https://app.dvf.etalab.gouv.fr/"}