{"id":"dvf-2024-1209749","address":{"raw":"5 Rue Pierre Chausson, 75010 Paris","normalized":"5 Rue Pierre Chausson 75010 Paris","lat":48.870613,"lng":2.36036,"district":"75010"},"characteristics":{"surface_m2":94,"rooms":4,"floor":6},"pricing":{"current_price":1007230,"price_per_m2":10715,"initial_price":1007230},"timeline":{"first_seen":"2026-06-29","last_seen":"2026-07-01","days_on_market":2},"price_history":[{"date":"2026-06-29","price":1007230,"source":"dvf"}],"status":"active","dvf":{"avg_price_m2_100m":10199,"avg_price_m2_500m":10290,"comparable_sales":[{"price":185000,"date":"2024-07-26","distance_m":38},{"price":370000,"date":"2024-08-06","distance_m":38},{"price":242000,"date":"2024-09-23","distance_m":38},{"price":245000,"date":"2024-09-24","distance_m":38},{"price":230000,"date":"2024-12-30","distance_m":38},{"price":1120000,"date":"2024-06-13","distance_m":46},{"price":760000,"date":"2024-02-22","distance_m":61},{"price":346520,"date":"2024-04-19","distance_m":61}]},"risks":{"flood":0.09,"clay":0.3,"noise":0.75},"transport_score":100,"neighborhood":{"walk_score":89,"schools_500m":8,"income":29000,"velib_400m":7,"trees_150m":99,"amenities":{"food":20,"health":5,"green":2,"culture":7}},"rent":{"ref_m2":22.3,"max_m2":26.8,"min_m2":15.6,"quartier":"Porte-Saint-Martin","monthly_est":2519},"investment":{"gross_yield":3,"net_yield":1.68,"ppm2_percentile":76,"negotiation_margin_pct":0.1,"dpe_risk_score":88,"value_add_flag":false},"pois":[{"type":"transport","lat":48.87039638922484,"lng":2.3614002104327776,"label":"Jacques Bonsergent · METRO 5"},{"type":"transport","lat":48.86778030055016,"lng":2.3629287001561123,"label":"République · METRO 9"},{"type":"transport","lat":48.867600880102444,"lng":2.3627573800027633,"label":"République · METRO 8"},{"type":"transport","lat":48.87262083992817,"lng":2.356153947450339,"label":"Château d'Eau · METRO 4"},{"type":"transport","lat":48.86782709972698,"lng":2.3637404371950392,"label":"République · METRO 5"},{"type":"park","lat":48.872538121101215,"lng":2.3613590780735745,"label":"JARDINET DE LA RUE LEGOUVE"},{"type":"park","lat":48.87355156595055,"lng":2.363603194832792,"label":"SQUARE DES RECOLLETS"},{"type":"park","lat":48.874427034200835,"lng":2.358256317507947,"label":"JARDIN PARTAGE DU SQUARE SAINT LAURENT"},{"type":"velib","lat":48.870948218595,"lng":2.3612049221992,"label":"Place Jacques Bonsergent"},{"type":"velib","lat":48.870702423554306,"lng":2.358739863900845,"label":"Cité Riverin - Château d'Eau"},{"type":"velib","lat":48.868769331741,"lng":2.3598745346052,"label":"René Boulanger - Lancry"},{"type":"velib","lat":48.868976638826,"lng":2.3623438552022,"label":"Bourse du Travail"}],"dpe":{"energy_class":"C","ghg_class":"B"},"images":["https://images.unsplash.com/photo-1556912173-3bb406ef7e77?w=1200&h=750&q=66&auto=format&fit=crop&crop=entropy","https://images.unsplash.com/photo-1567496898669-ee935f5f647a?w=1200&h=750&q=66&auto=format&fit=crop&crop=entropy","https://images.unsplash.com/photo-1484154218962-a197022b5858?w=1200&h=750&q=66&auto=format&fit=crop&crop=entropy","https://images.unsplash.com/photo-1502005097973-6a7082348e28?w=1200&h=750&q=66&auto=format&fit=crop&crop=entropy","https://images.unsplash.com/photo-1493663284031-b7e3aefcae8e?w=1200&h=750&q=66&auto=format&fit=crop&crop=entropy"],"thumb":"https://images.unsplash.com/photo-1556912173-3bb406ef7e77?w=480&h=300&q=55&auto=format&fit=crop&crop=entropy","score":{"opportunity_score":29,"value_score":38,"yield_score":14,"negotiation_score":0,"liquidity_score":74,"gentrification_score":46},"signals":{"price_drops":0,"total_drop_percent":0,"long_time_on_market":false,"explanations":["1.7% net rental yield (gross 3.0%)","4.7% above DVF average","2 days on market"]},"source":"dvf","url":"https://app.dvf.etalab.gouv.fr/"}