{"id":"dvf-2024-1229255","address":{"raw":"160 Bd Voltaire, 75011 Paris","normalized":"160 Boulevard Voltaire 75011 Paris","lat":48.855752,"lng":2.383236,"district":"75011"},"characteristics":{"surface_m2":60,"rooms":3,"floor":4},"pricing":{"current_price":631800,"price_per_m2":10530,"initial_price":631800},"timeline":{"first_seen":"2026-06-29","last_seen":"2026-07-02","days_on_market":3},"price_history":[{"date":"2026-06-29","price":631800,"source":"dvf"}],"status":"active","dvf":{"avg_price_m2_100m":10998,"avg_price_m2_500m":10149,"comparable_sales":[{"price":350420,"date":"2024-12-13","distance_m":57},{"price":355000,"date":"2024-02-09","distance_m":72},{"price":334875,"date":"2024-05-31","distance_m":72},{"price":214725,"date":"2024-05-30","distance_m":72},{"price":350000,"date":"2024-09-17","distance_m":72},{"price":327250,"date":"2024-07-04","distance_m":73},{"price":867000,"date":"2024-03-01","distance_m":77},{"price":690000,"date":"2024-12-31","distance_m":86}]},"risks":{"flood":0.01,"clay":0.36,"noise":0.48},"transport_score":76,"neighborhood":{"walk_score":95,"schools_500m":20,"income":30000,"velib_400m":7,"trees_150m":78,"amenities":{"food":27,"health":10,"green":3,"culture":5}},"rent":{"ref_m2":24,"max_m2":28.8,"min_m2":16.8,"quartier":"Roquette","monthly_est":1728},"investment":{"gross_yield":3.28,"net_yield":1.94,"ppm2_percentile":46,"negotiation_margin_pct":0.1,"dpe_risk_score":30,"value_add_flag":false},"pois":[{"type":"transport","lat":48.855094494476994,"lng":2.3846997601328437,"label":"Charonne · METRO 9"},{"type":"transport","lat":48.85787849486676,"lng":2.3800206442479825,"label":"Voltaire · METRO 9"},{"type":"transport","lat":48.85806226176241,"lng":2.3908609523236084,"label":"Philippe Auguste · METRO 2"},{"type":"transport","lat":48.852168369650244,"lng":2.3896255399759547,"label":"Rue des Boulets · METRO 9"},{"type":"transport","lat":48.85017786279968,"lng":2.384092210055667,"label":"Faidherbe Chaligny · METRO 8"},{"type":"park","lat":48.856682591663656,"lng":2.383435659595748,"label":"SQUARE JEAN ALLEMANE"},{"type":"park","lat":48.855890662388326,"lng":2.385562783674316,"label":"SQUARE EDMEE CHANDON"},{"type":"park","lat":48.85619897583923,"lng":2.380886390196503,"label":"SQUARE OLGA BANCIC"},{"type":"velib","lat":48.8563358,"lng":2.3829901,"label":"Belfort - Voltaire"},{"type":"velib","lat":48.854284379935,"lng":2.3847674578428,"label":"Jules Vallès - Charonne"},{"type":"velib","lat":48.85337548426,"lng":2.3828620836139,"label":"Jean Macé - Faidherbe"},{"type":"velib","lat":48.858001906023,"lng":2.3817977026508,"label":"Roquette - Auguste Laurent"}],"dpe":{"energy_class":"F","ghg_class":"C"},"images":["https://images.unsplash.com/photo-1567496898669-ee935f5f647a?w=1200&h=750&q=66&auto=format&fit=crop&crop=entropy","https://images.unsplash.com/photo-1540518614846-7eded433c457?w=1200&h=750&q=66&auto=format&fit=crop&crop=entropy","https://images.unsplash.com/photo-1502672260266-1c1ef2d93688?w=1200&h=750&q=66&auto=format&fit=crop&crop=entropy","https://images.unsplash.com/photo-1484154218962-a197022b5858?w=1200&h=750&q=66&auto=format&fit=crop&crop=entropy","https://images.unsplash.com/photo-1493663284031-b7e3aefcae8e?w=1200&h=750&q=66&auto=format&fit=crop&crop=entropy"],"thumb":"https://images.unsplash.com/photo-1567496898669-ee935f5f647a?w=480&h=300&q=55&auto=format&fit=crop&crop=entropy","score":{"opportunity_score":26,"value_score":54,"yield_score":27,"negotiation_score":1,"liquidity_score":75,"gentrification_score":45},"signals":{"price_drops":0,"total_drop_percent":0,"long_time_on_market":false,"explanations":["1.9% net rental yield (gross 3.3%)","1.2% below DVF average (10 658 €/m²)","3 days on market","Energy class F — rental restrictions apply"]},"source":"dvf","url":"https://app.dvf.etalab.gouv.fr/"}