{"id":"dvf-2024-1229243","address":{"raw":"34 Bd De Grenelle, 75015 Paris","normalized":"34 Quai de Grenelle 75015 Paris","lat":48.852255,"lng":2.285476,"district":"75015"},"characteristics":{"surface_m2":75,"rooms":3,"floor":2},"pricing":{"current_price":600000,"price_per_m2":8000,"initial_price":600000},"timeline":{"first_seen":"2026-06-29","last_seen":"2026-07-02","days_on_market":3},"price_history":[{"date":"2026-06-29","price":600000,"source":"dvf"}],"status":"active","dvf":{"avg_price_m2_100m":8754,"avg_price_m2_500m":10004,"comparable_sales":[{"price":300000,"date":"2024-02-05","distance_m":76},{"price":743400,"date":"2024-04-10","distance_m":76},{"price":255000,"date":"2024-07-11","distance_m":76},{"price":455380,"date":"2024-08-28","distance_m":76},{"price":255000,"date":"2024-08-22","distance_m":76},{"price":709000,"date":"2024-10-01","distance_m":76},{"price":647142,"date":"2024-11-15","distance_m":76},{"price":435000,"date":"2024-03-22","distance_m":98}]},"risks":{"flood":0.59,"clay":0.13,"noise":0.34},"transport_score":79,"neighborhood":{"walk_score":78,"schools_500m":6,"income":33000,"velib_400m":4,"trees_150m":83,"amenities":{"food":32,"health":6,"green":2,"culture":2}},"rent":{"ref_m2":24.6,"max_m2":29.5,"min_m2":17.2,"quartier":"Grenelle","monthly_est":2213},"investment":{"gross_yield":4.43,"net_yield":3,"ppm2_percentile":14,"negotiation_margin_pct":0.1,"dpe_risk_score":75,"value_add_flag":false},"pois":[{"type":"transport","lat":48.85394260621378,"lng":2.2893345327788075,"label":"Bir-Hakeim · METRO 6"},{"type":"transport","lat":48.85364805716894,"lng":2.2794870649625665,"label":"Avenue du Président Kennedy · RER C"},{"type":"transport","lat":48.856457211541745,"lng":2.2898035182585,"label":"Champ de Mars · RER C"},{"type":"transport","lat":48.85744869007581,"lng":2.2858124441464076,"label":"Passy · METRO 6"},{"type":"transport","lat":48.85043454901342,"lng":2.2936124371878033,"label":"Dupleix · METRO 6"},{"type":"park","lat":48.85294072490125,"lng":2.2838413672427453,"label":"PROMENADE DE L'ALLEE DES CYGNES"},{"type":"park","lat":48.85086786201947,"lng":2.283986324896567,"label":"PROMENADE DU QUAI DE GRENELLE"},{"type":"park","lat":48.85378788295785,"lng":2.2874063191508953,"label":"JARDIN DES MARTYRS JUIFS"},{"type":"velib","lat":48.850984480382,"lng":2.2844360220351,"label":"Square Bela Bartok"},{"type":"velib","lat":48.850785261674964,"lng":2.2871585190296173,"label":"Emeriau - Place de Brazzaville"},{"type":"velib","lat":48.853844054334,"lng":2.289705348222,"label":"Bir Hakeim"},{"type":"velib","lat":48.85293603169479,"lng":2.280449643731117,"label":"Ranelagh - Maison de la Radio"}],"dpe":{"energy_class":"D","ghg_class":"D"},"images":["https://images.unsplash.com/photo-1484154218962-a197022b5858?w=1200&h=750&q=66&auto=format&fit=crop&crop=entropy","https://images.unsplash.com/photo-1493809842364-78817add7ffb?w=1200&h=750&q=66&auto=format&fit=crop&crop=entropy","https://images.unsplash.com/photo-1505691938895-1758d7feb511?w=1200&h=750&q=66&auto=format&fit=crop&crop=entropy","https://images.unsplash.com/photo-1567496898669-ee935f5f647a?w=1200&h=750&q=66&auto=format&fit=crop&crop=entropy","https://images.unsplash.com/photo-1493663284031-b7e3aefcae8e?w=1200&h=750&q=66&auto=format&fit=crop&crop=entropy"],"thumb":"https://images.unsplash.com/photo-1484154218962-a197022b5858?w=480&h=300&q=55&auto=format&fit=crop&crop=entropy","score":{"opportunity_score":57,"value_score":86,"yield_score":81,"negotiation_score":1,"liquidity_score":67,"gentrification_score":52},"signals":{"price_drops":0,"total_drop_percent":0,"long_time_on_market":false,"explanations":["3.0% net rental yield (gross 4.4%)","13.6% below DVF average (9 254 €/m²)","Cheaper than 86% of the arrondissement","3 days on market"]},"source":"dvf","url":"https://app.dvf.etalab.gouv.fr/"}