{"id":"dvf-2024-1209533","address":{"raw":"21 Rue Du Retrait, 75020 Paris","normalized":"21 Rue du Retrait 75020 Paris","lat":48.868517,"lng":2.394359,"district":"75020"},"characteristics":{"surface_m2":82,"rooms":4,"floor":1},"pricing":{"current_price":545000,"price_per_m2":6646,"initial_price":545000},"timeline":{"first_seen":"2026-06-29","last_seen":"2026-07-01","days_on_market":2},"price_history":[{"date":"2026-06-29","price":545000,"source":"dvf"}],"status":"active","dvf":{"avg_price_m2_100m":8661,"avg_price_m2_500m":8712,"comparable_sales":[{"price":339000,"date":"2024-08-07","distance_m":7},{"price":325000,"date":"2024-11-21","distance_m":42},{"price":292500,"date":"2024-04-08","distance_m":48},{"price":500000,"date":"2024-06-10","distance_m":48},{"price":801000,"date":"2024-07-03","distance_m":48},{"price":315000,"date":"2024-08-07","distance_m":48},{"price":475000,"date":"2024-11-29","distance_m":48},{"price":302000,"date":"2024-03-07","distance_m":50}]},"risks":{"flood":0.1,"clay":0.43,"noise":0.42},"transport_score":64,"neighborhood":{"walk_score":89,"schools_500m":26,"income":25000,"velib_400m":6,"trees_150m":64,"amenities":{"food":15,"health":4,"green":4,"culture":4}},"rent":{"ref_m2":20.1,"max_m2":24.1,"min_m2":14.1,"quartier":"Père-Lachaise","monthly_est":1976},"investment":{"gross_yield":4.35,"net_yield":2.93,"ppm2_percentile":6,"negotiation_margin_pct":0.1,"dpe_risk_score":30,"value_add_flag":true},"pois":[{"type":"transport","lat":48.86497810787772,"lng":2.396912847086626,"label":"Gambetta · METRO 3"},{"type":"transport","lat":48.86516343488149,"lng":2.3987465934425916,"label":"Gambetta · METRO 3bis"},{"type":"transport","lat":48.86844016327547,"lng":2.401561712742542,"label":"Pelleport · METRO 3bis"},{"type":"park","lat":48.86992201227197,"lng":2.393530413726767,"label":"JARDIN JEAN-MICHEL ROSENFELD"},{"type":"park","lat":48.86872768599538,"lng":2.396828796959837,"label":"JARDIN PARTAGE DU PASSAGE DES SOUPIRS"},{"type":"park","lat":48.86705116248019,"lng":2.3916215009500825,"label":"SQUARE DU SERGENT AURELIE SALEL"},{"type":"velib","lat":48.8693268535238,"lng":2.395084574818611,"label":"Pyrénées - Ménilmontant"},{"type":"velib","lat":48.868895162679,"lng":2.3919824145635,"label":"Boyer - Ménilmontant"},{"type":"velib","lat":48.867362,"lng":2.396222,"label":"Villiers de l'Isle Adam - Pyrénées"},{"type":"velib","lat":48.8701796,"lng":2.3967273,"label":"Square des Saint-Simoniens"}],"dpe":{"energy_class":"F","ghg_class":"F"},"images":["https://images.unsplash.com/photo-1556912173-3bb406ef7e77?w=1200&h=750&q=66&auto=format&fit=crop&crop=entropy","https://images.unsplash.com/photo-1540518614846-7eded433c457?w=1200&h=750&q=66&auto=format&fit=crop&crop=entropy","https://images.unsplash.com/photo-1554995207-c18c203602cb?w=1200&h=750&q=66&auto=format&fit=crop&crop=entropy","https://images.unsplash.com/photo-1505691938895-1758d7feb511?w=1200&h=750&q=66&auto=format&fit=crop&crop=entropy","https://images.unsplash.com/photo-1502672260266-1c1ef2d93688?w=1200&h=750&q=66&auto=format&fit=crop&crop=entropy"],"thumb":"https://images.unsplash.com/photo-1556912173-3bb406ef7e77?w=480&h=300&q=55&auto=format&fit=crop&crop=entropy","score":{"opportunity_score":67,"value_score":100,"yield_score":78,"negotiation_score":0,"liquidity_score":61,"gentrification_score":45},"signals":{"price_drops":0,"total_drop_percent":0,"long_time_on_market":false,"explanations":["2.9% net rental yield (gross 4.3%)","23.4% below DVF average (8 681 €/m²)","Cheaper than 94% of the arrondissement","2 days on market","Value-add: discount exceeds renovation cost (F/G arbitrage)"]},"source":"dvf","url":"https://app.dvf.etalab.gouv.fr/"}