{"id":"dvf-2024-1209584","address":{"raw":"62 A Rue Jean-Baptiste Pigalle, 75009 Paris","normalized":"Rue Jean-Baptiste Pigalle 75009 Paris","lat":48.880032,"lng":2.334364,"district":"75009"},"characteristics":{"surface_m2":25,"rooms":1,"floor":2},"pricing":{"current_price":410000,"price_per_m2":16400,"initial_price":410000},"timeline":{"first_seen":"2026-06-29","last_seen":"2026-07-02","days_on_market":3},"price_history":[{"date":"2026-06-29","price":410000,"source":"dvf"}],"status":"active","dvf":{"avg_price_m2_100m":11412,"avg_price_m2_500m":11212,"comparable_sales":[{"price":712950,"date":"2024-02-22","distance_m":30},{"price":140000,"date":"2024-12-10","distance_m":30},{"price":353500,"date":"2024-12-17","distance_m":32},{"price":227053,"date":"2024-07-08","distance_m":36},{"price":277400,"date":"2024-09-25","distance_m":36},{"price":130000,"date":"2024-06-27","distance_m":47},{"price":305000,"date":"2024-09-16","distance_m":50},{"price":1057210,"date":"2024-06-07","distance_m":72}]},"risks":{"flood":0.1,"clay":0.13,"noise":0.47},"transport_score":88,"neighborhood":{"walk_score":91,"schools_500m":12,"income":34000,"velib_400m":8,"trees_150m":64,"amenities":{"food":18,"health":9,"green":3,"culture":4}},"rent":{"ref_m2":31.1,"max_m2":37.3,"min_m2":21.8,"quartier":"Saint-Georges","monthly_est":932},"investment":{"gross_yield":2.73,"net_yield":1.42,"ppm2_percentile":90,"negotiation_margin_pct":0.1,"dpe_risk_score":55,"value_add_flag":false},"pois":[{"type":"transport","lat":48.88224953318808,"lng":2.3371645394451463,"label":"Pigalle · METRO 12"},{"type":"transport","lat":48.87817339105656,"lng":2.337857510381017,"label":"Saint-Georges · METRO 12"},{"type":"transport","lat":48.88222543392857,"lng":2.3382334685046176,"label":"Pigalle · METRO 2"},{"type":"transport","lat":48.88355629016869,"lng":2.3333796724221587,"label":"Blanche · METRO 2"},{"type":"transport","lat":48.87633026495961,"lng":2.333108893760544,"label":"Trinité d'Estienne d'Orves · METRO 12"},{"type":"park","lat":48.88146670412989,"lng":2.332378524250056,"label":"JARDIN PAULINE GARCIA VIARDOT DE LA BIBLIOTHEQUE"},{"type":"park","lat":48.878495609390626,"lng":2.3367433792051573,"label":"SQUARE ALEX BISCARRE"},{"type":"park","lat":48.878386938089356,"lng":2.3372525341755344,"label":"JARDIN DE LA BIBLIOTHEQUE THIERS (FONDATION DOSNE)"},{"type":"velib","lat":48.87939826447722,"lng":2.333709173337285,"label":"Jean-Baptiste Pigalle - La Bruyere"},{"type":"velib","lat":48.8811043724,"lng":2.3366955667734,"label":"Victor Massé - Jean-Baptiste Pigalle"},{"type":"velib","lat":48.87929591733507,"lng":2.3373600840568547,"label":"Toudouze - Clauzel"},{"type":"velib","lat":48.88006587474148,"lng":2.3310810327529907,"label":"Moncey - Blanche"}],"dpe":{"energy_class":"E","ghg_class":"E"},"images":["https://images.unsplash.com/photo-1505691938895-1758d7feb511?w=1200&h=750&q=66&auto=format&fit=crop&crop=entropy","https://images.unsplash.com/photo-1556912173-3bb406ef7e77?w=1200&h=750&q=66&auto=format&fit=crop&crop=entropy","https://images.unsplash.com/photo-1554995207-c18c203602cb?w=1200&h=750&q=66&auto=format&fit=crop&crop=entropy","https://images.unsplash.com/photo-1567496898669-ee935f5f647a?w=1200&h=750&q=66&auto=format&fit=crop&crop=entropy","https://images.unsplash.com/photo-1502672260266-1c1ef2d93688?w=1200&h=750&q=66&auto=format&fit=crop&crop=entropy"],"thumb":"https://images.unsplash.com/photo-1505691938895-1758d7feb511?w=480&h=300&q=55&auto=format&fit=crop&crop=entropy","score":{"opportunity_score":17,"value_score":10,"yield_score":3,"negotiation_score":1,"liquidity_score":84,"gentrification_score":48},"signals":{"price_drops":0,"total_drop_percent":0,"long_time_on_market":false,"explanations":["1.4% net rental yield (gross 2.7%)","44.7% above DVF average","3 days on market"]},"source":"dvf","url":"https://app.dvf.etalab.gouv.fr/"}