{"id":"dvf-2024-1209578","address":{"raw":"26 Rue Feydeau, 75002 Paris","normalized":"26 Rue Feydeau 75002 Paris","lat":48.869888,"lng":2.339949,"district":"75002"},"characteristics":{"surface_m2":95,"rooms":3,"floor":5},"pricing":{"current_price":1531450,"price_per_m2":16121,"initial_price":1531450},"timeline":{"first_seen":"2026-06-29","last_seen":"2026-07-01","days_on_market":2},"price_history":[{"date":"2026-06-29","price":1531450,"source":"dvf"}],"status":"active","dvf":{"avg_price_m2_100m":13292,"avg_price_m2_500m":12581,"comparable_sales":[{"price":480000,"date":"2024-01-08","distance_m":15},{"price":590680,"date":"2024-09-03","distance_m":15},{"price":389955,"date":"2024-04-22","distance_m":48},{"price":2800000,"date":"2024-01-19","distance_m":63},{"price":1336000,"date":"2024-01-30","distance_m":89},{"price":100000,"date":"2024-03-26","distance_m":96},{"price":262250,"date":"2024-09-11","distance_m":96},{"price":339888,"date":"2024-02-14","distance_m":99}]},"risks":{"flood":0.06,"clay":0.47,"noise":0.58},"transport_score":98,"neighborhood":{"walk_score":67,"schools_500m":6,"income":34000,"velib_400m":11,"trees_150m":63,"amenities":{"food":24,"health":3,"green":0,"culture":3}},"rent":{"ref_m2":26.2,"max_m2":31.4,"min_m2":18.3,"quartier":"Vivienne","monthly_est":2983},"investment":{"gross_yield":2.34,"net_yield":1.06,"ppm2_percentile":92,"negotiation_margin_pct":0.1,"dpe_risk_score":55,"value_add_flag":false},"pois":[{"type":"transport","lat":48.86865415183625,"lng":2.3413760511435733,"label":"Bourse · METRO 3"},{"type":"transport","lat":48.87169298457071,"lng":2.338463081008744,"label":"Richelieu-Drouot · METRO 8"},{"type":"transport","lat":48.87219090864884,"lng":2.3388571594538052,"label":"Richelieu-Drouot · METRO 9"},{"type":"transport","lat":48.869637996887164,"lng":2.3362327568689163,"label":"Quatre Septembre · METRO 3"},{"type":"transport","lat":48.87125654594185,"lng":2.34456106066273,"label":"Grands Boulevards · METRO 8"},{"type":"park","lat":48.8679739908026,"lng":2.337574598692746,"label":"SQUARE LOUVOIS"},{"type":"park","lat":48.86709892848321,"lng":2.3387066699588135,"label":"JARDIN DE LA BIBLIOTHEQUE NATIONALE DE FRANCE"},{"type":"velib","lat":48.868899890853,"lng":2.3397543845203,"label":"Filles Saint-Thomas - Place de la Bourse"},{"type":"velib","lat":48.870326843044,"lng":2.3418715826353,"label":"Saint-Marc - Feydeau"},{"type":"velib","lat":48.871347597383,"lng":2.3414588347077,"label":"Vivienne - Montmartre"},{"type":"velib","lat":48.871446353921,"lng":2.3382901058508,"label":"Favart - Italiens"}],"dpe":{"energy_class":"E","ghg_class":"E"},"images":["https://images.unsplash.com/photo-1484154218962-a197022b5858?w=1200&h=750&q=66&auto=format&fit=crop&crop=entropy","https://images.unsplash.com/photo-1502672260266-1c1ef2d93688?w=1200&h=750&q=66&auto=format&fit=crop&crop=entropy","https://images.unsplash.com/photo-1505691938895-1758d7feb511?w=1200&h=750&q=66&auto=format&fit=crop&crop=entropy","https://images.unsplash.com/photo-1493809842364-78817add7ffb?w=1200&h=750&q=66&auto=format&fit=crop&crop=entropy","https://images.unsplash.com/photo-1540518614846-7eded433c457?w=1200&h=750&q=66&auto=format&fit=crop&crop=entropy"],"thumb":"https://images.unsplash.com/photo-1484154218962-a197022b5858?w=480&h=300&q=55&auto=format&fit=crop&crop=entropy","score":{"opportunity_score":14,"value_score":8,"yield_score":0,"negotiation_score":0,"liquidity_score":75,"gentrification_score":47},"signals":{"price_drops":0,"total_drop_percent":0,"long_time_on_market":false,"explanations":["1.1% net rental yield (gross 2.3%)","23.9% above DVF average","2 days on market"]},"source":"dvf","url":"https://app.dvf.etalab.gouv.fr/"}