{"id":"dvf-2024-1210201","address":{"raw":"38 Rue Guersant, 75017 Paris","normalized":"38 Rue Guersant 75017 Paris","lat":48.882361,"lng":2.288532,"district":"75017"},"characteristics":{"surface_m2":35,"rooms":2,"floor":2},"pricing":{"current_price":345000,"price_per_m2":9857,"initial_price":345000},"timeline":{"first_seen":"2026-06-29","last_seen":"2026-07-02","days_on_market":3},"price_history":[{"date":"2026-06-29","price":345000,"source":"dvf"}],"status":"active","dvf":{"avg_price_m2_100m":10306,"avg_price_m2_500m":10437,"comparable_sales":[{"price":378000,"date":"2024-02-26","distance_m":46},{"price":440750,"date":"2024-07-03","distance_m":46},{"price":382500,"date":"2024-09-11","distance_m":46},{"price":575000,"date":"2024-04-05","distance_m":47},{"price":630000,"date":"2024-05-21","distance_m":47},{"price":215000,"date":"2024-04-16","distance_m":67},{"price":228060,"date":"2024-05-16","distance_m":67},{"price":264170,"date":"2024-09-18","distance_m":67}]},"risks":{"flood":0.08,"clay":0.35,"noise":0.23},"transport_score":100,"neighborhood":{"walk_score":73,"schools_500m":13,"income":35000,"velib_400m":6,"trees_150m":48,"amenities":{"food":24,"health":5,"green":1,"culture":2}},"rent":{"ref_m2":27.3,"max_m2":32.8,"min_m2":19.1,"quartier":"Ternes","monthly_est":1148},"investment":{"gross_yield":3.99,"net_yield":2.6,"ppm2_percentile":42,"negotiation_margin_pct":0.1,"dpe_risk_score":55,"value_add_flag":false},"pois":[{"type":"transport","lat":48.88342328560661,"lng":2.2880331154619915,"label":"Thérèse Pierre · TRAM 3b"},{"type":"transport","lat":48.88115461321984,"lng":2.2855056217327667,"label":"Anny Flore · TRAM 3b"},{"type":"transport","lat":48.88597054515737,"lng":2.2921354803495397,"label":"Porte de Champerret​ · TRAM 3b"},{"type":"transport","lat":48.886006151507,"lng":2.293529966337255,"label":"Porte de Champerret · METRO 3"},{"type":"transport","lat":48.87790843816008,"lng":2.284431219916768,"label":"Neuilly Porte Maillot · RER C"},{"type":"park","lat":48.88244040038529,"lng":2.290618817147717,"label":"SQUARE OLAVE ET ROBERT BADEN-POWELL"},{"type":"park","lat":48.88134688217893,"lng":2.2905329675712442,"label":"PROMENADE PEREIRE - LEBON / GUERSANT"},{"type":"park","lat":48.88054619418405,"lng":2.289053526389053,"label":"PROMENADE PEREIRE - GUERSANT / TERNES"},{"type":"velib","lat":48.88287775178599,"lng":2.287667370814871,"label":"Guersant - Gouvion-Saint-Cyr"},{"type":"velib","lat":48.881804409079656,"lng":2.2921088710427284,"label":"Bayen - Pereire"},{"type":"velib","lat":48.87973954830735,"lng":2.288012132048607,"label":"Pereire - Ternes"},{"type":"velib","lat":48.88022154052015,"lng":2.2854680567979813,"label":"Belidor - Gouvion-Saint-Cyr"}],"dpe":{"energy_class":"E","ghg_class":"E"},"images":["https://images.unsplash.com/photo-1540518614846-7eded433c457?w=1200&h=750&q=66&auto=format&fit=crop&crop=entropy","https://images.unsplash.com/photo-1560448204-e02f11c3d0e2?w=1200&h=750&q=66&auto=format&fit=crop&crop=entropy","https://images.unsplash.com/photo-1493809842364-78817add7ffb?w=1200&h=750&q=66&auto=format&fit=crop&crop=entropy","https://images.unsplash.com/photo-1556912173-3bb406ef7e77?w=1200&h=750&q=66&auto=format&fit=crop&crop=entropy","https://images.unsplash.com/photo-1554995207-c18c203602cb?w=1200&h=750&q=66&auto=format&fit=crop&crop=entropy"],"thumb":"https://images.unsplash.com/photo-1540518614846-7eded433c457?w=480&h=300&q=55&auto=format&fit=crop&crop=entropy","score":{"opportunity_score":43,"value_score":62,"yield_score":61,"negotiation_score":1,"liquidity_score":83,"gentrification_score":55},"signals":{"price_drops":0,"total_drop_percent":0,"long_time_on_market":false,"explanations":["2.6% net rental yield (gross 4.0%)","4.8% below DVF average (10 358 €/m²)","3 days on market"]},"source":"dvf","url":"https://app.dvf.etalab.gouv.fr/"}