{"id":"dvf-2024-1209327","address":{"raw":"143 Rue D Aboukir, 75002 Paris","normalized":"143 Rue d'Aboukir 75002 Paris","lat":48.869329,"lng":2.352026,"district":"75002"},"characteristics":{"surface_m2":55,"rooms":3,"floor":5},"pricing":{"current_price":530000,"price_per_m2":9636,"initial_price":530000},"timeline":{"first_seen":"2026-06-29","last_seen":"2026-07-02","days_on_market":3},"price_history":[{"date":"2026-06-29","price":530000,"source":"dvf"}],"status":"active","dvf":{"avg_price_m2_100m":11017,"avg_price_m2_500m":10591,"comparable_sales":[{"price":153700,"date":"2024-12-31","distance_m":14},{"price":204000,"date":"2024-05-31","distance_m":29},{"price":172973,"date":"2024-06-14","distance_m":29},{"price":236000,"date":"2024-07-22","distance_m":55},{"price":1778700,"date":"2024-06-14","distance_m":64},{"price":190000,"date":"2024-12-12","distance_m":69},{"price":114000,"date":"2024-11-06","distance_m":75},{"price":153000,"date":"2024-04-03","distance_m":84}]},"risks":{"flood":0.04,"clay":0.26,"noise":0.44},"transport_score":100,"neighborhood":{"walk_score":55,"schools_500m":11,"income":34000,"velib_400m":11,"trees_150m":90,"amenities":{"food":8,"health":0,"green":0,"culture":2}},"rent":{"ref_m2":26.2,"max_m2":31.4,"min_m2":18.3,"quartier":"Bonne-Nouvelle","monthly_est":1727},"investment":{"gross_yield":3.91,"net_yield":2.52,"ppm2_percentile":26,"negotiation_margin_pct":0.1,"dpe_risk_score":75,"value_add_flag":false},"pois":[{"type":"transport","lat":48.86940219665552,"lng":2.3538187935928794,"label":"Strasbourg-Saint-Denis · METRO 9"},{"type":"transport","lat":48.86940219665552,"lng":2.3538187935928794,"label":"Strasbourg-Saint-Denis · METRO 8"},{"type":"transport","lat":48.869628863778516,"lng":2.354468813108209,"label":"Strasbourg-Saint-Denis · METRO 4"},{"type":"transport","lat":48.870590478011124,"lng":2.3484911310789895,"label":"Bonne Nouvelle · METRO 8"},{"type":"transport","lat":48.870590478011124,"lng":2.3484911310789895,"label":"Bonne Nouvelle · METRO 9"},{"type":"park","lat":48.86984822793833,"lng":2.3501256247952056,"label":"JARDIN PARTAGE DU SQUARE JACQUES BIDAUT"},{"type":"park","lat":48.869867328723295,"lng":2.349960640148994,"label":"SQUARE JACQUES BIDAUT"},{"type":"park","lat":48.8710779551507,"lng":2.3504575605902147,"label":"SQUARE YILMAZ GUNEY"},{"type":"velib","lat":48.870047123655,"lng":2.3511248454452,"label":"Mazagran - Bonne Nouvelle"},{"type":"velib","lat":48.86868344444473,"lng":2.3502043269474897,"label":"Aboukir - Alexandrie"},{"type":"velib","lat":48.869601642433,"lng":2.3542908579111,"label":"Strasbourg - Saint-Denis"},{"type":"velib","lat":48.870893,"lng":2.353521,"label":"Metz - Faubourg Saint-Denis"}],"dpe":{"energy_class":"D","ghg_class":"B"},"images":["https://images.unsplash.com/photo-1522708323590-d24dbb6b0267?w=1200&h=750&q=66&auto=format&fit=crop&crop=entropy","https://images.unsplash.com/photo-1560448204-e02f11c3d0e2?w=1200&h=750&q=66&auto=format&fit=crop&crop=entropy","https://images.unsplash.com/photo-1556912173-3bb406ef7e77?w=1200&h=750&q=66&auto=format&fit=crop&crop=entropy","https://images.unsplash.com/photo-1484154218962-a197022b5858?w=1200&h=750&q=66&auto=format&fit=crop&crop=entropy","https://images.unsplash.com/photo-1554995207-c18c203602cb?w=1200&h=750&q=66&auto=format&fit=crop&crop=entropy"],"thumb":"https://images.unsplash.com/photo-1522708323590-d24dbb6b0267?w=480&h=300&q=55&auto=format&fit=crop&crop=entropy","score":{"opportunity_score":50,"value_score":78,"yield_score":57,"negotiation_score":1,"liquidity_score":79,"gentrification_score":47},"signals":{"price_drops":0,"total_drop_percent":0,"long_time_on_market":false,"explanations":["2.5% net rental yield (gross 3.9%)","11.2% below DVF average (10 847 €/m²)","Cheaper than 74% of the arrondissement","3 days on market"]},"source":"dvf","url":"https://app.dvf.etalab.gouv.fr/"}