{"id":"dvf-2024-1228859","address":{"raw":"27 Rue Saint Jacques, 75005 Paris","normalized":"27 Rue Saint-Jacques 75005 Paris","lat":48.851374,"lng":2.345955,"district":"75005"},"characteristics":{"surface_m2":10,"rooms":1,"floor":1},"pricing":{"current_price":98000,"price_per_m2":9800,"initial_price":98000},"timeline":{"first_seen":"2026-06-29","last_seen":"2026-07-02","days_on_market":3},"price_history":[{"date":"2026-06-29","price":98000,"source":"dvf"}],"status":"active","dvf":{"avg_price_m2_100m":12513,"avg_price_m2_500m":14145,"comparable_sales":[{"price":405797,"date":"2024-02-15","distance_m":29},{"price":1982800,"date":"2024-11-07","distance_m":58},{"price":1200000,"date":"2024-12-16","distance_m":58},{"price":1500000,"date":"2024-07-30","distance_m":64},{"price":2552986,"date":"2024-06-14","distance_m":72},{"price":284000,"date":"2024-03-20","distance_m":89},{"price":230000,"date":"2024-04-22","distance_m":94},{"price":500000,"date":"2024-06-05","distance_m":94}]},"risks":{"flood":0.36,"clay":0.29,"noise":0.53},"transport_score":100,"neighborhood":{"walk_score":84,"schools_500m":17,"income":37000,"velib_400m":11,"trees_150m":91,"amenities":{"food":24,"health":6,"green":1,"culture":4}},"rent":{"ref_m2":32.9,"max_m2":39.5,"min_m2":23,"quartier":"Sorbonne","monthly_est":395},"investment":{"gross_yield":4.84,"net_yield":3.38,"ppm2_percentile":10,"negotiation_margin_pct":0.1,"dpe_risk_score":10,"value_add_flag":false},"pois":[{"type":"transport","lat":48.851050282314304,"lng":2.3442733454213514,"label":"Cluny-La Sorbonne · METRO 10"},{"type":"transport","lat":48.85211888263096,"lng":2.34402115205528,"label":"Saint-Michel · RER B"},{"type":"transport","lat":48.85008987805251,"lng":2.3482087741854687,"label":"Maubert-Mutualité · METRO 10"},{"type":"transport","lat":48.85353290071982,"lng":2.3452883321974305,"label":"Saint-Michel · RER C"},{"type":"transport","lat":48.85316798489062,"lng":2.343285978923924,"label":"Saint-Michel · METRO 4"},{"type":"park","lat":48.8516447840239,"lng":2.3455575386795005,"label":"SQUARE ANDRE LEFEVRE"},{"type":"park","lat":48.85215193028229,"lng":2.3475422148340597,"label":"SQUARE RENE VIVIANI-MONTEBELLO"},{"type":"park","lat":48.85081473908884,"lng":2.3441393123754306,"label":"JARDIN MEDIEVAL DU MUSEE DE CLUNY"},{"type":"velib","lat":48.850571,"lng":2.3471015,"label":"Saint-Germain - Thenard"},{"type":"velib","lat":48.850310432924,"lng":2.3450158352986,"label":"Sommerard - Saint-Jacques"},{"type":"velib","lat":48.851904891406,"lng":2.3478421568871,"label":"Square René Viviani - Montebello"},{"type":"velib","lat":48.851518815017,"lng":2.3436703160405,"label":"Harpe - Saint-Germain"}],"dpe":{"energy_class":"G","ghg_class":"G"},"images":["https://images.unsplash.com/photo-1502672260266-1c1ef2d93688?w=1200&h=750&q=66&auto=format&fit=crop&crop=entropy","https://images.unsplash.com/photo-1567496898669-ee935f5f647a?w=1200&h=750&q=66&auto=format&fit=crop&crop=entropy","https://images.unsplash.com/photo-1560448204-e02f11c3d0e2?w=1200&h=750&q=66&auto=format&fit=crop&crop=entropy","https://images.unsplash.com/photo-1522708323590-d24dbb6b0267?w=1200&h=750&q=66&auto=format&fit=crop&crop=entropy","https://images.unsplash.com/photo-1502005097973-6a7082348e28?w=1200&h=750&q=66&auto=format&fit=crop&crop=entropy"],"thumb":"https://images.unsplash.com/photo-1502672260266-1c1ef2d93688?w=480&h=300&q=55&auto=format&fit=crop&crop=entropy","score":{"opportunity_score":43,"value_score":100,"yield_score":96,"negotiation_score":1,"liquidity_score":91,"gentrification_score":50},"signals":{"price_drops":0,"total_drop_percent":0,"long_time_on_market":false,"explanations":["3.4% net rental yield (gross 4.8%)","25.6% below DVF average (13 166 €/m²)","Cheaper than 90% of the arrondissement","3 days on market","Energy class G — rental restrictions apply"]},"source":"dvf","url":"https://app.dvf.etalab.gouv.fr/"}