{"id":"dvf-2024-1228250","address":{"raw":"7 Rue Saint Bernard, 75011 Paris","normalized":"7 Rue Saint-Bernard 75011 Paris","lat":48.850944,"lng":2.381452,"district":"75011"},"characteristics":{"surface_m2":27,"rooms":1,"floor":0},"pricing":{"current_price":210000,"price_per_m2":7778,"initial_price":210000},"timeline":{"first_seen":"2026-06-29","last_seen":"2026-07-01","days_on_market":2},"price_history":[{"date":"2026-06-29","price":210000,"source":"dvf"}],"status":"active","dvf":{"avg_price_m2_100m":10147,"avg_price_m2_500m":10176,"comparable_sales":[{"price":140000,"date":"2024-12-17","distance_m":16},{"price":255000,"date":"2024-10-25","distance_m":38},{"price":498000,"date":"2024-09-27","distance_m":40},{"price":255000,"date":"2024-12-03","distance_m":40},{"price":715000,"date":"2024-04-04","distance_m":50},{"price":390000,"date":"2024-06-11","distance_m":50},{"price":550000,"date":"2024-11-18","distance_m":50},{"price":250000,"date":"2024-04-17","distance_m":55}]},"risks":{"flood":0,"clay":0.18,"noise":0.47},"transport_score":96,"neighborhood":{"walk_score":100,"schools_500m":17,"income":30000,"velib_400m":5,"trees_150m":136,"amenities":{"food":24,"health":8,"green":5,"culture":5}},"rent":{"ref_m2":30.2,"max_m2":36.2,"min_m2":21.1,"quartier":"Sainte-Marguerite","monthly_est":977},"investment":{"gross_yield":5.59,"net_yield":4.08,"ppm2_percentile":2,"negotiation_margin_pct":0.1,"dpe_risk_score":10,"value_add_flag":false},"pois":[{"type":"transport","lat":48.85017786279968,"lng":2.384092210055667,"label":"Faidherbe Chaligny · METRO 8"},{"type":"transport","lat":48.85152370843435,"lng":2.3751010337556164,"label":"Ledru Rollin · METRO 8"},{"type":"transport","lat":48.847179910069585,"lng":2.385243715115072,"label":"Reuilly-Diderot · METRO 1"},{"type":"transport","lat":48.855094494476994,"lng":2.3846997601328437,"label":"Charonne · METRO 9"},{"type":"transport","lat":48.847128722240626,"lng":2.3870252420986313,"label":"Reuilly-Diderot · METRO 8"},{"type":"park","lat":48.852114630640116,"lng":2.3812810411113254,"label":"SQUARE LOUIS MAJORELLE"},{"type":"park","lat":48.84981807900124,"lng":2.3804117689694544,"label":"JARDIN PARTAGE LA PETITE ALIGRESSE"},{"type":"park","lat":48.85265799846988,"lng":2.381568819780539,"label":"SQUARE RAOUL NORDLING"},{"type":"velib","lat":48.850533,"lng":2.383756,"label":"Place Mireille Havet"},{"type":"velib","lat":48.85242200848887,"lng":2.380632497370243,"label":"Charles Delescluze"},{"type":"velib","lat":48.851358329771806,"lng":2.383823134795429,"label":"Faidherbe - Dahomey"},{"type":"velib","lat":48.850440013405,"lng":2.378901366211,"label":"Crozatier - Faubourg Saint-Antoine"}],"dpe":{"energy_class":"G","ghg_class":"C"},"images":["https://images.unsplash.com/photo-1493663284031-b7e3aefcae8e?w=1200&h=750&q=66&auto=format&fit=crop&crop=entropy","https://images.unsplash.com/photo-1522708323590-d24dbb6b0267?w=1200&h=750&q=66&auto=format&fit=crop&crop=entropy","https://images.unsplash.com/photo-1502005097973-6a7082348e28?w=1200&h=750&q=66&auto=format&fit=crop&crop=entropy","https://images.unsplash.com/photo-1484154218962-a197022b5858?w=1200&h=750&q=66&auto=format&fit=crop&crop=entropy","https://images.unsplash.com/photo-1540518614846-7eded433c457?w=1200&h=750&q=66&auto=format&fit=crop&crop=entropy"],"thumb":"https://images.unsplash.com/photo-1493663284031-b7e3aefcae8e?w=480&h=300&q=55&auto=format&fit=crop&crop=entropy","score":{"opportunity_score":42,"value_score":100,"yield_score":100,"negotiation_score":0,"liquidity_score":85,"gentrification_score":45},"signals":{"price_drops":0,"total_drop_percent":0,"long_time_on_market":false,"explanations":["4.1% net rental yield (gross 5.6%)","23.4% below DVF average (10 159 €/m²)","Cheaper than 98% of the arrondissement","2 days on market","Energy class G — rental restrictions apply"]},"source":"dvf","url":"https://app.dvf.etalab.gouv.fr/"}