{"id":"dvf-2024-1208966","address":{"raw":"51 Rue Des Francs Bourgeois, 75004 Paris","normalized":"51 Rue des Francs Bourgeois 75004 Paris","lat":48.858883,"lng":2.35833,"district":"75004"},"characteristics":{"surface_m2":74,"rooms":3,"floor":3},"pricing":{"current_price":995000,"price_per_m2":13446,"initial_price":995000},"timeline":{"first_seen":"2026-06-29","last_seen":"2026-07-01","days_on_market":2},"price_history":[{"date":"2026-06-29","price":995000,"source":"dvf"}],"status":"active","dvf":{"avg_price_m2_100m":13420,"avg_price_m2_500m":13232,"comparable_sales":[{"price":1100000,"date":"2024-05-16","distance_m":24},{"price":915000,"date":"2024-10-24","distance_m":24},{"price":970000,"date":"2024-12-27","distance_m":24},{"price":620000,"date":"2024-03-15","distance_m":31},{"price":1090000,"date":"2024-07-12","distance_m":31},{"price":543689,"date":"2024-01-29","distance_m":59},{"price":275000,"date":"2024-05-06","distance_m":59},{"price":475000,"date":"2024-07-01","distance_m":59}]},"risks":{"flood":0.32,"clay":0.29,"noise":0.36},"transport_score":80,"neighborhood":{"walk_score":54,"schools_500m":16,"income":38000,"velib_400m":9,"trees_150m":35,"amenities":{"food":10,"health":3,"green":0,"culture":1}},"rent":{"ref_m2":26.2,"max_m2":31.4,"min_m2":18.3,"quartier":"Saint-Gervais","monthly_est":2324},"investment":{"gross_yield":2.8,"net_yield":1.49,"ppm2_percentile":62,"negotiation_margin_pct":0.1,"dpe_risk_score":75,"value_add_flag":false},"pois":[{"type":"transport","lat":48.86120499033039,"lng":2.353495741491146,"label":"Rambuteau · METRO 11"},{"type":"transport","lat":48.85523625280238,"lng":2.360956490023829,"label":"Saint-Paul · METRO 1"},{"type":"transport","lat":48.857477982529346,"lng":2.3515775629949967,"label":"Hôtel de Ville · METRO 1"},{"type":"transport","lat":48.85745183174312,"lng":2.3510084614060265,"label":"Hôtel de Ville · METRO 11"},{"type":"transport","lat":48.85357547250359,"lng":2.357162571618337,"label":"Pont Marie · METRO 7"},{"type":"park","lat":48.858722932004824,"lng":2.357995762534248,"label":"SQUARE CHARLES-VICTOR LANGLOIS"},{"type":"park","lat":48.858614978289566,"lng":2.356505654906898,"label":"JARDIN DU CLOS DES BLANCS MANTEAUX-FRANCESCA DANDOLO"},{"type":"park","lat":48.85847731167387,"lng":2.3564317547492526,"label":"JARDIN PARTAGE DU CLOS DES BLANCS MANTEAUX"},{"type":"velib","lat":48.858256413365815,"lng":2.35821794718504,"label":"Vieille du Temple - Francs Bourgeois"},{"type":"velib","lat":48.85941800703,"lng":2.3559471219778,"label":"Blancs-Manteaux - Archives"},{"type":"velib","lat":48.8601346,"lng":2.3611206,"label":"Perle - Vieille du Temple"},{"type":"velib","lat":48.8578329,"lng":2.3622643,"label":"Payenne - Square George Caïn"}],"dpe":{"energy_class":"D","ghg_class":"D"},"images":["https://images.unsplash.com/photo-1556912173-3bb406ef7e77?w=1200&h=750&q=66&auto=format&fit=crop&crop=entropy","https://images.unsplash.com/photo-1554995207-c18c203602cb?w=1200&h=750&q=66&auto=format&fit=crop&crop=entropy","https://images.unsplash.com/photo-1493809842364-78817add7ffb?w=1200&h=750&q=66&auto=format&fit=crop&crop=entropy","https://images.unsplash.com/photo-1502672260266-1c1ef2d93688?w=1200&h=750&q=66&auto=format&fit=crop&crop=entropy","https://images.unsplash.com/photo-1505691938895-1758d7feb511?w=1200&h=750&q=66&auto=format&fit=crop&crop=entropy"],"thumb":"https://images.unsplash.com/photo-1556912173-3bb406ef7e77?w=480&h=300&q=55&auto=format&fit=crop&crop=entropy","score":{"opportunity_score":27,"value_score":48,"yield_score":5,"negotiation_score":0,"liquidity_score":73,"gentrification_score":45},"signals":{"price_drops":0,"total_drop_percent":0,"long_time_on_market":false,"explanations":["1.5% net rental yield (gross 2.8%)","2 days on market"]},"source":"dvf","url":"https://app.dvf.etalab.gouv.fr/"}