{"id":"dvf-2024-1228995","address":{"raw":"22 Rue Friant, 75014 Paris","normalized":"22 Rue Friant 75014 Paris","lat":48.825331,"lng":2.323928,"district":"75014"},"characteristics":{"surface_m2":30,"rooms":2,"floor":1},"pricing":{"current_price":290000,"price_per_m2":9667,"initial_price":290000},"timeline":{"first_seen":"2026-06-29","last_seen":"2026-07-02","days_on_market":3},"price_history":[{"date":"2026-06-29","price":290000,"source":"dvf"}],"status":"active","dvf":{"avg_price_m2_100m":9386,"avg_price_m2_500m":9336,"comparable_sales":[{"price":466500,"date":"2024-11-08","distance_m":10},{"price":350000,"date":"2024-10-18","distance_m":20},{"price":374000,"date":"2024-11-15","distance_m":20},{"price":403650,"date":"2024-04-29","distance_m":31},{"price":305000,"date":"2024-07-17","distance_m":31},{"price":580800,"date":"2024-02-08","distance_m":58},{"price":480000,"date":"2024-12-18","distance_m":59},{"price":469000,"date":"2024-04-22","distance_m":68}]},"risks":{"flood":0.02,"clay":0.2,"noise":0.38},"transport_score":85,"neighborhood":{"walk_score":73,"schools_500m":19,"income":32000,"velib_400m":5,"trees_150m":81,"amenities":{"food":15,"health":0,"green":2,"culture":2}},"rent":{"ref_m2":26.3,"max_m2":31.6,"min_m2":18.4,"quartier":"Petit-Montrouge","monthly_est":948},"investment":{"gross_yield":3.92,"net_yield":2.53,"ppm2_percentile":46,"negotiation_margin_pct":0.1,"dpe_risk_score":30,"value_add_flag":false},"pois":[{"type":"transport","lat":48.82341162898739,"lng":2.3255756362122453,"label":"Porte d'Orléans · METRO 4"},{"type":"transport","lat":48.823151633128084,"lng":2.325509577822384,"label":"Porte d'Orléans · TRAM 3a"},{"type":"transport","lat":48.82471101880376,"lng":2.318829692620226,"label":"Jean Moulin · TRAM 3a"},{"type":"transport","lat":48.82818847631351,"lng":2.3271646496078247,"label":"Alésia · METRO 4"},{"type":"park","lat":48.825222741048876,"lng":2.322933873675472,"label":"PROMENADE PC 14 - CORENTIN - AVENUE DU GENERAL LECLERC"},{"type":"park","lat":48.82518889772283,"lng":2.3225878201854564,"label":"JARDIN PARTAGE VERT-TIGE"},{"type":"park","lat":48.82793193542799,"lng":2.322842120700878,"label":"JARDIN LIONEL ASSOUAD"},{"type":"velib","lat":48.825030852925,"lng":2.3264128693982,"label":"Sarrette - Général Leclerc"},{"type":"velib","lat":48.82577028927573,"lng":2.3210415244102482,"label":"Auguste Cain - Jean Moulin"},{"type":"velib","lat":48.8227639,"lng":2.3249313,"label":"Porte d'Orléans"},{"type":"velib","lat":48.82764910241,"lng":2.3261967301369,"label":"Jean Moulin - Place Victor et Hélène Basch"}],"dpe":{"energy_class":"F","ghg_class":"F"},"images":["https://images.unsplash.com/photo-1567496898669-ee935f5f647a?w=1200&h=750&q=66&auto=format&fit=crop&crop=entropy","https://images.unsplash.com/photo-1556912173-3bb406ef7e77?w=1200&h=750&q=66&auto=format&fit=crop&crop=entropy","https://images.unsplash.com/photo-1493663284031-b7e3aefcae8e?w=1200&h=750&q=66&auto=format&fit=crop&crop=entropy","https://images.unsplash.com/photo-1560448204-e02f11c3d0e2?w=1200&h=750&q=66&auto=format&fit=crop&crop=entropy","https://images.unsplash.com/photo-1493809842364-78817add7ffb?w=1200&h=750&q=66&auto=format&fit=crop&crop=entropy"],"thumb":"https://images.unsplash.com/photo-1567496898669-ee935f5f647a?w=480&h=300&q=55&auto=format&fit=crop&crop=entropy","score":{"opportunity_score":33,"value_score":54,"yield_score":57,"negotiation_score":1,"liquidity_score":78,"gentrification_score":51},"signals":{"price_drops":0,"total_drop_percent":0,"long_time_on_market":false,"explanations":["2.5% net rental yield (gross 3.9%)","3.2% above DVF average","3 days on market","Energy class F — rental restrictions apply"]},"source":"dvf","url":"https://app.dvf.etalab.gouv.fr/"}