{"id":"dvf-2024-1228107","address":{"raw":"228 B Rue Du Fbg St Antoine, 75012 Paris","normalized":"228b Rue du Faubourg Saint-Antoine 75012 Paris","lat":48.849404,"lng":2.388348,"district":"75012"},"characteristics":{"surface_m2":118,"rooms":5,"floor":3},"pricing":{"current_price":1043800,"price_per_m2":8846,"initial_price":1043800},"timeline":{"first_seen":"2026-06-29","last_seen":"2026-07-02","days_on_market":3},"price_history":[{"date":"2026-06-29","price":1043800,"source":"dvf"}],"status":"active","dvf":{"avg_price_m2_100m":10079,"avg_price_m2_500m":9708,"comparable_sales":[{"price":455000,"date":"2024-08-26","distance_m":34},{"price":287000,"date":"2024-07-08","distance_m":47},{"price":232750,"date":"2024-09-06","distance_m":47},{"price":705000,"date":"2024-05-27","distance_m":63},{"price":1728550,"date":"2024-12-31","distance_m":63},{"price":173500,"date":"2024-07-10","distance_m":67},{"price":505797,"date":"2024-02-27","distance_m":70},{"price":610000,"date":"2024-05-14","distance_m":75}]},"risks":{"flood":0.06,"clay":0.27,"noise":0.51},"transport_score":91,"neighborhood":{"walk_score":66,"schools_500m":25,"income":31000,"velib_400m":10,"trees_150m":67,"amenities":{"food":17,"health":2,"green":1,"culture":0}},"rent":{"ref_m2":22.7,"max_m2":27.2,"min_m2":15.9,"quartier":"Picpus","monthly_est":3210},"investment":{"gross_yield":3.69,"net_yield":2.32,"ppm2_percentile":36,"negotiation_margin_pct":0.1,"dpe_risk_score":75,"value_add_flag":false},"pois":[{"type":"transport","lat":48.847128722240626,"lng":2.3870252420986313,"label":"Reuilly-Diderot · METRO 8"},{"type":"transport","lat":48.852168369650244,"lng":2.3896255399759547,"label":"Rue des Boulets · METRO 9"},{"type":"transport","lat":48.85017786279968,"lng":2.384092210055667,"label":"Faidherbe Chaligny · METRO 8"},{"type":"transport","lat":48.847179910069585,"lng":2.385243715115072,"label":"Reuilly-Diderot · METRO 1"},{"type":"transport","lat":48.848474285974376,"lng":2.395062305425881,"label":"Nation · METRO 2"},{"type":"park","lat":48.848220746894285,"lng":2.3853726512880318,"label":"JARDIN MARTHA  DESRUMAUX"},{"type":"park","lat":48.84860642953009,"lng":2.3919262486821276,"label":"JARDIN DE L'IMPERATRICE EUGENIE"},{"type":"park","lat":48.851859881122394,"lng":2.3859087031298305,"label":"JARDIN PARTAGE DU JARDIN DE LA FOLIE TITON"},{"type":"velib","lat":48.850500564921,"lng":2.3890856287864,"label":"Montreuil - Gonnet"},{"type":"velib","lat":48.847648620797,"lng":2.3902582749724,"label":"Diderot - Pierre Bourdan"},{"type":"velib","lat":48.849259262115,"lng":2.3917546141943,"label":"Boulets - Faubourg Saint-Antoine"},{"type":"velib","lat":48.847208456061,"lng":2.3861273378134,"label":"Diderot - Reuilly"}],"dpe":{"energy_class":"D","ghg_class":"B"},"images":["https://images.unsplash.com/photo-1567496898669-ee935f5f647a?w=1200&h=750&q=66&auto=format&fit=crop&crop=entropy","https://images.unsplash.com/photo-1560448204-e02f11c3d0e2?w=1200&h=750&q=66&auto=format&fit=crop&crop=entropy","https://images.unsplash.com/photo-1540518614846-7eded433c457?w=1200&h=750&q=66&auto=format&fit=crop&crop=entropy","https://images.unsplash.com/photo-1493663284031-b7e3aefcae8e?w=1200&h=750&q=66&auto=format&fit=crop&crop=entropy","https://images.unsplash.com/photo-1502672260266-1c1ef2d93688?w=1200&h=750&q=66&auto=format&fit=crop&crop=entropy"],"thumb":"https://images.unsplash.com/photo-1567496898669-ee935f5f647a?w=480&h=300&q=55&auto=format&fit=crop&crop=entropy","score":{"opportunity_score":45,"value_score":77,"yield_score":46,"negotiation_score":1,"liquidity_score":63,"gentrification_score":52},"signals":{"price_drops":0,"total_drop_percent":0,"long_time_on_market":false,"explanations":["2.3% net rental yield (gross 3.7%)","10.9% below DVF average (9 931 €/m²)","3 days on market"]},"source":"dvf","url":"https://app.dvf.etalab.gouv.fr/"}