{"id":"dvf-2024-1210063","address":{"raw":"154 Rue Championnet, 75018 Paris","normalized":"154 Rue Championnet 75018 Paris","lat":48.89504,"lng":2.336014,"district":"75018"},"characteristics":{"surface_m2":89,"rooms":3,"floor":3},"pricing":{"current_price":665000,"price_per_m2":7472,"initial_price":665000},"timeline":{"first_seen":"2026-06-29","last_seen":"2026-07-02","days_on_market":3},"price_history":[{"date":"2026-06-29","price":665000,"source":"dvf"}],"status":"active","dvf":{"avg_price_m2_100m":10118,"avg_price_m2_500m":9001,"comparable_sales":[{"price":1080000,"date":"2024-01-31","distance_m":57},{"price":715000,"date":"2024-05-27","distance_m":57},{"price":1182100,"date":"2024-09-03","distance_m":57},{"price":718800,"date":"2024-10-02","distance_m":57},{"price":300000,"date":"2024-06-04","distance_m":78},{"price":539641,"date":"2024-01-31","distance_m":108},{"price":553270,"date":"2024-03-19","distance_m":108},{"price":357143,"date":"2024-05-02","distance_m":108}]},"risks":{"flood":0,"clay":0.08,"noise":0.28},"transport_score":70,"neighborhood":{"walk_score":91,"schools_500m":12,"income":26000,"velib_400m":8,"trees_150m":109,"amenities":{"food":20,"health":6,"green":3,"culture":4}},"rent":{"ref_m2":22.8,"max_m2":27.4,"min_m2":16,"quartier":"Grandes-Carrières","monthly_est":2439},"investment":{"gross_yield":4.4,"net_yield":2.98,"ppm2_percentile":24,"negotiation_margin_pct":0.1,"dpe_risk_score":88,"value_add_flag":false},"pois":[{"type":"transport","lat":48.89783032629845,"lng":2.3382304271335834,"label":"Angélique Compoint · TRAM 3b"},{"type":"transport","lat":48.89767181948477,"lng":2.3298303344938858,"label":"Porte de Saint-Ouen · TRAM 3b"},{"type":"transport","lat":48.897374796428764,"lng":2.3289428127683025,"label":"Porte de Saint-Ouen · METRO 13"},{"type":"transport","lat":48.88967407389343,"lng":2.338760650528743,"label":"Lamarck-Caulaincourt · METRO 12"},{"type":"transport","lat":48.897402222898094,"lng":2.344847748752399,"label":"Porte de Clignancourt · METRO 4"},{"type":"park","lat":48.89520037324179,"lng":2.3349400882960065,"label":"ESPACE VERT DU TEP JESSE OWENS"},{"type":"park","lat":48.896898898629345,"lng":2.3359007630900135,"label":"JARDIN MARIA VERONE"},{"type":"park","lat":48.89180344153219,"lng":2.3355257866141343,"label":"JARDIN PARTAGE MARCADET MONTCALM"},{"type":"velib","lat":48.89353865165,"lng":2.3364427977844,"label":"Cloys - Ordener"},{"type":"velib","lat":48.89669238777841,"lng":2.338023450388167,"label":"Belliard - Damrémont"},{"type":"velib","lat":48.896328348515986,"lng":2.333390423834684,"label":"Leibniz - Jean Dollfus"},{"type":"velib","lat":48.89401874744574,"lng":2.3319872841238976,"label":"Championnet - Vauvenargues"}],"dpe":{"energy_class":"C","ghg_class":"A"},"images":["https://images.unsplash.com/photo-1560448204-e02f11c3d0e2?w=1200&h=750&q=66&auto=format&fit=crop&crop=entropy","https://images.unsplash.com/photo-1502672260266-1c1ef2d93688?w=1200&h=750&q=66&auto=format&fit=crop&crop=entropy","https://images.unsplash.com/photo-1540518614846-7eded433c457?w=1200&h=750&q=66&auto=format&fit=crop&crop=entropy","https://images.unsplash.com/photo-1505691938895-1758d7feb511?w=1200&h=750&q=66&auto=format&fit=crop&crop=entropy","https://images.unsplash.com/photo-1493663284031-b7e3aefcae8e?w=1200&h=750&q=66&auto=format&fit=crop&crop=entropy"],"thumb":"https://images.unsplash.com/photo-1560448204-e02f11c3d0e2?w=480&h=300&q=55&auto=format&fit=crop&crop=entropy","score":{"opportunity_score":64,"value_score":100,"yield_score":80,"negotiation_score":1,"liquidity_score":64,"gentrification_score":44},"signals":{"price_drops":0,"total_drop_percent":0,"long_time_on_market":false,"explanations":["3.0% net rental yield (gross 4.4%)","22.7% below DVF average (9 671 €/m²)","Cheaper than 76% of the arrondissement","3 days on market"]},"source":"dvf","url":"https://app.dvf.etalab.gouv.fr/"}