{"id":"dvf-2024-1210474","address":{"raw":"6 Rue Joseph Kosma, 75019 Paris","normalized":"6 Rue Joseph Kosma 75019 Paris","lat":48.889533,"lng":2.386011,"district":"75019"},"characteristics":{"surface_m2":44,"rooms":2,"floor":2},"pricing":{"current_price":458000,"price_per_m2":10409,"initial_price":458000},"timeline":{"first_seen":"2026-06-29","last_seen":"2026-07-01","days_on_market":2},"price_history":[{"date":"2026-06-29","price":458000,"source":"dvf"}],"status":"active","dvf":{"avg_price_m2_100m":7852,"avg_price_m2_500m":7786,"comparable_sales":[{"price":532800,"date":"2024-02-29","distance_m":27},{"price":313800,"date":"2024-04-15","distance_m":29},{"price":392000,"date":"2024-06-04","distance_m":29},{"price":503300,"date":"2024-02-22","distance_m":57},{"price":759000,"date":"2024-09-05","distance_m":57},{"price":388800,"date":"2024-10-31","distance_m":57},{"price":395000,"date":"2024-03-29","distance_m":67},{"price":612800,"date":"2024-10-03","distance_m":90}]},"risks":{"flood":0.07,"clay":0.19,"noise":0.58},"transport_score":66,"neighborhood":{"walk_score":90,"schools_500m":33,"income":23000,"velib_400m":5,"trees_150m":154,"amenities":{"food":11,"health":8,"green":3,"culture":7}},"rent":{"ref_m2":23.4,"max_m2":28.1,"min_m2":16.4,"quartier":"Pont-de-Flandre","monthly_est":1236},"investment":{"gross_yield":3.24,"net_yield":1.9,"ppm2_percentile":88,"negotiation_margin_pct":0.1,"dpe_risk_score":88,"value_add_flag":false},"pois":[{"type":"transport","lat":48.886856931501875,"lng":2.3859131742732758,"label":"Ourcq · METRO 5"},{"type":"transport","lat":48.88841747876783,"lng":2.3917844509634323,"label":"Porte de Pantin · METRO 5"},{"type":"transport","lat":48.89465585833331,"lng":2.382160158371538,"label":"Corentin Cariou · METRO 7"},{"type":"transport","lat":48.890906449558166,"lng":2.377090439088876,"label":"Crimée · METRO 7"},{"type":"transport","lat":48.889007649506944,"lng":2.3956810747116024,"label":"Porte de Pantin · TRAM 3b"},{"type":"park","lat":48.890248650597904,"lng":2.38453676642261,"label":"JARDIN PARTAGE DU 38 QUAI DE LA MARNE"},{"type":"park","lat":48.88850255338872,"lng":2.3848082371734556,"label":"PROMENADE PC 19 - THIONVILLE - JAURES"},{"type":"park","lat":48.88801997788487,"lng":2.384634734485179,"label":"JARDIN PARTAGE 6-8 RUE DE L'OURCQ"},{"type":"velib","lat":48.891163,"lng":2.3865705,"label":"Metz - Marne"},{"type":"velib","lat":48.88917613743794,"lng":2.3833653330802917,"label":"Thionville - Ourcq"},{"type":"velib","lat":48.8906231,"lng":2.3833701,"label":"Quai de l'Oise - Aisne"},{"type":"velib","lat":48.89197621431365,"lng":2.3851288855075836,"label":"Place Paul Delouvrier"}],"dpe":{"energy_class":"C","ghg_class":"C"},"images":["https://images.unsplash.com/photo-1567496898669-ee935f5f647a?w=1200&h=750&q=66&auto=format&fit=crop&crop=entropy","https://images.unsplash.com/photo-1540518614846-7eded433c457?w=1200&h=750&q=66&auto=format&fit=crop&crop=entropy","https://images.unsplash.com/photo-1484154218962-a197022b5858?w=1200&h=750&q=66&auto=format&fit=crop&crop=entropy","https://images.unsplash.com/photo-1493809842364-78817add7ffb?w=1200&h=750&q=66&auto=format&fit=crop&crop=entropy","https://images.unsplash.com/photo-1505691938895-1758d7feb511?w=1200&h=750&q=66&auto=format&fit=crop&crop=entropy"],"thumb":"https://images.unsplash.com/photo-1567496898669-ee935f5f647a?w=480&h=300&q=55&auto=format&fit=crop&crop=entropy","score":{"opportunity_score":24,"value_score":12,"yield_score":25,"negotiation_score":0,"liquidity_score":66,"gentrification_score":45},"signals":{"price_drops":0,"total_drop_percent":0,"long_time_on_market":false,"explanations":["1.9% net rental yield (gross 3.2%)","33% above DVF average","2 days on market"]},"source":"dvf","url":"https://app.dvf.etalab.gouv.fr/"}