{"id":"dvf-2024-1229130","address":{"raw":"141 Rue De Longchamp, 75016 Paris","normalized":"141 Rue de Longchamp 75016 Paris","lat":48.867922,"lng":2.275921,"district":"75016"},"characteristics":{"surface_m2":34,"rooms":1,"floor":3},"pricing":{"current_price":250000,"price_per_m2":7353,"initial_price":250000},"timeline":{"first_seen":"2026-06-29","last_seen":"2026-07-01","days_on_market":2},"price_history":[{"date":"2026-06-29","price":250000,"source":"dvf"}],"status":"active","dvf":{"avg_price_m2_100m":11681,"avg_price_m2_500m":12268,"comparable_sales":[{"price":1358000,"date":"2024-05-07","distance_m":15},{"price":1460000,"date":"2024-10-18","distance_m":15},{"price":144800,"date":"2024-05-15","distance_m":18},{"price":2459600,"date":"2024-08-28","distance_m":26},{"price":295000,"date":"2024-04-16","distance_m":33},{"price":200000,"date":"2024-02-06","distance_m":41},{"price":900000,"date":"2024-06-18","distance_m":52},{"price":785000,"date":"2024-07-25","distance_m":65}]},"risks":{"flood":0,"clay":0.17,"noise":0.22},"transport_score":95,"neighborhood":{"walk_score":48,"schools_500m":19,"income":44000,"velib_400m":3,"trees_150m":66,"amenities":{"food":2,"health":7,"green":1,"culture":0}},"rent":{"ref_m2":29.5,"max_m2":35.4,"min_m2":20.6,"quartier":"Porte-Dauphine","monthly_est":1204},"investment":{"gross_yield":5.78,"net_yield":4.26,"ppm2_percentile":2,"negotiation_margin_pct":0.1,"dpe_risk_score":10,"value_add_flag":true},"pois":[{"type":"transport","lat":48.869830488996314,"lng":2.274808153642234,"label":"Avenue Foch · RER C"},{"type":"transport","lat":48.870180418141544,"lng":2.274627543314604,"label":"Porte Dauphine · TRAM 3b"},{"type":"transport","lat":48.86546235708394,"lng":2.2721593819194146,"label":"Avenue Henri Martin · RER C"},{"type":"transport","lat":48.87146657813589,"lng":2.2770830184157247,"label":"Porte Dauphine · METRO 2"},{"type":"transport","lat":48.86394013069539,"lng":2.2784416488331494,"label":"Rue de la Pompe · METRO 9"},{"type":"park","lat":48.86900704915837,"lng":2.274242254872275,"label":"JARDIN MAURICE BARLIER"},{"type":"park","lat":48.86759899346482,"lng":2.2731749838712587,"label":"JARDIN JAN DOORNIK"},{"type":"park","lat":48.86912734208814,"lng":2.27268376555223,"label":"SQUARE ROBERT SCHUMANN"},{"type":"velib","lat":48.86877849178477,"lng":2.274354539176829,"label":"Flandrin - Longchamp"},{"type":"velib","lat":48.865983,"lng":2.275725,"label":"Benjamin Godard - Victor Hugo"},{"type":"velib","lat":48.871139344351,"lng":2.2749781616017,"label":"Porte Dauphine"}],"dpe":{"energy_class":"G","ghg_class":"G"},"images":["https://images.unsplash.com/photo-1522708323590-d24dbb6b0267?w=1200&h=750&q=66&auto=format&fit=crop&crop=entropy","https://images.unsplash.com/photo-1554995207-c18c203602cb?w=1200&h=750&q=66&auto=format&fit=crop&crop=entropy","https://images.unsplash.com/photo-1502672260266-1c1ef2d93688?w=1200&h=750&q=66&auto=format&fit=crop&crop=entropy","https://images.unsplash.com/photo-1484154218962-a197022b5858?w=1200&h=750&q=66&auto=format&fit=crop&crop=entropy","https://images.unsplash.com/photo-1493663284031-b7e3aefcae8e?w=1200&h=750&q=66&auto=format&fit=crop&crop=entropy"],"thumb":"https://images.unsplash.com/photo-1522708323590-d24dbb6b0267?w=480&h=300&q=55&auto=format&fit=crop&crop=entropy","score":{"opportunity_score":78,"value_score":100,"yield_score":100,"negotiation_score":0,"liquidity_score":80,"gentrification_score":64},"signals":{"price_drops":0,"total_drop_percent":0,"long_time_on_market":false,"explanations":["4.3% net rental yield (gross 5.8%)","38.3% below DVF average (11 916 €/m²)","Cheaper than 98% of the arrondissement","2 days on market","Value-add: discount exceeds renovation cost (F/G arbitrage)"]},"source":"dvf","url":"https://app.dvf.etalab.gouv.fr/"}