{"id":"dvf-2024-1228411","address":{"raw":"3 Rue Augereau, 75007 Paris","normalized":"3 Rue Augereau 75007 Paris","lat":48.857776,"lng":2.301777,"district":"75007"},"characteristics":{"surface_m2":20,"rooms":1,"floor":3},"pricing":{"current_price":227288,"price_per_m2":11364,"initial_price":227288},"timeline":{"first_seen":"2026-06-29","last_seen":"2026-07-01","days_on_market":2},"price_history":[{"date":"2026-06-29","price":227288,"source":"dvf"}],"status":"active","dvf":{"avg_price_m2_100m":13002,"avg_price_m2_500m":13943,"comparable_sales":[{"price":365385,"date":"2024-05-07","distance_m":32},{"price":400000,"date":"2024-02-09","distance_m":41},{"price":720000,"date":"2024-04-30","distance_m":41},{"price":370000,"date":"2024-05-30","distance_m":41},{"price":569524,"date":"2024-09-30","distance_m":41},{"price":495000,"date":"2024-11-05","distance_m":41},{"price":1766940,"date":"2024-12-23","distance_m":41},{"price":2553600,"date":"2024-07-10","distance_m":51}]},"risks":{"flood":0.34,"clay":0.23,"noise":0.34},"transport_score":54,"neighborhood":{"walk_score":46,"schools_500m":21,"income":47000,"velib_400m":3,"trees_150m":117,"amenities":{"food":3,"health":0,"green":2,"culture":0}},"rent":{"ref_m2":33.4,"max_m2":40.1,"min_m2":23.4,"quartier":"Gros-Caillou","monthly_est":802},"investment":{"gross_yield":4.23,"net_yield":2.82,"ppm2_percentile":14,"negotiation_margin_pct":0.1,"dpe_risk_score":75,"value_add_flag":false},"pois":[{"type":"transport","lat":48.85489056687858,"lng":2.3064034857365168,"label":"École Militaire · METRO 8"},{"type":"transport","lat":48.86266245169435,"lng":2.300989969386769,"label":"Pont de l'Alma · RER C"},{"type":"transport","lat":48.85772541289347,"lng":2.310565960946845,"label":"La Tour Maubourg · METRO 8"},{"type":"park","lat":48.855655051074386,"lng":2.2985818973984062,"label":"JARDIN DU CHAMP DE MARS ET PELOUSES DE L'ECOLE MILITAIRE"},{"type":"velib","lat":48.858102885107,"lng":2.3004072904587,"label":"Rapp - Place du Général Gouraud"},{"type":"velib","lat":48.858651709526,"lng":2.3037165802346,"label":"Bosquet - Saint-Dominique"},{"type":"velib","lat":48.856691550115315,"lng":2.306646779179573,"label":"Champ de Mars - Cler"}],"dpe":{"energy_class":"D","ghg_class":"B"},"images":["https://images.unsplash.com/photo-1522708323590-d24dbb6b0267?w=1200&h=750&q=66&auto=format&fit=crop&crop=entropy","https://images.unsplash.com/photo-1484154218962-a197022b5858?w=1200&h=750&q=66&auto=format&fit=crop&crop=entropy","https://images.unsplash.com/photo-1554995207-c18c203602cb?w=1200&h=750&q=66&auto=format&fit=crop&crop=entropy","https://images.unsplash.com/photo-1493809842364-78817add7ffb?w=1200&h=750&q=66&auto=format&fit=crop&crop=entropy","https://images.unsplash.com/photo-1540518614846-7eded433c457?w=1200&h=750&q=66&auto=format&fit=crop&crop=entropy"],"thumb":"https://images.unsplash.com/photo-1522708323590-d24dbb6b0267?w=480&h=300&q=55&auto=format&fit=crop&crop=entropy","score":{"opportunity_score":57,"value_score":88,"yield_score":72,"negotiation_score":0,"liquidity_score":79,"gentrification_score":56},"signals":{"price_drops":0,"total_drop_percent":0,"long_time_on_market":false,"explanations":["2.8% net rental yield (gross 4.2%)","15.1% below DVF average (13 378 €/m²)","Cheaper than 86% of the arrondissement","2 days on market"]},"source":"dvf","url":"https://app.dvf.etalab.gouv.fr/"}