{"id":"dvf-2024-1210300","address":{"raw":"6 Rue Charles-Francois Dupuis, 75003 Paris","normalized":"6 Rue Charles-François Dupuis 75003 Paris","lat":48.865178,"lng":2.363198,"district":"75003"},"characteristics":{"surface_m2":38,"rooms":2,"floor":0},"pricing":{"current_price":638950,"price_per_m2":16814,"initial_price":638950},"timeline":{"first_seen":"2026-06-29","last_seen":"2026-07-01","days_on_market":2},"price_history":[{"date":"2026-06-29","price":638950,"source":"dvf"}],"status":"active","dvf":{"avg_price_m2_100m":10700,"avg_price_m2_500m":11701,"comparable_sales":[{"price":425000,"date":"2024-02-16","distance_m":9},{"price":315000,"date":"2024-03-18","distance_m":9},{"price":430750,"date":"2024-06-18","distance_m":9},{"price":247600,"date":"2024-10-08","distance_m":9},{"price":168000,"date":"2024-02-06","distance_m":53},{"price":350000,"date":"2024-09-30","distance_m":53},{"price":284870,"date":"2024-05-17","distance_m":54},{"price":333000,"date":"2024-03-15","distance_m":99}]},"risks":{"flood":0.01,"clay":0.29,"noise":0.5},"transport_score":95,"neighborhood":{"walk_score":78,"schools_500m":17,"income":35000,"velib_400m":9,"trees_150m":110,"amenities":{"food":10,"health":6,"green":1,"culture":5}},"rent":{"ref_m2":29.2,"max_m2":35,"min_m2":20.4,"quartier":"Enfants-Rouges","monthly_est":1330},"investment":{"gross_yield":2.5,"net_yield":1.21,"ppm2_percentile":90,"negotiation_margin_pct":0.1,"dpe_risk_score":55,"value_add_flag":false},"pois":[{"type":"transport","lat":48.86702678847436,"lng":2.364247995104706,"label":"République · METRO 3"},{"type":"transport","lat":48.866514461743,"lng":2.3608035032752688,"label":"Temple · METRO 3"},{"type":"transport","lat":48.867600880102444,"lng":2.3627573800027633,"label":"République · METRO 8"},{"type":"transport","lat":48.86778030055016,"lng":2.3629287001561123,"label":"République · METRO 9"},{"type":"transport","lat":48.86782709972698,"lng":2.3637404371950392,"label":"République · METRO 5"},{"type":"park","lat":48.86385775513695,"lng":2.361728173311372,"label":"JARDINETS DE LA MAIRIE DE PARIS CENTRE"},{"type":"park","lat":48.86445796617997,"lng":2.3607552645262286,"label":"SQUARE DU TEMPLE - ELIE WIESEL"},{"type":"park","lat":48.86306513083119,"lng":2.3616418938473718,"label":"JARDINET MADELEINE DE SCUDERY"},{"type":"velib","lat":48.864461781391,"lng":2.3617628216743,"label":"Mairie du 3ème"},{"type":"velib","lat":48.865709343796,"lng":2.3652737250724,"label":"Temple - Charlot"},{"type":"velib","lat":48.86446597201,"lng":2.3660597205162,"label":"Temple - Jean-Pierre Timbaud"},{"type":"velib","lat":48.867211201859,"lng":2.3635464370545,"label":"Place de la République - Temple"}],"dpe":{"energy_class":"E","ghg_class":"C"},"images":["https://images.unsplash.com/photo-1556912173-3bb406ef7e77?w=1200&h=750&q=66&auto=format&fit=crop&crop=entropy","https://images.unsplash.com/photo-1540518614846-7eded433c457?w=1200&h=750&q=66&auto=format&fit=crop&crop=entropy","https://images.unsplash.com/photo-1484154218962-a197022b5858?w=1200&h=750&q=66&auto=format&fit=crop&crop=entropy","https://images.unsplash.com/photo-1493663284031-b7e3aefcae8e?w=1200&h=750&q=66&auto=format&fit=crop&crop=entropy","https://images.unsplash.com/photo-1560448204-e02f11c3d0e2?w=1200&h=750&q=66&auto=format&fit=crop&crop=entropy"],"thumb":"https://images.unsplash.com/photo-1556912173-3bb406ef7e77?w=480&h=300&q=55&auto=format&fit=crop&crop=entropy","score":{"opportunity_score":16,"value_score":10,"yield_score":0,"negotiation_score":0,"liquidity_score":84,"gentrification_score":46},"signals":{"price_drops":0,"total_drop_percent":0,"long_time_on_market":false,"explanations":["1.2% net rental yield (gross 2.5%)","51.5% above DVF average","2 days on market"]},"source":"dvf","url":"https://app.dvf.etalab.gouv.fr/"}