{"id":"dvf-2024-1210171","address":{"raw":"39 Av De Saint-Ouen, 75017 Paris","normalized":"39 Avenue de Saint-Ouen 75017 Paris","lat":48.889981,"lng":2.326241,"district":"75017"},"characteristics":{"surface_m2":43,"rooms":2,"floor":4},"pricing":{"current_price":500000,"price_per_m2":11628,"initial_price":500000},"timeline":{"first_seen":"2026-06-29","last_seen":"2026-07-01","days_on_market":2},"price_history":[{"date":"2026-06-29","price":500000,"source":"dvf"}],"status":"active","dvf":{"avg_price_m2_100m":9375,"avg_price_m2_500m":9650,"comparable_sales":[{"price":410000,"date":"2024-03-19","distance_m":43},{"price":445180,"date":"2024-08-02","distance_m":43},{"price":145000,"date":"2024-04-09","distance_m":44},{"price":160000,"date":"2024-05-31","distance_m":44},{"price":237000,"date":"2024-06-18","distance_m":44},{"price":225000,"date":"2024-08-30","distance_m":44},{"price":140000,"date":"2024-05-06","distance_m":47},{"price":212000,"date":"2024-09-05","distance_m":54}]},"risks":{"flood":0.02,"clay":0.29,"noise":0.23},"transport_score":76,"neighborhood":{"walk_score":93,"schools_500m":20,"income":35000,"velib_400m":7,"trees_150m":100,"amenities":{"food":24,"health":14,"green":4,"culture":2}},"rent":{"ref_m2":25.4,"max_m2":30.5,"min_m2":17.8,"quartier":"Epinettes","monthly_est":1312},"investment":{"gross_yield":3.15,"net_yield":1.81,"ppm2_percentile":70,"negotiation_margin_pct":0.1,"dpe_risk_score":95,"value_add_flag":false},"pois":[{"type":"transport","lat":48.892206827747096,"lng":2.3272198679191285,"label":"Guy Môquet · METRO 13"},{"type":"transport","lat":48.88718394686579,"lng":2.3257796748068915,"label":"La Fourche · METRO 13"},{"type":"transport","lat":48.89058718661181,"lng":2.320174757151551,"label":"Brochant · METRO 13"},{"type":"transport","lat":48.88399982489613,"lng":2.32853013989038,"label":"Place de Clichy · METRO 2"},{"type":"transport","lat":48.8838045280338,"lng":2.3272434105874065,"label":"Place de Clichy · METRO 13"},{"type":"park","lat":48.890008477171015,"lng":2.3257423150256007,"label":"SQUARE DU PASSAGE MONCEY"},{"type":"park","lat":48.88756756680056,"lng":2.3302798871583636,"label":"CIMETIERE DU NORD DIT DE MONTMARTRE"},{"type":"park","lat":48.8864786986629,"lng":2.324744337885867,"label":"SQUARE HELENE"},{"type":"velib","lat":48.88794016394694,"lng":2.326124420314341,"label":"Etienne Jodelle - Saint Ouen"},{"type":"velib","lat":48.891072411961,"lng":2.3293416172542,"label":"Coysevox - Lamarck"},{"type":"velib","lat":48.888961618559,"lng":2.3225289750944,"label":"Legendre - Clichy"},{"type":"velib","lat":48.892777719023975,"lng":2.3270335793495183,"label":"Guy Môquet - Saint-Ouen"}],"dpe":{"energy_class":"B","ghg_class":"A"},"images":["https://images.unsplash.com/photo-1505691938895-1758d7feb511?w=1200&h=750&q=66&auto=format&fit=crop&crop=entropy","https://images.unsplash.com/photo-1554995207-c18c203602cb?w=1200&h=750&q=66&auto=format&fit=crop&crop=entropy","https://images.unsplash.com/photo-1502672260266-1c1ef2d93688?w=1200&h=750&q=66&auto=format&fit=crop&crop=entropy","https://images.unsplash.com/photo-1556912173-3bb406ef7e77?w=1200&h=750&q=66&auto=format&fit=crop&crop=entropy","https://images.unsplash.com/photo-1493663284031-b7e3aefcae8e?w=1200&h=750&q=66&auto=format&fit=crop&crop=entropy"],"thumb":"https://images.unsplash.com/photo-1505691938895-1758d7feb511?w=480&h=300&q=55&auto=format&fit=crop&crop=entropy","score":{"opportunity_score":31,"value_score":30,"yield_score":21,"negotiation_score":0,"liquidity_score":76,"gentrification_score":55},"signals":{"price_drops":0,"total_drop_percent":0,"long_time_on_market":false,"explanations":["1.8% net rental yield (gross 3.1%)","22.6% above DVF average","2 days on market"]},"source":"dvf","url":"https://app.dvf.etalab.gouv.fr/"}