{"id":"dvf-2024-1209942","address":{"raw":"10 Rue Puvis De Chavannes, 75017 Paris","normalized":"10 Rue Puvis de Chavannes 75017 Paris","lat":48.885929,"lng":2.301143,"district":"75017"},"characteristics":{"surface_m2":129,"rooms":4,"floor":2},"pricing":{"current_price":1140000,"price_per_m2":8837,"initial_price":1140000},"timeline":{"first_seen":"2026-06-29","last_seen":"2026-07-02","days_on_market":3},"price_history":[{"date":"2026-06-29","price":1140000,"source":"dvf"}],"status":"active","dvf":{"avg_price_m2_100m":11587,"avg_price_m2_500m":11041,"comparable_sales":[{"price":825000,"date":"2024-07-12","distance_m":11},{"price":2131250,"date":"2024-09-05","distance_m":11},{"price":3020100,"date":"2024-01-30","distance_m":38},{"price":1370000,"date":"2024-09-04","distance_m":90},{"price":2575000,"date":"2024-09-16","distance_m":90},{"price":331731,"date":"2024-06-17","distance_m":99},{"price":468900,"date":"2024-11-22","distance_m":111},{"price":1534550,"date":"2024-05-28","distance_m":123}]},"risks":{"flood":0.05,"clay":0.46,"noise":0.56},"transport_score":100,"neighborhood":{"walk_score":89,"schools_500m":16,"income":35000,"velib_400m":5,"trees_150m":95,"amenities":{"food":18,"health":10,"green":3,"culture":2}},"rent":{"ref_m2":24.7,"max_m2":29.6,"min_m2":17.3,"quartier":"Plaine de Monceaux","monthly_est":3818},"investment":{"gross_yield":4.02,"net_yield":2.62,"ppm2_percentile":30,"negotiation_margin_pct":0.1,"dpe_risk_score":30,"value_add_flag":true},"pois":[{"type":"transport","lat":48.88604139991642,"lng":2.299279102380644,"label":"Pereire-Levallois · RER C"},{"type":"transport","lat":48.884896255150515,"lng":2.2977243464801775,"label":"Pereire-Levallois · METRO 3"},{"type":"transport","lat":48.88737589044046,"lng":2.296965185039929,"label":"Square Sainte-Odile · TRAM 3b"},{"type":"transport","lat":48.88380920123339,"lng":2.304674440528396,"label":"Wagram · METRO 3"},{"type":"transport","lat":48.88973995110524,"lng":2.3032760496929354,"label":"Porte d'Asnières · TRAM 3b"},{"type":"park","lat":48.88493398867229,"lng":2.297320225997904,"label":"SQUARE ALBERT BESNARD"},{"type":"park","lat":48.887487096789755,"lng":2.305885502509888,"label":"PROMENADE PC 17 TRANCHEE PEREIRE"},{"type":"park","lat":48.88667494113323,"lng":2.306668951363357,"label":"SQUARE ALEXIS CLEREL DE TOCQUEVILLE"},{"type":"velib","lat":48.885263,"lng":2.298286,"label":"Place du Maréchal Juin - Péreire"},{"type":"velib","lat":48.887808570529,"lng":2.3000952981763,"label":"Alfred Roll - Berthier"},{"type":"velib","lat":48.887070607581215,"lng":2.304111124531457,"label":"Pereire - Place de Wagram"},{"type":"velib","lat":48.883769733273496,"lng":2.29858466343129,"label":"Courcelles - Pierre Demours"}],"dpe":{"energy_class":"F","ghg_class":"F"},"images":["https://images.unsplash.com/photo-1493809842364-78817add7ffb?w=1200&h=750&q=66&auto=format&fit=crop&crop=entropy","https://images.unsplash.com/photo-1540518614846-7eded433c457?w=1200&h=750&q=66&auto=format&fit=crop&crop=entropy","https://images.unsplash.com/photo-1560448204-e02f11c3d0e2?w=1200&h=750&q=66&auto=format&fit=crop&crop=entropy","https://images.unsplash.com/photo-1502672260266-1c1ef2d93688?w=1200&h=750&q=66&auto=format&fit=crop&crop=entropy","https://images.unsplash.com/photo-1567496898669-ee935f5f647a?w=1200&h=750&q=66&auto=format&fit=crop&crop=entropy"],"thumb":"https://images.unsplash.com/photo-1493809842364-78817add7ffb?w=480&h=300&q=55&auto=format&fit=crop&crop=entropy","score":{"opportunity_score":65,"value_score":100,"yield_score":62,"negotiation_score":1,"liquidity_score":71,"gentrification_score":55},"signals":{"price_drops":0,"total_drop_percent":0,"long_time_on_market":false,"explanations":["2.6% net rental yield (gross 4.0%)","22.3% below DVF average (11 369 €/m²)","Cheaper than 70% of the arrondissement","3 days on market","Value-add: discount exceeds renovation cost (F/G arbitrage)"]},"source":"dvf","url":"https://app.dvf.etalab.gouv.fr/"}