{"id":"dvf-2024-1229303","address":{"raw":"2 B Rue Bougainville, 75007 Paris","normalized":"2b Rue Bougainville 75007 Paris","lat":48.85565,"lng":2.308284,"district":"75007"},"characteristics":{"surface_m2":36,"rooms":2,"floor":3},"pricing":{"current_price":470000,"price_per_m2":13056,"initial_price":470000},"timeline":{"first_seen":"2026-06-29","last_seen":"2026-07-02","days_on_market":3},"price_history":[{"date":"2026-06-29","price":470000,"source":"dvf"}],"status":"active","dvf":{"avg_price_m2_100m":14097,"avg_price_m2_500m":14055,"comparable_sales":[{"price":745000,"date":"2024-09-05","distance_m":22},{"price":712000,"date":"2024-04-02","distance_m":36},{"price":835000,"date":"2024-07-29","distance_m":44},{"price":2270000,"date":"2024-09-10","distance_m":44},{"price":2345280,"date":"2024-11-05","distance_m":44},{"price":1450000,"date":"2024-09-09","distance_m":64},{"price":380000,"date":"2024-09-02","distance_m":66},{"price":1124200,"date":"2024-11-20","distance_m":66}]},"risks":{"flood":0.32,"clay":0.22,"noise":0.56},"transport_score":83,"neighborhood":{"walk_score":63,"schools_500m":12,"income":47000,"velib_400m":3,"trees_150m":48,"amenities":{"food":15,"health":1,"green":2,"culture":0}},"rent":{"ref_m2":29.6,"max_m2":35.5,"min_m2":20.7,"quartier":"Gros-Caillou","monthly_est":1278},"investment":{"gross_yield":3.26,"net_yield":1.92,"ppm2_percentile":46,"negotiation_margin_pct":0.1,"dpe_risk_score":75,"value_add_flag":false},"pois":[{"type":"transport","lat":48.85489056687858,"lng":2.3064034857365168,"label":"École Militaire · METRO 8"},{"type":"transport","lat":48.85772541289347,"lng":2.310565960946845,"label":"La Tour Maubourg · METRO 8"},{"type":"transport","lat":48.85687137924919,"lng":2.315056637317088,"label":"Varenne · METRO 13"},{"type":"transport","lat":48.86002845820203,"lng":2.3139151192031537,"label":"Invalides · METRO 13"},{"type":"transport","lat":48.85144170744032,"lng":2.314408121472487,"label":"Saint-François-Xavier · METRO 13"},{"type":"park","lat":48.85479636952683,"lng":2.3107128025495194,"label":"JARDIN DE L'INTENDANT"},{"type":"park","lat":48.85747586584056,"lng":2.310918683879623,"label":"SQUARE SANTIAGO DU CHILI"},{"type":"park","lat":48.85785906151368,"lng":2.310381319234973,"label":"JARDINET DE LA PLACE SALVADOR ALLENDE"},{"type":"velib","lat":48.856691550115315,"lng":2.306646779179573,"label":"Champ de Mars - Cler"},{"type":"velib","lat":48.856926701847,"lng":2.3096215831203,"label":"La Motte-Picquet - La Tour Maubourg"},{"type":"velib","lat":48.853754486938,"lng":2.3044242337346,"label":"Place Joffre - Frédéric le Play"}],"dpe":{"energy_class":"D","ghg_class":"B"},"images":["https://images.unsplash.com/photo-1502672260266-1c1ef2d93688?w=1200&h=750&q=66&auto=format&fit=crop&crop=entropy","https://images.unsplash.com/photo-1567496898669-ee935f5f647a?w=1200&h=750&q=66&auto=format&fit=crop&crop=entropy","https://images.unsplash.com/photo-1554995207-c18c203602cb?w=1200&h=750&q=66&auto=format&fit=crop&crop=entropy","https://images.unsplash.com/photo-1502005097973-6a7082348e28?w=1200&h=750&q=66&auto=format&fit=crop&crop=entropy","https://images.unsplash.com/photo-1484154218962-a197022b5858?w=1200&h=750&q=66&auto=format&fit=crop&crop=entropy"],"thumb":"https://images.unsplash.com/photo-1502672260266-1c1ef2d93688?w=480&h=300&q=55&auto=format&fit=crop&crop=entropy","score":{"opportunity_score":41,"value_score":68,"yield_score":26,"negotiation_score":1,"liquidity_score":84,"gentrification_score":56},"signals":{"price_drops":0,"total_drop_percent":0,"long_time_on_market":false,"explanations":["1.9% net rental yield (gross 3.3%)","7.3% below DVF average (14 080 €/m²)","3 days on market"]},"source":"dvf","url":"https://app.dvf.etalab.gouv.fr/"}