{"id":"dvf-2024-1229140","address":{"raw":"15 Rue Sarrette, 75014 Paris","normalized":"15 Rue Sarrette 75014 Paris","lat":48.826991,"lng":2.331033,"district":"75014"},"characteristics":{"surface_m2":101,"rooms":4,"floor":5},"pricing":{"current_price":927200,"price_per_m2":9180,"initial_price":927200},"timeline":{"first_seen":"2026-06-29","last_seen":"2026-07-01","days_on_market":2},"price_history":[{"date":"2026-06-29","price":927200,"source":"dvf"}],"status":"active","dvf":{"avg_price_m2_100m":9087,"avg_price_m2_500m":9551,"comparable_sales":[{"price":180000,"date":"2024-05-27","distance_m":19},{"price":119000,"date":"2024-09-20","distance_m":19},{"price":965000,"date":"2024-09-26","distance_m":19},{"price":750000,"date":"2024-05-14","distance_m":31},{"price":276000,"date":"2024-09-12","distance_m":40},{"price":295000,"date":"2024-12-05","distance_m":42},{"price":345000,"date":"2024-12-30","distance_m":42},{"price":133000,"date":"2024-04-30","distance_m":47}]},"risks":{"flood":0.01,"clay":0.24,"noise":0.44},"transport_score":80,"neighborhood":{"walk_score":92,"schools_500m":15,"income":32000,"velib_400m":3,"trees_150m":100,"amenities":{"food":21,"health":10,"green":3,"culture":4}},"rent":{"ref_m2":22.6,"max_m2":27.1,"min_m2":15.8,"quartier":"Petit-Montrouge","monthly_est":2737},"investment":{"gross_yield":3.54,"net_yield":2.18,"ppm2_percentile":36,"negotiation_margin_pct":0.1,"dpe_risk_score":55,"value_add_flag":false},"pois":[{"type":"transport","lat":48.82818847631351,"lng":2.3271646496078247,"label":"Alésia · METRO 4"},{"type":"transport","lat":48.83111266037533,"lng":2.3297050126201846,"label":"Mouton-Duvernet · METRO 4"},{"type":"transport","lat":48.82341162898739,"lng":2.3255756362122453,"label":"Porte d'Orléans · METRO 4"},{"type":"transport","lat":48.823151633128084,"lng":2.325509577822384,"label":"Porte d'Orléans · TRAM 3a"},{"type":"transport","lat":48.82150891739616,"lng":2.333339832857645,"label":"Montsouris · TRAM 3a"},{"type":"park","lat":48.82862088886777,"lng":2.3345272118518117,"label":"JARDINETS DE L'AVENUE RENE COTY"},{"type":"park","lat":48.823793109225974,"lng":2.331247103085243,"label":"SQUARE MARIAMA BA"},{"type":"park","lat":48.826587169188144,"lng":2.33701426835527,"label":"JARDIN PARTAGE DE L'AQUEDUC"},{"type":"velib","lat":48.8274804,"lng":2.3319217,"label":"Place des Droits de l'Enfant"},{"type":"velib","lat":48.82884804502439,"lng":2.3285973072052,"label":"Bézout - Général Leclerc"},{"type":"velib","lat":48.82764910241,"lng":2.3261967301369,"label":"Jean Moulin - Place Victor et Hélène Basch"}],"dpe":{"energy_class":"E","ghg_class":"D"},"images":["https://images.unsplash.com/photo-1502005097973-6a7082348e28?w=1200&h=750&q=66&auto=format&fit=crop&crop=entropy","https://images.unsplash.com/photo-1502672260266-1c1ef2d93688?w=1200&h=750&q=66&auto=format&fit=crop&crop=entropy","https://images.unsplash.com/photo-1560448204-e02f11c3d0e2?w=1200&h=750&q=66&auto=format&fit=crop&crop=entropy","https://images.unsplash.com/photo-1493663284031-b7e3aefcae8e?w=1200&h=750&q=66&auto=format&fit=crop&crop=entropy","https://images.unsplash.com/photo-1540518614846-7eded433c457?w=1200&h=750&q=66&auto=format&fit=crop&crop=entropy"],"thumb":"https://images.unsplash.com/photo-1502005097973-6a7082348e28?w=480&h=300&q=55&auto=format&fit=crop&crop=entropy","score":{"opportunity_score":36,"value_score":64,"yield_score":39,"negotiation_score":0,"liquidity_score":69,"gentrification_score":51},"signals":{"price_drops":0,"total_drop_percent":0,"long_time_on_market":false,"explanations":["2.2% net rental yield (gross 3.5%)","1% below DVF average (9 273 €/m²)","2 days on market"]},"source":"dvf","url":"https://app.dvf.etalab.gouv.fr/"}