{"id":"dvf-2024-1229110","address":{"raw":"8 Rue St J Baptiste De La Salle, 75006 Paris","normalized":"8 Rue Saint-Jean-Baptiste de la Salle 75006 Paris","lat":48.847375,"lng":2.319803,"district":"75006"},"characteristics":{"surface_m2":55,"rooms":2,"floor":3},"pricing":{"current_price":622371,"price_per_m2":11316,"initial_price":622371},"timeline":{"first_seen":"2026-06-29","last_seen":"2026-07-01","days_on_market":2},"price_history":[{"date":"2026-06-29","price":622371,"source":"dvf"}],"status":"active","dvf":{"avg_price_m2_100m":13681,"avg_price_m2_500m":14167,"comparable_sales":[{"price":450000,"date":"2024-02-23","distance_m":33},{"price":215000,"date":"2024-02-29","distance_m":33},{"price":198000,"date":"2024-06-04","distance_m":33},{"price":338000,"date":"2024-04-26","distance_m":35},{"price":1368000,"date":"2024-07-12","distance_m":35},{"price":846000,"date":"2024-07-25","distance_m":42},{"price":1087646,"date":"2024-11-06","distance_m":42},{"price":520000,"date":"2024-01-11","distance_m":77}]},"risks":{"flood":0.07,"clay":0.49,"noise":0.44},"transport_score":97,"neighborhood":{"walk_score":82,"schools_500m":15,"income":43000,"velib_400m":5,"trees_150m":89,"amenities":{"food":14,"health":9,"green":2,"culture":1}},"rent":{"ref_m2":29.6,"max_m2":35.5,"min_m2":20.7,"quartier":"Notre-Dame-des-Champs","monthly_est":1953},"investment":{"gross_yield":3.76,"net_yield":2.39,"ppm2_percentile":10,"negotiation_margin_pct":0.1,"dpe_risk_score":75,"value_add_flag":false},"pois":[{"type":"transport","lat":48.848816373369594,"lng":2.3212578628937472,"label":"Vaneau · METRO 10"},{"type":"transport","lat":48.84698910613954,"lng":2.3170052357372453,"label":"Duroc · METRO 10"},{"type":"transport","lat":48.84705255542817,"lng":2.3164243520508925,"label":"Duroc · METRO 13"},{"type":"transport","lat":48.84447014129587,"lng":2.317852783041332,"label":"Falguière · METRO 12"},{"type":"transport","lat":48.84687823885142,"lng":2.3267927850276813,"label":"Saint-Placide · METRO 4"},{"type":"park","lat":48.84779534321633,"lng":2.322149154962363,"label":"JARDIN DU PERE ARMAND DAVID"},{"type":"park","lat":48.84684490617847,"lng":2.3158004479746577,"label":"JARDIN HELEN KELLER ( INSTITUT NATIONAL DES JEUNES AVEUGLES)"},{"type":"park","lat":48.85063025767801,"lng":2.321412373857342,"label":"JARDIN DU POTAGER (ANCIEN HOPITAL LAENNEC)"},{"type":"velib","lat":48.84708159081946,"lng":2.321374788880348,"label":"Saint-Romain - Cherche-Midi"},{"type":"velib","lat":48.848563233059,"lng":2.3204218259346,"label":"Vaneau - Sèvres"},{"type":"velib","lat":48.848283157236,"lng":2.315749520203,"label":"Constant Coquelin - Invalides"},{"type":"velib","lat":48.84461063309956,"lng":2.317914068698883,"label":"Cherche-Midi - Hôpital Necker"}],"dpe":{"energy_class":"D","ghg_class":"C"},"images":["https://images.unsplash.com/photo-1540518614846-7eded433c457?w=1200&h=750&q=66&auto=format&fit=crop&crop=entropy","https://images.unsplash.com/photo-1505691938895-1758d7feb511?w=1200&h=750&q=66&auto=format&fit=crop&crop=entropy","https://images.unsplash.com/photo-1554995207-c18c203602cb?w=1200&h=750&q=66&auto=format&fit=crop&crop=entropy","https://images.unsplash.com/photo-1484154218962-a197022b5858?w=1200&h=750&q=66&auto=format&fit=crop&crop=entropy","https://images.unsplash.com/photo-1493809842364-78817add7ffb?w=1200&h=750&q=66&auto=format&fit=crop&crop=entropy"],"thumb":"https://images.unsplash.com/photo-1540518614846-7eded433c457?w=480&h=300&q=55&auto=format&fit=crop&crop=entropy","score":{"opportunity_score":55,"value_score":96,"yield_score":50,"negotiation_score":0,"liquidity_score":92,"gentrification_score":48},"signals":{"price_drops":0,"total_drop_percent":0,"long_time_on_market":false,"explanations":["2.4% net rental yield (gross 3.8%)","18.4% below DVF average (13 875 €/m²)","Cheaper than 90% of the arrondissement","2 days on market"]},"source":"dvf","url":"https://app.dvf.etalab.gouv.fr/"}