{"id":"dvf-2024-1228936","address":{"raw":"112 Rue Du Cherche-Midi, 75006 Paris","normalized":"112 Rue du Cherche-Midi 75006 Paris","lat":48.84646,"lng":2.320544,"district":"75006"},"characteristics":{"surface_m2":59,"rooms":2,"floor":0},"pricing":{"current_price":725000,"price_per_m2":12288,"initial_price":725000},"timeline":{"first_seen":"2026-06-29","last_seen":"2026-07-01","days_on_market":2},"price_history":[{"date":"2026-06-29","price":725000,"source":"dvf"}],"status":"active","dvf":{"avg_price_m2_100m":15103,"avg_price_m2_500m":13982,"comparable_sales":[{"price":850000,"date":"2024-04-29","distance_m":36},{"price":300000,"date":"2024-08-26","distance_m":39},{"price":1684200,"date":"2024-04-22","distance_m":53},{"price":1150000,"date":"2024-07-22","distance_m":53},{"price":1430000,"date":"2024-11-22","distance_m":53},{"price":2010000,"date":"2024-01-23","distance_m":70},{"price":305667,"date":"2024-04-25","distance_m":70},{"price":705000,"date":"2024-10-11","distance_m":70}]},"risks":{"flood":0.08,"clay":0.42,"noise":0.56},"transport_score":92,"neighborhood":{"walk_score":80,"schools_500m":12,"income":43000,"velib_400m":6,"trees_150m":99,"amenities":{"food":15,"health":4,"green":0,"culture":6}},"rent":{"ref_m2":29.6,"max_m2":35.5,"min_m2":20.7,"quartier":"Notre-Dame-des-Champs","monthly_est":2095},"investment":{"gross_yield":3.47,"net_yield":2.11,"ppm2_percentile":16,"negotiation_margin_pct":0.1,"dpe_risk_score":88,"value_add_flag":false},"pois":[{"type":"transport","lat":48.84698910613954,"lng":2.3170052357372453,"label":"Duroc · METRO 10"},{"type":"transport","lat":48.848816373369594,"lng":2.3212578628937472,"label":"Vaneau · METRO 10"},{"type":"transport","lat":48.84447014129587,"lng":2.317852783041332,"label":"Falguière · METRO 12"},{"type":"transport","lat":48.84705255542817,"lng":2.3164243520508925,"label":"Duroc · METRO 13"},{"type":"transport","lat":48.84378130573586,"lng":2.3243970123857944,"label":"Montparnasse-Bienvenüe · METRO 4"},{"type":"park","lat":48.84779534321633,"lng":2.322149154962363,"label":"JARDIN DU PERE ARMAND DAVID"},{"type":"park","lat":48.84684490617847,"lng":2.3158004479746577,"label":"JARDIN HELEN KELLER ( INSTITUT NATIONAL DES JEUNES AVEUGLES)"},{"type":"park","lat":48.85063025767801,"lng":2.321412373857342,"label":"JARDIN DU POTAGER (ANCIEN HOPITAL LAENNEC)"},{"type":"velib","lat":48.84708159081946,"lng":2.321374788880348,"label":"Saint-Romain - Cherche-Midi"},{"type":"velib","lat":48.848563233059,"lng":2.3204218259346,"label":"Vaneau - Sèvres"},{"type":"velib","lat":48.846128877747,"lng":2.3242672160268,"label":"Blaise-Desgoffe - Vaugirard"},{"type":"velib","lat":48.84461063309956,"lng":2.317914068698883,"label":"Cherche-Midi - Hôpital Necker"}],"dpe":{"energy_class":"C","ghg_class":"A"},"images":["https://images.unsplash.com/photo-1567496898669-ee935f5f647a?w=1200&h=750&q=66&auto=format&fit=crop&crop=entropy","https://images.unsplash.com/photo-1493809842364-78817add7ffb?w=1200&h=750&q=66&auto=format&fit=crop&crop=entropy","https://images.unsplash.com/photo-1540518614846-7eded433c457?w=1200&h=750&q=66&auto=format&fit=crop&crop=entropy","https://images.unsplash.com/photo-1560448204-e02f11c3d0e2?w=1200&h=750&q=66&auto=format&fit=crop&crop=entropy","https://images.unsplash.com/photo-1505691938895-1758d7feb511?w=1200&h=750&q=66&auto=format&fit=crop&crop=entropy"],"thumb":"https://images.unsplash.com/photo-1567496898669-ee935f5f647a?w=480&h=300&q=55&auto=format&fit=crop&crop=entropy","score":{"opportunity_score":53,"value_score":90,"yield_score":36,"negotiation_score":0,"liquidity_score":90,"gentrification_score":48},"signals":{"price_drops":0,"total_drop_percent":0,"long_time_on_market":false,"explanations":["2.1% net rental yield (gross 3.5%)","16.1% below DVF average (14 655 €/m²)","Cheaper than 84% of the arrondissement","2 days on market"]},"source":"dvf","url":"https://app.dvf.etalab.gouv.fr/"}