{"id":"dvf-2024-1210218","address":{"raw":"22 Rue Jean Goujon, 75008 Paris","normalized":"22 Rue Jean Goujon 75008 Paris","lat":48.865948,"lng":2.306544,"district":"75008"},"characteristics":{"surface_m2":19,"rooms":1,"floor":3},"pricing":{"current_price":278846,"price_per_m2":14676,"initial_price":278846},"timeline":{"first_seen":"2026-06-29","last_seen":"2026-07-01","days_on_market":2},"price_history":[{"date":"2026-06-29","price":278846,"source":"dvf"}],"status":"active","dvf":{"avg_price_m2_100m":17822,"avg_price_m2_500m":17083,"comparable_sales":[{"price":4153950,"date":"2024-01-31","distance_m":26},{"price":1500000,"date":"2024-04-26","distance_m":26},{"price":3187000,"date":"2024-10-23","distance_m":26},{"price":1250000,"date":"2024-01-24","distance_m":69},{"price":1661000,"date":"2024-12-06","distance_m":69},{"price":4900000,"date":"2024-09-16","distance_m":80},{"price":1750000,"date":"2024-05-21","distance_m":154},{"price":4300000,"date":"2024-06-19","distance_m":154}]},"risks":{"flood":0.11,"clay":0.3,"noise":0.42},"transport_score":84,"neighborhood":{"walk_score":40,"schools_500m":4,"income":45000,"velib_400m":4,"trees_150m":81,"amenities":{"food":4,"health":0,"green":1,"culture":1}},"rent":{"ref_m2":34,"max_m2":40.8,"min_m2":23.8,"quartier":"Champs-Elysées","monthly_est":775},"investment":{"gross_yield":3.34,"net_yield":1.99,"ppm2_percentile":68,"negotiation_margin_pct":0.1,"dpe_risk_score":75,"value_add_flag":false},"pois":[{"type":"transport","lat":48.86869984735294,"lng":2.309505157337887,"label":"Franklin D. Roosevelt · METRO 9"},{"type":"transport","lat":48.869438881659114,"lng":2.3086074935262557,"label":"Franklin D. Roosevelt · METRO 1"},{"type":"transport","lat":48.86476684497177,"lng":2.3009910034955845,"label":"Alma-Marceau · METRO 9"},{"type":"transport","lat":48.86266245169435,"lng":2.300989969386769,"label":"Pont de l'Alma · RER C"},{"type":"transport","lat":48.862884804554966,"lng":2.31251355492596,"label":"Invalides · RER C"},{"type":"park","lat":48.86434601131134,"lng":2.30667375201206,"label":"PROMENADE DU COURS ALBERT 1ER"},{"type":"park","lat":48.86491841602704,"lng":2.3029111933359894,"label":"JARDINET DE LA PLACE DE LA REINE ASTRID"},{"type":"park","lat":48.864498420651735,"lng":2.3030080461366795,"label":"JARDINET AUX ABORDS DU PASSAGE SOUTERRAIN ALMA"},{"type":"velib","lat":48.866887649978,"lng":2.3066755757207,"label":"François 1er - Montaigne"},{"type":"velib","lat":48.865346269363,"lng":2.3101937879648,"label":"Place du Canada"},{"type":"velib","lat":48.864920982538,"lng":2.3025491823859,"label":"Place de la Reine Astrid"},{"type":"velib","lat":48.869495661232,"lng":2.3066138139003,"label":"Marignan - Champs-Elysées"}],"dpe":{"energy_class":"D","ghg_class":"D"},"images":["https://images.unsplash.com/photo-1567496898669-ee935f5f647a?w=1200&h=750&q=66&auto=format&fit=crop&crop=entropy","https://images.unsplash.com/photo-1540518614846-7eded433c457?w=1200&h=750&q=66&auto=format&fit=crop&crop=entropy","https://images.unsplash.com/photo-1484154218962-a197022b5858?w=1200&h=750&q=66&auto=format&fit=crop&crop=entropy","https://images.unsplash.com/photo-1502672260266-1c1ef2d93688?w=1200&h=750&q=66&auto=format&fit=crop&crop=entropy","https://images.unsplash.com/photo-1502005097973-6a7082348e28?w=1200&h=750&q=66&auto=format&fit=crop&crop=entropy"],"thumb":"https://images.unsplash.com/photo-1567496898669-ee935f5f647a?w=480&h=300&q=55&auto=format&fit=crop&crop=entropy","score":{"opportunity_score":47,"value_score":91,"yield_score":30,"negotiation_score":0,"liquidity_score":78,"gentrification_score":61},"signals":{"price_drops":0,"total_drop_percent":0,"long_time_on_market":false,"explanations":["2.0% net rental yield (gross 3.3%)","16.3% below DVF average (17 526 €/m²)","2 days on market"]},"source":"dvf","url":"https://app.dvf.etalab.gouv.fr/"}