{"id":"dvf-2024-1229270","address":{"raw":"39 Rue Jenner, 75013 Paris","normalized":"39 Rue Jenner 75013 Paris","lat":48.835537,"lng":2.361655,"district":"75013"},"characteristics":{"surface_m2":61,"rooms":3,"floor":2},"pricing":{"current_price":620000,"price_per_m2":10164,"initial_price":620000},"timeline":{"first_seen":"2026-06-29","last_seen":"2026-07-02","days_on_market":3},"price_history":[{"date":"2026-06-29","price":620000,"source":"dvf"}],"status":"active","dvf":{"avg_price_m2_100m":8418,"avg_price_m2_500m":8861,"comparable_sales":[{"price":641940,"date":"2024-04-23","distance_m":88},{"price":690000,"date":"2024-05-24","distance_m":88},{"price":678000,"date":"2024-11-08","distance_m":88},{"price":280000,"date":"2024-05-29","distance_m":98},{"price":220000,"date":"2024-12-17","distance_m":124},{"price":342100,"date":"2024-01-11","distance_m":130},{"price":371000,"date":"2024-03-21","distance_m":130},{"price":460000,"date":"2024-05-22","distance_m":130}]},"risks":{"flood":0.02,"clay":0.34,"noise":0.25},"transport_score":86,"neighborhood":{"walk_score":76,"schools_500m":11,"income":27000,"velib_400m":5,"trees_150m":44,"amenities":{"food":24,"health":5,"green":0,"culture":5}},"rent":{"ref_m2":25,"max_m2":30,"min_m2":17.5,"quartier":"Salpêtrière","monthly_est":1830},"investment":{"gross_yield":3.54,"net_yield":2.18,"ppm2_percentile":80,"negotiation_margin_pct":0.1,"dpe_risk_score":75,"value_add_flag":false},"pois":[{"type":"transport","lat":48.835152535740804,"lng":2.3585662563494667,"label":"Campo Formio · METRO 5"},{"type":"transport","lat":48.83321671970985,"lng":2.362856399519012,"label":"Nationale · METRO 6"},{"type":"transport","lat":48.83842729696758,"lng":2.360967167698855,"label":"Saint-Marcel · METRO 5"},{"type":"transport","lat":48.83494772325454,"lng":2.3681263304132094,"label":"Chevaleret · METRO 6"},{"type":"transport","lat":48.83143363013256,"lng":2.355643643033711,"label":"Place d'Italie · METRO 7"},{"type":"park","lat":48.83615372496458,"lng":2.359892493989504,"label":"JARDIN FEDERICA MONTSENY"},{"type":"park","lat":48.833740704703175,"lng":2.362371217923706,"label":"SQUARE GUSTAVE MESUREUR"},{"type":"park","lat":48.834281146036524,"lng":2.3566954047881383,"label":"JARDIN PARTAGE DU BOULEVARD DE L'HOPITAL"},{"type":"velib","lat":48.835405,"lng":2.358218,"label":"Hôpital - Campo-Formio"},{"type":"velib","lat":48.8377016,"lng":2.3604946,"label":"Hôpital Pitié Salpêtrière"},{"type":"velib","lat":48.83252708397293,"lng":2.362354410392119,"label":"Nationale - Vincent Auriol"},{"type":"velib","lat":48.83748810318667,"lng":2.365213818848133,"label":"Pitié-Salpêtrière"}],"dpe":{"energy_class":"D","ghg_class":"B"},"images":["https://images.unsplash.com/photo-1502672260266-1c1ef2d93688?w=1200&h=750&q=66&auto=format&fit=crop&crop=entropy","https://images.unsplash.com/photo-1522708323590-d24dbb6b0267?w=1200&h=750&q=66&auto=format&fit=crop&crop=entropy","https://images.unsplash.com/photo-1560448204-e02f11c3d0e2?w=1200&h=750&q=66&auto=format&fit=crop&crop=entropy","https://images.unsplash.com/photo-1493809842364-78817add7ffb?w=1200&h=750&q=66&auto=format&fit=crop&crop=entropy","https://images.unsplash.com/photo-1567496898669-ee935f5f647a?w=1200&h=750&q=66&auto=format&fit=crop&crop=entropy"],"thumb":"https://images.unsplash.com/photo-1502672260266-1c1ef2d93688?w=480&h=300&q=55&auto=format&fit=crop&crop=entropy","score":{"opportunity_score":29,"value_score":20,"yield_score":39,"negotiation_score":1,"liquidity_score":71,"gentrification_score":48},"signals":{"price_drops":0,"total_drop_percent":0,"long_time_on_market":false,"explanations":["2.2% net rental yield (gross 3.5%)","18.3% above DVF average","3 days on market"]},"source":"dvf","url":"https://app.dvf.etalab.gouv.fr/"}