{"id":"dvf-2024-1209870","address":{"raw":"341 Rue Saint Martin, 75003 Paris","normalized":"341 Rue Saint-Martin 75003 Paris","lat":48.868156,"lng":2.354974,"district":"75003"},"characteristics":{"surface_m2":34,"rooms":1,"floor":1},"pricing":{"current_price":283810,"price_per_m2":8347,"initial_price":283810},"timeline":{"first_seen":"2026-06-29","last_seen":"2026-07-01","days_on_market":2},"price_history":[{"date":"2026-06-29","price":283810,"source":"dvf"}],"status":"active","dvf":{"avg_price_m2_100m":11938,"avg_price_m2_500m":10852,"comparable_sales":[{"price":677831,"date":"2024-11-29","distance_m":24},{"price":284000,"date":"2024-03-06","distance_m":52},{"price":407450,"date":"2024-08-27","distance_m":55},{"price":179000,"date":"2024-03-13","distance_m":61},{"price":407000,"date":"2024-10-10","distance_m":66},{"price":470000,"date":"2024-09-23","distance_m":70},{"price":395000,"date":"2024-07-04","distance_m":72},{"price":811400,"date":"2024-04-03","distance_m":77}]},"risks":{"flood":0.05,"clay":0.33,"noise":0.36},"transport_score":99,"neighborhood":{"walk_score":84,"schools_500m":13,"income":35000,"velib_400m":10,"trees_150m":79,"amenities":{"food":28,"health":5,"green":3,"culture":2}},"rent":{"ref_m2":32.9,"max_m2":39.5,"min_m2":23,"quartier":"Arts-et-Metiers","monthly_est":1343},"investment":{"gross_yield":5.68,"net_yield":4.17,"ppm2_percentile":0,"negotiation_margin_pct":0.1,"dpe_risk_score":75,"value_add_flag":false},"pois":[{"type":"transport","lat":48.86940219665552,"lng":2.3538187935928794,"label":"Strasbourg-Saint-Denis · METRO 9"},{"type":"transport","lat":48.86940219665552,"lng":2.3538187935928794,"label":"Strasbourg-Saint-Denis · METRO 8"},{"type":"transport","lat":48.869628863778516,"lng":2.354468813108209,"label":"Strasbourg-Saint-Denis · METRO 4"},{"type":"transport","lat":48.86673355595668,"lng":2.352829461254394,"label":"Réaumur Sébastopol · METRO 4"},{"type":"transport","lat":48.86558647849898,"lng":2.356736756794993,"label":"Arts et Métiers · METRO 3"},{"type":"park","lat":48.86716495485072,"lng":2.35381777722813,"label":"SQUARE EMILE CHAUTEMPS"},{"type":"park","lat":48.867169401176135,"lng":2.356601346270735,"label":"JARDIN PARTAGE DU CONSERVATOIRE DES ARTS ET METIERS"},{"type":"park","lat":48.86984822793833,"lng":2.3501256247952056,"label":"JARDIN PARTAGE DU SQUARE JACQUES BIDAUT"},{"type":"velib","lat":48.86860172112996,"lng":2.35570102930069,"label":"Porte Saint-Martin"},{"type":"velib","lat":48.867433724231,"lng":2.3536357283592,"label":"Square Emile - Chautemps"},{"type":"velib","lat":48.869601642433,"lng":2.3542908579111,"label":"Strasbourg - Saint-Denis"},{"type":"velib","lat":48.865574047531,"lng":2.3564198613167,"label":"Turbigo - Réaumur"}],"dpe":{"energy_class":"D","ghg_class":"B"},"images":["https://images.unsplash.com/photo-1560448204-e02f11c3d0e2?w=1200&h=750&q=66&auto=format&fit=crop&crop=entropy","https://images.unsplash.com/photo-1522708323590-d24dbb6b0267?w=1200&h=750&q=66&auto=format&fit=crop&crop=entropy","https://images.unsplash.com/photo-1493809842364-78817add7ffb?w=1200&h=750&q=66&auto=format&fit=crop&crop=entropy","https://images.unsplash.com/photo-1554995207-c18c203602cb?w=1200&h=750&q=66&auto=format&fit=crop&crop=entropy","https://images.unsplash.com/photo-1502672260266-1c1ef2d93688?w=1200&h=750&q=66&auto=format&fit=crop&crop=entropy"],"thumb":"https://images.unsplash.com/photo-1560448204-e02f11c3d0e2?w=480&h=300&q=55&auto=format&fit=crop&crop=entropy","score":{"opportunity_score":68,"value_score":100,"yield_score":100,"negotiation_score":0,"liquidity_score":90,"gentrification_score":46},"signals":{"price_drops":0,"total_drop_percent":0,"long_time_on_market":false,"explanations":["4.2% net rental yield (gross 5.7%)","27.4% below DVF average (11 504 €/m²)","Cheaper than 100% of the arrondissement","2 days on market"]},"source":"dvf","url":"https://app.dvf.etalab.gouv.fr/"}