{"id":"dvf-2024-1207288","address":{"raw":"26 Rue Montmartre, 75001 Paris","normalized":"26 Rue Montmartre 75001 Paris","lat":48.864215,"lng":2.345559,"district":"75001"},"characteristics":{"surface_m2":86,"rooms":3,"floor":0},"pricing":{"current_price":750090,"price_per_m2":8722,"initial_price":750090},"timeline":{"first_seen":"2026-06-29","last_seen":"2026-07-02","days_on_market":3},"price_history":[{"date":"2026-06-29","price":750090,"source":"dvf"}],"status":"active","dvf":{"avg_price_m2_100m":12132,"avg_price_m2_500m":12445,"comparable_sales":[{"price":270000,"date":"2024-10-11","distance_m":23},{"price":332000,"date":"2024-02-05","distance_m":25},{"price":1462250,"date":"2024-05-13","distance_m":25},{"price":379000,"date":"2024-08-29","distance_m":25},{"price":245000,"date":"2024-01-26","distance_m":37},{"price":175000,"date":"2024-11-14","distance_m":37},{"price":180000,"date":"2024-12-18","distance_m":37},{"price":2369250,"date":"2024-03-04","distance_m":41}]},"risks":{"flood":0.15,"clay":0.26,"noise":0.21},"transport_score":97,"neighborhood":{"walk_score":56,"schools_500m":11,"income":36000,"velib_400m":12,"trees_150m":10,"amenities":{"food":13,"health":1,"green":0,"culture":2}},"rent":{"ref_m2":23.7,"max_m2":28.4,"min_m2":16.6,"quartier":"Halles","monthly_est":2442},"investment":{"gross_yield":3.91,"net_yield":2.52,"ppm2_percentile":2,"negotiation_margin_pct":0.1,"dpe_risk_score":88,"value_add_flag":false},"pois":[{"type":"transport","lat":48.86251523497548,"lng":2.345785860039181,"label":"Les Halles · METRO 4"},{"type":"transport","lat":48.86182227279812,"lng":2.3470126872387564,"label":"Châtelet-Les Halles · RER B"},{"type":"transport","lat":48.86182227279812,"lng":2.3470126872387564,"label":"Châtelet-Les Halles · RER D"},{"type":"transport","lat":48.86182227279812,"lng":2.3470126872387564,"label":"Châtelet-Les Halles · RER A"},{"type":"transport","lat":48.863972478817246,"lng":2.3496175641598405,"label":"Étienne Marcel · METRO 4"},{"type":"park","lat":48.86638773075733,"lng":2.3466418776593287,"label":"JARDIN PARTAGE LE JARDIN DE BONNE"},{"type":"park","lat":48.867071896548595,"lng":2.348286168102479,"label":"JARDINET LAZAREFF"},{"type":"park","lat":48.86673388844411,"lng":2.3498762921994794,"label":"JARDINET REAUMUR"},{"type":"velib","lat":48.86450567259199,"lng":2.3461959511041637,"label":"Etienne Marcel - Montorgueil"},{"type":"velib","lat":48.86502194581,"lng":2.3450684401448,"label":"Montmartre - Etienne Marcel"},{"type":"velib","lat":48.864053304653766,"lng":2.347587011754513,"label":"Française - Etienne Marcel"},{"type":"velib","lat":48.86358858111446,"lng":2.3477794602513313,"label":"Turbigo - Française"}],"dpe":{"energy_class":"C","ghg_class":"B"},"images":["https://images.unsplash.com/photo-1505691938895-1758d7feb511?w=1200&h=750&q=66&auto=format&fit=crop&crop=entropy","https://images.unsplash.com/photo-1560448204-e02f11c3d0e2?w=1200&h=750&q=66&auto=format&fit=crop&crop=entropy","https://images.unsplash.com/photo-1556912173-3bb406ef7e77?w=1200&h=750&q=66&auto=format&fit=crop&crop=entropy","https://images.unsplash.com/photo-1484154218962-a197022b5858?w=1200&h=750&q=66&auto=format&fit=crop&crop=entropy","https://images.unsplash.com/photo-1493663284031-b7e3aefcae8e?w=1200&h=750&q=66&auto=format&fit=crop&crop=entropy"],"thumb":"https://images.unsplash.com/photo-1505691938895-1758d7feb511?w=480&h=300&q=55&auto=format&fit=crop&crop=entropy","score":{"opportunity_score":60,"value_score":100,"yield_score":57,"negotiation_score":1,"liquidity_score":77,"gentrification_score":45},"signals":{"price_drops":0,"total_drop_percent":0,"long_time_on_market":false,"explanations":["2.5% net rental yield (gross 3.9%)","28.8% below DVF average (12 257 €/m²)","Cheaper than 98% of the arrondissement","3 days on market"]},"source":"dvf","url":"https://app.dvf.etalab.gouv.fr/"}