{"id":"dvf-2024-1210153","address":{"raw":"5 Rue Catulle Mendes, 75017 Paris","normalized":"5 Rue Catulle Mendès 75017 Paris","lat":48.88646,"lng":2.291411,"district":"75017"},"characteristics":{"surface_m2":117,"rooms":4,"floor":6},"pricing":{"current_price":980000,"price_per_m2":8376,"initial_price":980000},"timeline":{"first_seen":"2026-06-29","last_seen":"2026-07-01","days_on_market":2},"price_history":[{"date":"2026-06-29","price":980000,"source":"dvf"}],"status":"active","dvf":{"avg_price_m2_100m":8871,"avg_price_m2_500m":10033,"comparable_sales":[{"price":1065000,"date":"2024-04-26","distance_m":10},{"price":526500,"date":"2024-02-27","distance_m":21},{"price":710000,"date":"2024-05-30","distance_m":21},{"price":632500,"date":"2024-07-11","distance_m":21},{"price":836900,"date":"2024-02-02","distance_m":26},{"price":528450,"date":"2024-01-16","distance_m":44},{"price":450000,"date":"2024-04-18","distance_m":44},{"price":451000,"date":"2024-04-16","distance_m":44}]},"risks":{"flood":0.08,"clay":0.18,"noise":0.21},"transport_score":100,"neighborhood":{"walk_score":93,"schools_500m":13,"income":35000,"velib_400m":4,"trees_150m":114,"amenities":{"food":16,"health":3,"green":4,"culture":5}},"rent":{"ref_m2":24.7,"max_m2":29.6,"min_m2":17.3,"quartier":"Ternes","monthly_est":3463},"investment":{"gross_yield":4.24,"net_yield":2.83,"ppm2_percentile":18,"negotiation_margin_pct":0.1,"dpe_risk_score":75,"value_add_flag":false},"pois":[{"type":"transport","lat":48.88597054515737,"lng":2.2921354803495397,"label":"Porte de Champerret​ · TRAM 3b"},{"type":"transport","lat":48.886006151507,"lng":2.293529966337255,"label":"Porte de Champerret · METRO 3"},{"type":"transport","lat":48.88870601977514,"lng":2.2880836330485037,"label":"Louise Michel · METRO 3"},{"type":"transport","lat":48.88342328560661,"lng":2.2880331154619915,"label":"Thérèse Pierre · TRAM 3b"},{"type":"transport","lat":48.88737589044046,"lng":2.296965185039929,"label":"Square Sainte-Odile · TRAM 3b"},{"type":"park","lat":48.88611587313068,"lng":2.2900518152772964,"label":"SQUARE DE L'AMERIQUE LATINE"},{"type":"park","lat":48.88700919911671,"lng":2.290101269683104,"label":"SQUARE DU CAPORAL PEUGEOT"},{"type":"park","lat":48.886492857462066,"lng":2.289184322670282,"label":"SQUARE AUGUSTE BALAGNY"},{"type":"velib","lat":48.886062068226,"lng":2.2917001576821,"label":"Place de la Porte de Champeret"},{"type":"velib","lat":48.885927922355044,"lng":2.2933450341224675,"label":"Berthier - Place Stuart Merril"},{"type":"velib","lat":48.88655580065981,"lng":2.288640439510346,"label":"Jean Oestreicher - Porte de Champerret"},{"type":"velib","lat":48.88873214926474,"lng":2.2881576418876652,"label":"Anatole France - Louise Michel"}],"dpe":{"energy_class":"D","ghg_class":"B"},"images":["https://images.unsplash.com/photo-1502005097973-6a7082348e28?w=1200&h=750&q=66&auto=format&fit=crop&crop=entropy","https://images.unsplash.com/photo-1540518614846-7eded433c457?w=1200&h=750&q=66&auto=format&fit=crop&crop=entropy","https://images.unsplash.com/photo-1505691938895-1758d7feb511?w=1200&h=750&q=66&auto=format&fit=crop&crop=entropy","https://images.unsplash.com/photo-1502672260266-1c1ef2d93688?w=1200&h=750&q=66&auto=format&fit=crop&crop=entropy","https://images.unsplash.com/photo-1560448204-e02f11c3d0e2?w=1200&h=750&q=66&auto=format&fit=crop&crop=entropy"],"thumb":"https://images.unsplash.com/photo-1502005097973-6a7082348e28?w=480&h=300&q=55&auto=format&fit=crop&crop=entropy","score":{"opportunity_score":55,"value_score":82,"yield_score":73,"negotiation_score":0,"liquidity_score":72,"gentrification_score":55},"signals":{"price_drops":0,"total_drop_percent":0,"long_time_on_market":false,"explanations":["2.8% net rental yield (gross 4.2%)","10.3% below DVF average (9 336 €/m²)","Cheaper than 82% of the arrondissement","2 days on market"]},"source":"dvf","url":"https://app.dvf.etalab.gouv.fr/"}