{"id":"dvf-2024-1210343","address":{"raw":"98 Av De Villiers, 75017 Paris","normalized":"98 Avenue de Villiers 75017 Paris","lat":48.884714,"lng":2.300242,"district":"75017"},"characteristics":{"surface_m2":106,"rooms":4,"floor":1},"pricing":{"current_price":1370000,"price_per_m2":12925,"initial_price":1370000},"timeline":{"first_seen":"2026-06-29","last_seen":"2026-07-02","days_on_market":3},"price_history":[{"date":"2026-06-29","price":1370000,"source":"dvf"}],"status":"active","dvf":{"avg_price_m2_100m":11868,"avg_price_m2_500m":11116,"comparable_sales":[{"price":1005000,"date":"2024-05-27","distance_m":21},{"price":477588,"date":"2024-05-15","distance_m":27},{"price":180000,"date":"2024-09-23","distance_m":27},{"price":468900,"date":"2024-11-22","distance_m":42},{"price":646300,"date":"2024-10-16","distance_m":62},{"price":331731,"date":"2024-06-17","distance_m":74},{"price":850000,"date":"2024-04-25","distance_m":90},{"price":2455776,"date":"2024-01-08","distance_m":104}]},"risks":{"flood":0.05,"clay":0.39,"noise":0.75},"transport_score":99,"neighborhood":{"walk_score":80,"schools_500m":18,"income":35000,"velib_400m":7,"trees_150m":149,"amenities":{"food":19,"health":4,"green":0,"culture":5}},"rent":{"ref_m2":24.7,"max_m2":29.6,"min_m2":17.3,"quartier":"Plaine de Monceaux","monthly_est":3138},"investment":{"gross_yield":2.75,"net_yield":1.44,"ppm2_percentile":88,"negotiation_margin_pct":0.1,"dpe_risk_score":30,"value_add_flag":false},"pois":[{"type":"transport","lat":48.88604139991642,"lng":2.299279102380644,"label":"Pereire-Levallois · RER C"},{"type":"transport","lat":48.884896255150515,"lng":2.2977243464801775,"label":"Pereire-Levallois · METRO 3"},{"type":"transport","lat":48.88380920123339,"lng":2.304674440528396,"label":"Wagram · METRO 3"},{"type":"transport","lat":48.88737589044046,"lng":2.296965185039929,"label":"Square Sainte-Odile · TRAM 3b"},{"type":"transport","lat":48.886006151507,"lng":2.293529966337255,"label":"Porte de Champerret · METRO 3"},{"type":"park","lat":48.88493398867229,"lng":2.297320225997904,"label":"SQUARE ALBERT BESNARD"},{"type":"park","lat":48.88422987490524,"lng":2.2958580488378795,"label":"PROMENADE PEREIRE - PROMENADE GILBERTE BROSSOLETTE"},{"type":"park","lat":48.88342955407073,"lng":2.294386149090137,"label":"PROMENADE PEREIRE - PROMENADE ROSEMONDE PUJOL"},{"type":"velib","lat":48.885263,"lng":2.298286,"label":"Place du Maréchal Juin - Péreire"},{"type":"velib","lat":48.883769733273496,"lng":2.29858466343129,"label":"Courcelles - Pierre Demours"},{"type":"velib","lat":48.881973298352,"lng":2.301132157445,"label":"Jouffroy d'Abbans - Wagram"},{"type":"velib","lat":48.887808570529,"lng":2.3000952981763,"label":"Alfred Roll - Berthier"}],"dpe":{"energy_class":"F","ghg_class":"F"},"images":["https://images.unsplash.com/photo-1505691938895-1758d7feb511?w=1200&h=750&q=66&auto=format&fit=crop&crop=entropy","https://images.unsplash.com/photo-1560448204-e02f11c3d0e2?w=1200&h=750&q=66&auto=format&fit=crop&crop=entropy","https://images.unsplash.com/photo-1493809842364-78817add7ffb?w=1200&h=750&q=66&auto=format&fit=crop&crop=entropy","https://images.unsplash.com/photo-1502672260266-1c1ef2d93688?w=1200&h=750&q=66&auto=format&fit=crop&crop=entropy","https://images.unsplash.com/photo-1522708323590-d24dbb6b0267?w=1200&h=750&q=66&auto=format&fit=crop&crop=entropy"],"thumb":"https://images.unsplash.com/photo-1505691938895-1758d7feb511?w=480&h=300&q=55&auto=format&fit=crop&crop=entropy","score":{"opportunity_score":16,"value_score":21,"yield_score":4,"negotiation_score":1,"liquidity_score":74,"gentrification_score":55},"signals":{"price_drops":0,"total_drop_percent":0,"long_time_on_market":false,"explanations":["1.4% net rental yield (gross 2.8%)","11.7% above DVF average","3 days on market","Energy class F — rental restrictions apply"]},"source":"dvf","url":"https://app.dvf.etalab.gouv.fr/"}