{"id":"dvf-2024-1210419","address":{"raw":"13 Rue De Levis, 75017 Paris","normalized":"13 Rue de Lévis 75017 Paris","lat":48.881942,"lng":2.315698,"district":"75017"},"characteristics":{"surface_m2":73,"rooms":4,"floor":2},"pricing":{"current_price":903021,"price_per_m2":12370,"initial_price":903021},"timeline":{"first_seen":"2026-06-29","last_seen":"2026-07-02","days_on_market":3},"price_history":[{"date":"2026-06-29","price":903021,"source":"dvf"}],"status":"active","dvf":{"avg_price_m2_100m":11322,"avg_price_m2_500m":11405,"comparable_sales":[{"price":1775000,"date":"2024-03-15","distance_m":29},{"price":2291800,"date":"2024-06-14","distance_m":29},{"price":332000,"date":"2024-10-16","distance_m":40},{"price":330000,"date":"2024-12-16","distance_m":40},{"price":418500,"date":"2024-05-27","distance_m":44},{"price":584350,"date":"2024-12-17","distance_m":44},{"price":304825,"date":"2024-08-01","distance_m":57},{"price":267000,"date":"2024-10-28","distance_m":57}]},"risks":{"flood":0.03,"clay":0.28,"noise":0.79},"transport_score":100,"neighborhood":{"walk_score":95,"schools_500m":15,"income":35000,"velib_400m":7,"trees_150m":114,"amenities":{"food":21,"health":6,"green":4,"culture":4}},"rent":{"ref_m2":24.7,"max_m2":29.6,"min_m2":17.3,"quartier":"Plaine de Monceaux","monthly_est":2161},"investment":{"gross_yield":2.87,"net_yield":1.55,"ppm2_percentile":80,"negotiation_margin_pct":0.1,"dpe_risk_score":75,"value_add_flag":false},"pois":[{"type":"transport","lat":48.881094427166275,"lng":2.3147210047461946,"label":"Villiers · METRO 3"},{"type":"transport","lat":48.881094427166275,"lng":2.3147210047461946,"label":"Villiers · METRO 2"},{"type":"transport","lat":48.88233342370702,"lng":2.3218017310631685,"label":"Rome · METRO 2"},{"type":"transport","lat":48.88289191745414,"lng":2.309052264550479,"label":"Malesherbes · METRO 3"},{"type":"transport","lat":48.88032518647405,"lng":2.308773835955807,"label":"Monceau · METRO 2"},{"type":"park","lat":48.88223958961618,"lng":2.311234680521504,"label":"PELOUSE PLACE DU GENERAL CATROUX-EST (ALEXANDRE DUMAS FILS)"},{"type":"park","lat":48.88241296479152,"lng":2.3101576489368556,"label":"JARDIN DE LA LITUANIE"},{"type":"park","lat":48.88299112005179,"lng":2.309568081685045,"label":"PELOUSE PLACE DU GENERAL CATROUX-OUEST (ALEXANDRE DUMAS PERE)"},{"type":"velib","lat":48.881252538461,"lng":2.3165384307504,"label":"Villiers - Batignolles"},{"type":"velib","lat":48.882428,"lng":2.314002,"label":"De Toqueville - Terrasse"},{"type":"velib","lat":48.883546851533254,"lng":2.3131933808326726,"label":"Place de Lévis"},{"type":"velib","lat":48.8795079,"lng":2.3145456,"label":"Monceau - Malesherbes"}],"dpe":{"energy_class":"D","ghg_class":"B"},"images":["https://images.unsplash.com/photo-1540518614846-7eded433c457?w=1200&h=750&q=66&auto=format&fit=crop&crop=entropy","https://images.unsplash.com/photo-1502005097973-6a7082348e28?w=1200&h=750&q=66&auto=format&fit=crop&crop=entropy","https://images.unsplash.com/photo-1567496898669-ee935f5f647a?w=1200&h=750&q=66&auto=format&fit=crop&crop=entropy","https://images.unsplash.com/photo-1484154218962-a197022b5858?w=1200&h=750&q=66&auto=format&fit=crop&crop=entropy","https://images.unsplash.com/photo-1502672260266-1c1ef2d93688?w=1200&h=750&q=66&auto=format&fit=crop&crop=entropy"],"thumb":"https://images.unsplash.com/photo-1540518614846-7eded433c457?w=480&h=300&q=55&auto=format&fit=crop&crop=entropy","score":{"opportunity_score":24,"value_score":28,"yield_score":7,"negotiation_score":1,"liquidity_score":76,"gentrification_score":55},"signals":{"price_drops":0,"total_drop_percent":0,"long_time_on_market":false,"explanations":["1.6% net rental yield (gross 2.9%)","8.9% above DVF average","3 days on market"]},"source":"dvf","url":"https://app.dvf.etalab.gouv.fr/"}