{"id":"dvf-2024-1209562","address":{"raw":"85 Rue Du Fbg Saint Denis, 75010 Paris","normalized":"85 Rue du Faubourg Saint-Denis 75010 Paris","lat":48.873654,"lng":2.354837,"district":"75010"},"characteristics":{"surface_m2":25,"rooms":1,"floor":1},"pricing":{"current_price":211000,"price_per_m2":8440,"initial_price":211000},"timeline":{"first_seen":"2026-06-29","last_seen":"2026-07-01","days_on_market":2},"price_history":[{"date":"2026-06-29","price":211000,"source":"dvf"}],"status":"active","dvf":{"avg_price_m2_100m":10019,"avg_price_m2_500m":9933,"comparable_sales":[{"price":361300,"date":"2024-11-12","distance_m":37},{"price":667000,"date":"2024-09-10","distance_m":56},{"price":325000,"date":"2024-04-03","distance_m":60},{"price":436350,"date":"2024-04-30","distance_m":60},{"price":608000,"date":"2024-09-17","distance_m":73},{"price":670000,"date":"2024-04-24","distance_m":77},{"price":588600,"date":"2024-12-18","distance_m":78},{"price":588200,"date":"2024-12-30","distance_m":79}]},"risks":{"flood":0.03,"clay":0.35,"noise":0.42},"transport_score":100,"neighborhood":{"walk_score":65,"schools_500m":2,"income":29000,"velib_400m":9,"trees_150m":66,"amenities":{"food":20,"health":7,"green":0,"culture":3}},"rent":{"ref_m2":31.1,"max_m2":37.3,"min_m2":21.8,"quartier":"Porte-Saint-Denis","monthly_est":932},"investment":{"gross_yield":5.3,"net_yield":3.82,"ppm2_percentile":30,"negotiation_margin_pct":0.1,"dpe_risk_score":75,"value_add_flag":false},"pois":[{"type":"transport","lat":48.87262083992817,"lng":2.356153947450339,"label":"Château d'Eau · METRO 4"},{"type":"transport","lat":48.8759910648072,"lng":2.357880771925327,"label":"Gare de l'Est · METRO 4"},{"type":"transport","lat":48.87612635294891,"lng":2.358047505360746,"label":"Gare de l'Est · METRO 5"},{"type":"transport","lat":48.8762727026041,"lng":2.3580579070747385,"label":"Gare de l'Est · METRO 7"},{"type":"transport","lat":48.869628863778516,"lng":2.354468813108209,"label":"Strasbourg-Saint-Denis · METRO 4"},{"type":"park","lat":48.87483795581535,"lng":2.353538194633302,"label":"JARDINET DE LA RUE DE PARADIS"},{"type":"park","lat":48.87566006959757,"lng":2.3549634858904502,"label":"SQUARE ALBAN SATRAGNE"},{"type":"park","lat":48.87561658871711,"lng":2.3540148209120417,"label":"JARDIN SAINT-LAZARE"},{"type":"velib","lat":48.872871205898,"lng":2.3542150855064,"label":"Petites Ecuries - Faubourg Saint-Denis"},{"type":"velib","lat":48.874575,"lng":2.356796,"label":"Gare de l'Est - Fidélité"},{"type":"velib","lat":48.875388227727,"lng":2.3559567333359,"label":"Square Alban Satragne"},{"type":"velib","lat":48.874999954666755,"lng":2.3522757401923404,"label":"Paradis - Hauteville"}],"dpe":{"energy_class":"D","ghg_class":"D"},"images":["https://images.unsplash.com/photo-1540518614846-7eded433c457?w=1200&h=750&q=66&auto=format&fit=crop&crop=entropy","https://images.unsplash.com/photo-1505691938895-1758d7feb511?w=1200&h=750&q=66&auto=format&fit=crop&crop=entropy","https://images.unsplash.com/photo-1502672260266-1c1ef2d93688?w=1200&h=750&q=66&auto=format&fit=crop&crop=entropy","https://images.unsplash.com/photo-1560448204-e02f11c3d0e2?w=1200&h=750&q=66&auto=format&fit=crop&crop=entropy","https://images.unsplash.com/photo-1493809842364-78817add7ffb?w=1200&h=750&q=66&auto=format&fit=crop&crop=entropy"],"thumb":"https://images.unsplash.com/photo-1540518614846-7eded433c457?w=480&h=300&q=55&auto=format&fit=crop&crop=entropy","score":{"opportunity_score":64,"value_score":89,"yield_score":100,"negotiation_score":0,"liquidity_score":80,"gentrification_score":46},"signals":{"price_drops":0,"total_drop_percent":0,"long_time_on_market":false,"explanations":["3.8% net rental yield (gross 5.3%)","15.5% below DVF average (9 985 €/m²)","Cheaper than 70% of the arrondissement","2 days on market"]},"source":"dvf","url":"https://app.dvf.etalab.gouv.fr/"}