{"id":"dvf-2024-1210434","address":{"raw":"207 Rue La Fayette, 75010 Paris","normalized":"207 Rue la Fayette 75010 Paris","lat":48.881189,"lng":2.363804,"district":"75010"},"characteristics":{"surface_m2":18,"rooms":1,"floor":0},"pricing":{"current_price":142500,"price_per_m2":7917,"initial_price":142500},"timeline":{"first_seen":"2026-06-29","last_seen":"2026-07-02","days_on_market":3},"price_history":[{"date":"2026-06-29","price":142500,"source":"dvf"}],"status":"active","dvf":{"avg_price_m2_100m":9387,"avg_price_m2_500m":9125,"comparable_sales":[{"price":368000,"date":"2024-01-09","distance_m":23},{"price":90000,"date":"2024-04-12","distance_m":23},{"price":352140,"date":"2024-10-11","distance_m":50},{"price":368000,"date":"2024-11-27","distance_m":50},{"price":159000,"date":"2024-01-19","distance_m":63},{"price":267400,"date":"2024-05-21","distance_m":88},{"price":505000,"date":"2024-06-24","distance_m":88},{"price":444000,"date":"2024-08-02","distance_m":88}]},"risks":{"flood":0.06,"clay":0.21,"noise":0.43},"transport_score":100,"neighborhood":{"walk_score":82,"schools_500m":5,"income":29000,"velib_400m":7,"trees_150m":60,"amenities":{"food":14,"health":6,"green":3,"culture":5}},"rent":{"ref_m2":31.1,"max_m2":37.3,"min_m2":21.8,"quartier":"Saint-Vincent-de-Paul","monthly_est":671},"investment":{"gross_yield":5.65,"net_yield":4.14,"ppm2_percentile":18,"negotiation_margin_pct":0.1,"dpe_risk_score":10,"value_add_flag":false},"pois":[{"type":"transport","lat":48.881192119070995,"lng":2.364378741179748,"label":"Louis Blanc · METRO 7bis"},{"type":"transport","lat":48.88094656356074,"lng":2.3649934724001813,"label":"Louis Blanc · METRO 7"},{"type":"transport","lat":48.87844430039445,"lng":2.3619653022299603,"label":"Château-Landon · METRO 7"},{"type":"transport","lat":48.88077520479297,"lng":2.3587329590878596,"label":"Magenta · RER E"},{"type":"transport","lat":48.88428415025653,"lng":2.365821546282089,"label":"Stalingrad · METRO 2"},{"type":"park","lat":48.88042258054138,"lng":2.3621892464466105,"label":"JARDINET DE LA STATUE DE LA MATERNITE"},{"type":"park","lat":48.882794051804666,"lng":2.3623244893977158,"label":"JARDINET DE LA STATUE DU FAUNE"},{"type":"park","lat":48.87808354908699,"lng":2.365894152536582,"label":"SQUARE EUGENE VARLIN"},{"type":"velib","lat":48.882030182599,"lng":2.363561578095,"label":"Louis Blanc - Aqueduc"},{"type":"velib","lat":48.879305,"lng":2.362424,"label":"Gare de l'Est - Chateau Landon"},{"type":"velib","lat":48.879359419425,"lng":2.3665961623192,"label":"Alexandre Parodi - Quai de Valmy"},{"type":"velib","lat":48.881269515794,"lng":2.3681860417128,"label":"Quai de Valmy"}],"dpe":{"energy_class":"G","ghg_class":"C"},"images":["https://images.unsplash.com/photo-1560448204-e02f11c3d0e2?w=1200&h=750&q=66&auto=format&fit=crop&crop=entropy","https://images.unsplash.com/photo-1502005097973-6a7082348e28?w=1200&h=750&q=66&auto=format&fit=crop&crop=entropy","https://images.unsplash.com/photo-1554995207-c18c203602cb?w=1200&h=750&q=66&auto=format&fit=crop&crop=entropy","https://images.unsplash.com/photo-1505691938895-1758d7feb511?w=1200&h=750&q=66&auto=format&fit=crop&crop=entropy","https://images.unsplash.com/photo-1493809842364-78817add7ffb?w=1200&h=750&q=66&auto=format&fit=crop&crop=entropy"],"thumb":"https://images.unsplash.com/photo-1560448204-e02f11c3d0e2?w=480&h=300&q=55&auto=format&fit=crop&crop=entropy","score":{"opportunity_score":40,"value_score":87,"yield_score":100,"negotiation_score":1,"liquidity_score":82,"gentrification_score":46},"signals":{"price_drops":0,"total_drop_percent":0,"long_time_on_market":false,"explanations":["4.1% net rental yield (gross 5.7%)","14.7% below DVF average (9 282 €/m²)","Cheaper than 82% of the arrondissement","3 days on market","Energy class G — rental restrictions apply"]},"source":"dvf","url":"https://app.dvf.etalab.gouv.fr/"}