{"id":"dvf-2024-1229099","address":{"raw":"3 Sq Mignot, 75016 Paris","normalized":"3 Square Mignot 75016 Paris","lat":48.862217,"lng":2.282805,"district":"75016"},"characteristics":{"surface_m2":40,"rooms":1,"floor":2},"pricing":{"current_price":370000,"price_per_m2":9250,"initial_price":370000},"timeline":{"first_seen":"2026-06-29","last_seen":"2026-07-02","days_on_market":3},"price_history":[{"date":"2026-06-29","price":370000,"source":"dvf"}],"status":"active","dvf":{"avg_price_m2_100m":11066,"avg_price_m2_500m":12021,"comparable_sales":[{"price":650000,"date":"2024-11-22","distance_m":12},{"price":582000,"date":"2024-04-23","distance_m":25},{"price":385000,"date":"2024-12-20","distance_m":25},{"price":1275150,"date":"2024-04-22","distance_m":37},{"price":780000,"date":"2024-07-31","distance_m":37},{"price":218000,"date":"2024-10-11","distance_m":39},{"price":670830,"date":"2024-03-28","distance_m":47},{"price":809150,"date":"2024-02-16","distance_m":51}]},"risks":{"flood":0.02,"clay":0.48,"noise":0.39},"transport_score":84,"neighborhood":{"walk_score":34,"schools_500m":11,"income":44000,"velib_400m":4,"trees_150m":14,"amenities":{"food":1,"health":3,"green":0,"culture":0}},"rent":{"ref_m2":29.5,"max_m2":35.4,"min_m2":20.6,"quartier":"Muette","monthly_est":1416},"investment":{"gross_yield":4.59,"net_yield":3.16,"ppm2_percentile":30,"negotiation_margin_pct":0.1,"dpe_risk_score":55,"value_add_flag":false},"pois":[{"type":"transport","lat":48.863065020217945,"lng":2.2862431693282357,"label":"Trocadéro · METRO 9"},{"type":"transport","lat":48.86394013069539,"lng":2.2784416488331494,"label":"Rue de la Pompe · METRO 9"},{"type":"transport","lat":48.863610937645674,"lng":2.2875801625296517,"label":"Trocadéro · METRO 6"},{"type":"transport","lat":48.85744869007581,"lng":2.2858124441464076,"label":"Passy · METRO 6"},{"type":"transport","lat":48.86698310944948,"lng":2.290058833580487,"label":"Boissière · METRO 6"},{"type":"park","lat":48.862531506628414,"lng":2.285100122038995,"label":"CIMETIERE DE PASSY"},{"type":"park","lat":48.86164950866197,"lng":2.2864393297684313,"label":"SQUARE YORKTOWN"},{"type":"park","lat":48.86299506371672,"lng":2.2871278022085346,"label":"JARDIN DE LA PLACE DU TROCADERO ET DU ONZE NOVEMBRE"},{"type":"velib","lat":48.861773096259,"lng":2.2838841134601,"label":"Commandant Schloesing - Pétrarque"},{"type":"velib","lat":48.863875,"lng":2.28189,"label":"Sablons - Georges Mandel"},{"type":"velib","lat":48.863354122371,"lng":2.2864209115505,"label":"Eylau - Trocadéro"},{"type":"velib","lat":48.865804746474,"lng":2.2829206287861,"label":"Belles Feuilles - Place de Mexico"}],"dpe":{"energy_class":"E","ghg_class":"E"},"images":["https://images.unsplash.com/photo-1560448204-e02f11c3d0e2?w=1200&h=750&q=66&auto=format&fit=crop&crop=entropy","https://images.unsplash.com/photo-1522708323590-d24dbb6b0267?w=1200&h=750&q=66&auto=format&fit=crop&crop=entropy","https://images.unsplash.com/photo-1554995207-c18c203602cb?w=1200&h=750&q=66&auto=format&fit=crop&crop=entropy","https://images.unsplash.com/photo-1484154218962-a197022b5858?w=1200&h=750&q=66&auto=format&fit=crop&crop=entropy","https://images.unsplash.com/photo-1493809842364-78817add7ffb?w=1200&h=750&q=66&auto=format&fit=crop&crop=entropy"],"thumb":"https://images.unsplash.com/photo-1560448204-e02f11c3d0e2?w=480&h=300&q=55&auto=format&fit=crop&crop=entropy","score":{"opportunity_score":57,"value_score":98,"yield_score":88,"negotiation_score":1,"liquidity_score":71,"gentrification_score":64},"signals":{"price_drops":0,"total_drop_percent":0,"long_time_on_market":false,"explanations":["3.2% net rental yield (gross 4.6%)","19.2% below DVF average (11 448 €/m²)","Cheaper than 70% of the arrondissement","3 days on market"]},"source":"dvf","url":"https://app.dvf.etalab.gouv.fr/"}