{"id":"dvf-2024-1228853","address":{"raw":"97 Rue De Charonne, 75011 Paris","normalized":"97 Rue de Charonne 75011 Paris","lat":48.854308,"lng":2.383348,"district":"75011"},"characteristics":{"surface_m2":28,"rooms":1,"floor":0},"pricing":{"current_price":307700,"price_per_m2":10989,"initial_price":307700},"timeline":{"first_seen":"2026-06-29","last_seen":"2026-07-01","days_on_market":2},"price_history":[{"date":"2026-06-29","price":307700,"source":"dvf"}],"status":"active","dvf":{"avg_price_m2_100m":9615,"avg_price_m2_500m":10156,"comparable_sales":[{"price":238300,"date":"2024-05-15","distance_m":37},{"price":105000,"date":"2024-05-17","distance_m":37},{"price":258000,"date":"2024-06-24","distance_m":37},{"price":369780,"date":"2024-07-12","distance_m":37},{"price":290000,"date":"2024-11-29","distance_m":37},{"price":225000,"date":"2024-12-17","distance_m":37},{"price":333333,"date":"2024-12-19","distance_m":37},{"price":595000,"date":"2024-02-29","distance_m":45}]},"risks":{"flood":0.04,"clay":0.28,"noise":0.37},"transport_score":92,"neighborhood":{"walk_score":98,"schools_500m":26,"income":30000,"velib_400m":7,"trees_150m":154,"amenities":{"food":32,"health":10,"green":6,"culture":4}},"rent":{"ref_m2":29.6,"max_m2":35.5,"min_m2":20.7,"quartier":"Roquette","monthly_est":994},"investment":{"gross_yield":3.88,"net_yield":2.49,"ppm2_percentile":60,"negotiation_margin_pct":0.1,"dpe_risk_score":10,"value_add_flag":false},"pois":[{"type":"transport","lat":48.855094494476994,"lng":2.3846997601328437,"label":"Charonne · METRO 9"},{"type":"transport","lat":48.85017786279968,"lng":2.384092210055667,"label":"Faidherbe Chaligny · METRO 8"},{"type":"transport","lat":48.85787849486676,"lng":2.3800206442479825,"label":"Voltaire · METRO 9"},{"type":"transport","lat":48.852168369650244,"lng":2.3896255399759547,"label":"Rue des Boulets · METRO 9"},{"type":"transport","lat":48.85152370843435,"lng":2.3751010337556164,"label":"Ledru Rollin · METRO 8"},{"type":"park","lat":48.85265799846988,"lng":2.381568819780539,"label":"SQUARE RAOUL NORDLING"},{"type":"park","lat":48.855890662388326,"lng":2.385562783674316,"label":"SQUARE EDMEE CHANDON"},{"type":"park","lat":48.856682591663656,"lng":2.383435659595748,"label":"SQUARE JEAN ALLEMANE"},{"type":"velib","lat":48.854284379935,"lng":2.3847674578428,"label":"Jules Vallès - Charonne"},{"type":"velib","lat":48.85337548426,"lng":2.3828620836139,"label":"Jean Macé - Faidherbe"},{"type":"velib","lat":48.8563358,"lng":2.3829901,"label":"Belfort - Voltaire"},{"type":"velib","lat":48.85242200848887,"lng":2.380632497370243,"label":"Charles Delescluze"}],"dpe":{"energy_class":"G","ghg_class":"G"},"images":["https://images.unsplash.com/photo-1567496898669-ee935f5f647a?w=1200&h=750&q=66&auto=format&fit=crop&crop=entropy","https://images.unsplash.com/photo-1484154218962-a197022b5858?w=1200&h=750&q=66&auto=format&fit=crop&crop=entropy","https://images.unsplash.com/photo-1560448204-e02f11c3d0e2?w=1200&h=750&q=66&auto=format&fit=crop&crop=entropy","https://images.unsplash.com/photo-1556912173-3bb406ef7e77?w=1200&h=750&q=66&auto=format&fit=crop&crop=entropy","https://images.unsplash.com/photo-1522708323590-d24dbb6b0267?w=1200&h=750&q=66&auto=format&fit=crop&crop=entropy"],"thumb":"https://images.unsplash.com/photo-1567496898669-ee935f5f647a?w=480&h=300&q=55&auto=format&fit=crop&crop=entropy","score":{"opportunity_score":25,"value_score":40,"yield_score":55,"negotiation_score":0,"liquidity_score":84,"gentrification_score":45},"signals":{"price_drops":0,"total_drop_percent":0,"long_time_on_market":false,"explanations":["2.5% net rental yield (gross 3.9%)","11.8% above DVF average","2 days on market","Energy class G — rental restrictions apply"]},"source":"dvf","url":"https://app.dvf.etalab.gouv.fr/"}