{"id":"dvf-2024-1210122","address":{"raw":"69 B Rue Des Maraichers, 75020 Paris","normalized":"69b Rue des Maraîchers 75020 Paris","lat":48.854254,"lng":2.406215,"district":"75020"},"characteristics":{"surface_m2":25,"rooms":2,"floor":1},"pricing":{"current_price":310000,"price_per_m2":12400,"initial_price":310000},"timeline":{"first_seen":"2026-06-29","last_seen":"2026-07-01","days_on_market":2},"price_history":[{"date":"2026-06-29","price":310000,"source":"dvf"}],"status":"active","dvf":{"avg_price_m2_100m":9322,"avg_price_m2_500m":8208,"comparable_sales":[{"price":207400,"date":"2024-09-24","distance_m":43},{"price":327400,"date":"2024-09-27","distance_m":43},{"price":179400,"date":"2024-09-09","distance_m":43},{"price":205400,"date":"2024-10-09","distance_m":43},{"price":337400,"date":"2024-10-29","distance_m":43},{"price":321400,"date":"2024-11-15","distance_m":43},{"price":288000,"date":"2024-02-08","distance_m":65},{"price":271300,"date":"2024-04-11","distance_m":65}]},"risks":{"flood":0.05,"clay":0.13,"noise":0.32},"transport_score":99,"neighborhood":{"walk_score":77,"schools_500m":29,"income":25000,"velib_400m":9,"trees_150m":107,"amenities":{"food":24,"health":3,"green":3,"culture":0}},"rent":{"ref_m2":23.4,"max_m2":28.1,"min_m2":16.4,"quartier":"Charonne","monthly_est":703},"investment":{"gross_yield":2.72,"net_yield":1.41,"ppm2_percentile":98,"negotiation_margin_pct":0.1,"dpe_risk_score":10,"value_add_flag":false},"pois":[{"type":"transport","lat":48.85272512017012,"lng":2.406089161868773,"label":"Maraîchers · METRO 9"},{"type":"transport","lat":48.85298727790375,"lng":2.4107411361264375,"label":"Porte de Montreuil · TRAM 3b"},{"type":"transport","lat":48.85197520932561,"lng":2.401927284511547,"label":"Buzenval · METRO 9"},{"type":"transport","lat":48.853772788014886,"lng":2.4118948370564355,"label":"Porte de Montreuil · METRO 9"},{"type":"transport","lat":48.85870401022034,"lng":2.409685685604103,"label":"Marie de Miribel · TRAM 3b"},{"type":"park","lat":48.855337158834935,"lng":2.403462560547029,"label":"JARDIN PARTAGE LE JARDIN SUR LE TOIT - GYMNASE 93 RUE DES HAIES"},{"type":"park","lat":48.855371190833324,"lng":2.4093649777968142,"label":"JARDIN DES RUES DES ORTEAUX - CROIX SAINT-SIMON"},{"type":"park","lat":48.855692715797105,"lng":2.4031775358103813,"label":"JARDIN PARTAGE DE L'IMPASSE SATAN"},{"type":"velib","lat":48.853246898211985,"lng":2.405871044529538,"label":"Pyrénées - Avron"},{"type":"velib","lat":48.855425770695,"lng":2.4051643162966,"label":"Pyrénées - Dagorno"},{"type":"velib","lat":48.85558642847872,"lng":2.408762907764669,"label":"Orteaux - Mouraud"},{"type":"velib","lat":48.852566752033766,"lng":2.403928068708116,"label":"Réunion - Avron"}],"dpe":{"energy_class":"G","ghg_class":"D"},"images":["https://images.unsplash.com/photo-1560448204-e02f11c3d0e2?w=1200&h=750&q=66&auto=format&fit=crop&crop=entropy","https://images.unsplash.com/photo-1567496898669-ee935f5f647a?w=1200&h=750&q=66&auto=format&fit=crop&crop=entropy","https://images.unsplash.com/photo-1505691938895-1758d7feb511?w=1200&h=750&q=66&auto=format&fit=crop&crop=entropy","https://images.unsplash.com/photo-1502005097973-6a7082348e28?w=1200&h=750&q=66&auto=format&fit=crop&crop=entropy","https://images.unsplash.com/photo-1484154218962-a197022b5858?w=1200&h=750&q=66&auto=format&fit=crop&crop=entropy"],"thumb":"https://images.unsplash.com/photo-1560448204-e02f11c3d0e2?w=480&h=300&q=55&auto=format&fit=crop&crop=entropy","score":{"opportunity_score":10,"value_score":2,"yield_score":3,"negotiation_score":0,"liquidity_score":78,"gentrification_score":45},"signals":{"price_drops":0,"total_drop_percent":0,"long_time_on_market":false,"explanations":["1.4% net rental yield (gross 2.7%)","39.7% above DVF average","2 days on market","Energy class G — rental restrictions apply"]},"source":"dvf","url":"https://app.dvf.etalab.gouv.fr/"}